timestamp,trackMode,telSeqId,personCount,personConfidence,faceXPx,faceYPx,faceRadiusPx,angle_err,estimatedDistance,estimatedXPos,estimatedYPos,estimatedZPos,Uyaw,Uz,Ux,Uy,pitch,roll,yaw,vx,vy,vz,tof,batt,temp
4722,0,0,0,0,0,0,0,0,0,0,0,0,0,0,0,0,0,0,0,0,0,0,10,79,69
4831,0,0,0,0,0,0,0,0,0,0,0,0,0,0,0,0,0,0,0,0,0,0,10,79,69
4934,0,0,0,0,0,0,0,0,0,0,0,0,0,0,0,0,0,0,0,0,0,0,10,79,69
5046,0,0,0,0,0,0,0,0,0,0,0,0,0,0,0,0,0,0,0,0,0,0,10,79,69
5148,0,0,0,0,0,0,0,0,0,0,0,0,0,0,0,0,0,0,0,0,0,0,10,79,69
5249,0,0,0,0,0,0,0,0,0,0,0,0,0,0,0,0,0,0,0,0,0,0,10,79,69
5350,0,0,0,0,0,0,0,0,0,0,0,0,0,0,0,0,0,0,0,0,0,0,10,79,69
5452,0,0,0,0,0,0,0,0,0,0,0,0,0,0,0,0,0,0,0,0,0,0,10,79,69
5553,0,0,0,0,0,0,0,0,0,0,0,0,0,0,0,0,0,0,0,0,0,0,10,79,69
5655,0,0,0,0,0,0,0,0,0,0,0,0,0,0,0,0,0,0,0,0,0,0,10,79,69
5757,0,0,0,0,0,0,0,0,0,0,0,0,0,0,0,0,0,0,0,0,0,0,10,79,69
5858,0,0,0,0,0,0,0,0,0,0,0,0,0,0,0,0,0,0,0,0,0,0,10,79,69
5960,0,0,0,0,0,0,0,0,0,0,0,0,0,0,0,0,0,0,0,0,0,0,10,79,69
6061,0,0,0,0,0,0,0,0,0,0,0,0,0,0,0,0,0,0,0,0,0,0,10,79,69
6163,0,0,0,0,0,0,0,0,0,0,0,0,0,0,0,0,0,0,0,0,0,0,10,79,69
6265,0,0,0,0,0,0,0,0,0,0,0,0,0,0,0,0,0,0,0,0,0,0,10,79,69
6366,0,0,0,0,0,0,0,0,0,0,0,0,0,0,0,0,0,0,0,0,0,0,10,79,69
6467,0,0,0,0,0,0,0,0,0,0,0,0,0,0,0,0,0,0,0,0,0,0,10,79,69
6569,0,0,0,0,0,0,0,0,0,0,0,0,0,0,0,0,0,0,0,0,0,0,10,79,69
6671,0,0,0,0,0,0,0,0,0,0,0,0,0,0,0,0,0,0,0,0,0,0,10,79,69
6773,0,0,0,0,0,0,0,0,0,0,0,0,0,0,0,0,0,0,0,0,0,0,10,79,69
6875,0,0,0,0,0,0,0,0,0,0,0,0,0,0,0,0,0,0,0,0,0,0,10,79,69
6977,0,0,0,0,0,0,0,0,0,0,0,0,0,0,0,0,0,0,0,0,0,0,10,79,69
7079,0,0,0,0,0,0,0,0,0,0,0,0,0,0,0,0,0,0,0,0,0,0,10,79,69
7181,0,0,0,0,0,0,0,0,0,0,0,0,0,0,0,0,0,0,0,0,0,0,10,79,69
7282,0,0,0,0,0,0,0,0,0,0,0,0,0,0,0,0,0,0,0,0,0,0,10,79,69
7383,0,0,0,0,0,0,0,0,0,0,0,0,0,0,0,0,0,0,0,0,0,0,10,79,69
7484,0,0,0,0,0,0,0,0,0,0,0,0,0,0,0,0,0,0,0,0,0,0,10,79,69
7586,0,0,0,0,0,0,0,0,0,0,0,0,0,0,0,0,0,0,0,0,0,0,10,79,69
7687,0,0,0,0,0,0,0,0,0,0,0,0,0,0,0,0,0,0,0,0,0,0,10,79,69
7788,0,0,0,0,0,0,0,0,0,0,0,0,0,0,0,0,0,0,0,0,0,0,10,79,69
7889,0,0,0,0,0,0,0,0,0,0,0,0,0,0,0,0,0,0,0,0,0,0,10,79,69
7990,0,0,0,0,0,0,0,0,0,0,0,0,0,0,0,0,0,0,0,0,0,0,10,79,69
8092,0,0,0,0,0,0,0,0,0,0,0,0,0,0,0,0,0,0,0,0,0,0,10,79,69
8193,0,0,0,0,0,0,0,0,0,0,0,0,0,0,0,0,0,0,0,0,0,0,10,79,69
8294,0,0,0,0,0,0,0,0,0,0,0,0,0,0,0,0,0,0,0,0,0,0,10,79,69
8395,0,0,0,0,0,0,0,0,0,0,0,0,0,0,0,0,0,0,0,0,0,0,10,79,69
8497,0,0,0,0,0,0,0,0,0,0,0,0,0,0,0,0,0,0,0,0,0,0,10,79,69
8602,0,0,0,0,0,0,0,0,0,0,0,0,0,0,0,0,0,0,0,0,0,0,10,79,69
8710,0,0,0,0,0,0,0,0,0,0,0,0,0,0,0,0,0,0,0,0,0,0,10,79,69
8812,0,0,0,0,0,0,0,0,0,0,0,0,0,0,0,0,0,0,0,0,0,0,10,79,69
8914,0,0,0,0,0,0,0,0,0,0,0,0,0,0,0,0,0,0,0,0,0,0,10,79,69
9022,0,0,0,0,0,0,0,0,0,0,0,0,0,0,0,0,0,0,0,0,0,0,10,79,70
9123,0,0,0,0,0,0,0,0,0,0,0,0,0,0,0,0,0,0,0,0,0,0,10,79,70
9225,0,0,0,0,0,0,0,0,0,0,0,0,0,0,0,0,0,0,0,0,0,0,10,78,70
9326,0,0,0,0,0,0,0,0,0,0,0,0,0,0,0,0,0,0,0,0,0,0,10,78,70
9427,0,0,0,0,0,0,0,0,0,0,0,0,0,0,0,0,0,0,0,0,0,0,10,78,70
9528,0,0,0,0,0,0,0,0,0,0,0,0,0,0,0,0,0,0,0,0,0,0,10,78,70
9629,0,0,0,0,0,0,0,0,0,0,0,0,0,0,0,0,0,0,0,0,0,0,10,78,70
9729,0,0,0,0,0,0,0,0,0,0,0,0,0,0,0,0,0,0,0,0,0,0,10,78,70
9831,0,0,0,0,0,0,0,0,0,0,0,0,0,0,0,0,0,0,0,0,0,0,10,78,70
9932,0,0,0,0,0,0,0,0,0,0,0,0,0,0,0,0,0,0,0,0,0,0,10,78,69
10039,0,0,0,0,0,0,0,0,0,0,0,0,0,0,0,0,0,0,0,0,0,0,10,78,69
10141,0,0,0,0,0,0,0,0,0,0,0,0,0,0,0,0,0,0,0,0,0,0,10,78,69
10242,0,0,0,0,0,0,0,0,0,0,0,0,0,0,0,0,0,0,0,0,0,0,10,78,69
10343,0,0,0,0,0,0,0,0,0,0,0,0,0,0,0,0,0,0,0,0,0,0,10,78,69
10445,0,0,0,0,0,0,0,0,0,0,0,0,0,0,0,0,0,0,0,0,0,0,10,78,69
10546,0,0,0,0,0,0,0,0,0,0,0,0,0,0,0,0,0,0,0,0,0,0,10,78,69
10647,0,0,0,0,0,0,0,0,0,0,0,0,0,0,0,0,0,0,0,0,0,0,10,78,69
10750,0,0,0,0,0,0,0,0,0,0,0,0,0,0,0,0,0,0,0,0,0,0,10,78,69
10851,0,0,0,0,0,0,0,0,0,0,0,0,0,0,0,0,0,0,0,0,0,0,10,78,69
10952,0,0,0,0,0,0,0,0,0,0,0,0,0,0,0,0,0,0,0,0,0,0,10,78,70
11052,0,0,0,0,0,0,0,0,0,0,0,0,0,0,0,0,0,0,0,0,0,0,10,78,70
11153,0,0,0,0,0,0,0,0,0,0,0,0,0,0,0,0,0,0,0,0,0,0,10,78,70
11255,0,0,0,0,0,0,0,0,0,0,0,0,0,0,0,0,0,0,0,0,0,0,10,78,70
11356,0,0,0,0,0,0,0,0,0,0,0,0,0,0,0,0,0,0,0,0,0,0,10,78,70
11457,0,0,0,0,0,0,0,0,0,0,0,0,0,0,0,0,0,0,0,0,0,0,10,78,70
11557,0,0,0,0,0,0,0,0,0,0,0,0,0,0,0,0,0,0,0,0,0,0,10,78,70
11659,0,0,0,0,0,0,0,0,0,0,0,0,0,0,0,0,0,0,0,0,0,0,10,78,70
11760,0,0,0,0,0,0,0,0,0,0,0,0,0,0,0,0,0,0,0,0,0,0,10,78,70
11861,0,0,0,0,0,0,0,0,0,0,0,0,0,0,0,0,0,0,0,0,0,0,10,78,70
11962,0,0,0,0,0,0,0,0,0,0,0,0,0,0,0,0,0,0,0,0,0,0,10,78,70
12062,0,0,0,0,0,0,0,0,0,0,0,0,0,0,0,0,0,0,0,0,0,0,10,78,70
12164,0,0,0,0,0,0,0,0,0,0,0,0,0,0,0,0,0,0,0,0,0,0,10,78,70
12265,0,0,0,0,0,0,0,0,0,0,0,0,0,0,0,0,0,0,0,0,0,0,10,78,70
12366,0,0,0,0,0,0,0,0,0,0,0,0,0,0,0,0,0,0,0,0,0,0,10,78,70
12467,0,0,0,0,0,0,0,0,0,0,0,0,0,0,0,0,0,0,0,0,0,0,10,78,70
12568,0,0,0,0,0,0,0,0,0,0,0,0,0,0,0,0,0,0,0,0,0,0,10,78,70
12669,0,0,0,0,0,0,0,0,0,0,0,0,0,0,0,0,0,0,0,0,0,0,10,78,70
12771,0,0,0,0,0,0,0,0,0,0,0,0,0,0,0,0,0,0,0,0,0,0,10,78,70
12872,0,0,0,0,0,0,0,0,0,0,0,0,0,0,0,0,0,0,0,0,0,0,10,78,70
12973,0,0,0,0,0,0,0,0,0,0,0,0,0,0,0,0,0,0,0,0,0,0,10,78,70
13074,0,0,0,0,0,0,0,0,0,0,0,0,0,0,0,0,0,0,0,0,0,0,10,78,70
13175,0,0,0,0,0,0,0,0,0,0,0,0,0,0,0,0,0,0,0,0,0,0,10,78,70
13276,0,0,0,0,0,0,0,0,0,0,0,0,0,0,0,0,0,0,0,0,0,0,10,78,70
13378,0,0,0,0,0,0,0,0,0,0,0,0,0,0,0,0,0,0,0,0,0,0,10,78,70
13479,0,0,0,0,0,0,0,0,0,0,0,0,0,0,0,0,0,0,0,0,0,0,10,78,70
13580,0,0,0,0,0,0,0,0,0,0,0,0,0,0,0,0,0,0,0,0,0,0,10,78,70
13680,0,0,0,0,0,0,0,0,0,0,0,0,0,0,0,0,0,0,0,0,0,0,10,78,70
13781,0,0,0,0,0,0,0,0,0,0,0,0,0,0,0,0,0,0,0,0,0,0,10,78,70
13882,0,0,0,0,0,0,0,0,0,0,0,0,0,0,0,0,0,0,0,0,0,0,10,78,70
13982,0,0,0,0,0,0,0,0,0,0,0,0,0,0,0,0,0,0,0,0,0,0,10,78,71
14083,0,0,0,0,0,0,0,0,0,0,0,0,0,0,0,0,0,0,0,0,0,0,10,78,71
14184,0,0,0,0,0,0,0,0,0,0,0,0,0,0,0,0,0,0,0,0,0,0,10,78,71
14287,0,0,0,0,0,0,0,0,0,0,0,0,0,0,0,0,0,0,0,0,0,0,10,78,71
14388,0,0,0,0,0,0,0,0,0,0,0,0,0,0,0,0,0,0,0,0,0,0,10,78,71
14489,0,0,0,0,0,0,0,0,0,0,0,0,0,0,0,0,0,0,0,0,0,0,10,78,71
14590,0,0,0,0,0,0,0,0,0,0,0,0,0,0,0,0,0,0,0,0,0,0,10,78,71
14691,0,0,0,0,0,0,0,0,0,0,0,0,0,0,0,0,0,0,0,0,0,0,10,78,71
14792,0,0,0,0,0,0,0,0,0,0,0,0,0,0,0,0,0,0,0,0,0,0,10,78,71
14893,0,0,0,0,0,0,0,0,0,0,0,0,0,0,0,0,0,0,0,0,0,0,10,78,71
14994,0,0,0,0,0,0,0,0,0,0,0,0,0,0,0,0,0,0,0,0,0,0,10,78,70
15094,0,0,0,0,0,0,0,0,0,0,0,0,0,0,0,0,0,0,0,0,0,0,10,78,70
15195,0,0,0,0,0,0,0,0,0,0,0,0,0,0,0,0,0,0,0,0,0,0,10,78,70
15297,0,0,0,0,0,0,0,0,0,0,0,0,0,0,0,0,0,0,0,0,0,0,10,78,70
15398,0,0,0,0,0,0,0,0,0,0,0,0,0,0,0,0,0,0,0,0,0,0,10,78,70
15498,0,0,0,0,0,0,0,0,0,0,0,0,0,0,0,0,0,0,0,0,0,0,10,78,70
15599,0,0,0,0,0,0,0,0,0,0,0,0,0,0,0,0,0,0,0,0,0,0,10,78,70
15700,0,0,0,0,0,0,0,0,0,0,0,0,0,0,0,0,0,0,0,0,0,0,10,78,70
15801,0,0,0,0,0,0,0,0,0,0,0,0,0,0,0,0,0,0,0,0,0,0,10,78,70
15902,0,0,0,0,0,0,0,0,0,0,0,0,0,0,0,0,0,0,0,0,0,0,10,78,70
16003,0,0,0,0,0,0,0,0,0,0,0,0,0,0,0,0,0,0,0,0,0,0,10,78,71
16104,0,0,0,0,0,0,0,0,0,0,0,0,0,0,0,0,0,0,0,0,0,0,10,78,71
16205,0,0,0,0,0,0,0,0,0,0,0,0,0,0,0,0,0,0,0,0,0,0,10,78,71
16306,0,0,0,0,0,0,0,0,0,0,0,0,0,0,0,0,0,0,0,0,0,0,10,78,71
16406,0,0,0,0,0,0,0,0,0,0,0,0,0,0,0,0,0,0,0,0,0,0,10,78,71
16507,0,0,0,0,0,0,0,0,0,0,0,0,0,0,0,0,0,0,0,0,0,0,10,78,71
16608,0,0,0,0,0,0,0,0,0,0,0,0,0,0,0,0,0,0,0,0,0,0,10,78,71
16709,0,0,0,0,0,0,0,0,0,0,0,0,0,0,0,0,0,0,0,0,0,0,10,78,71
16810,0,0,0,0,0,0,0,0,0,0,0,0,0,0,0,0,0,0,0,0,0,0,10,78,71
16911,0,0,0,0,0,0,0,0,0,0,0,0,0,0,0,0,0,0,0,0,0,0,10,78,71
17012,0,0,0,0,0,0,0,0,0,0,0,0,0,0,0,0,0,0,0,0,0,0,10,78,71
17112,0,0,0,0,0,0,0,0,0,0,0,0,0,0,0,0,0,0,0,0,0,0,10,78,71
17213,0,0,0,0,0,0,0,0,0,0,0,0,0,0,0,0,0,0,0,0,0,0,10,78,71
17314,0,0,0,0,0,0,0,0,0,0,0,0,0,0,0,0,0,0,0,0,0,0,10,78,71
17414,0,0,0,0,0,0,0,0,0,0,0,0,0,0,0,0,0,0,0,0,0,0,10,78,71
17516,0,0,0,0,0,0,0,0,0,0,0,0,0,0,0,0,0,0,0,0,0,0,10,78,71
17616,0,1,0,0,0,0,0,0,0,0,0,0,0,0,0,0,0,0,0,0,0,0,10,78,71
17718,0,1,0,0,0,0,0,0,0,0,0,0,0,0,0,0,0,0,0,0,0,0,10,78,71
17818,0,1,0,0,0,0,0,0,0,0,0,0,0,0,0,0,0,0,0,0,0,0,10,78,71
17920,0,1,0,0,0,0,0,0,0,0,0,0,0,0,0,0,0,0,0,0,0,0,10,78,71
18021,0,1,0,0,0,0,0,0,0,0,0,0,0,0,0,0,0,0,0,0,0,0,10,78,72
18122,0,1,0,0,0,0,0,0,0,0,0,0,0,0,0,0,0,0,0,0,0,0,10,78,72
18223,0,1,0,0,0,0,0,0,0,0,0,0,0,0,0,0,0,0,0,0,0,0,10,78,72
18324,0,1,0,0,0,0,0,0,0,0,0,0,0,0,0,0,0,0,0,0,0,0,10,78,72
18425,0,1,0,0,0,0,0,0,0,0,0,0,0,0,0,0,0,0,0,0,0,0,10,78,72
18526,0,1,0,0,0,0,0,0,0,0,0,0,0,0,0,0,0,0,0,0,0,0,10,78,72
18627,0,1,0,0,0,0,0,0,0,0,0,0,0,0,0,0,0,0,0,0,0,0,10,78,72
18728,0,1,0,0,0,0,0,0,0,0,0,0,0,0,0,0,0,0,0,0,0,0,10,78,72
18829,0,1,0,0,0,0,0,0,0,0,0,0,0,0,0,0,0,0,1,0,0,0,10,78,72
18930,0,1,0,0,0,0,0,0,0,0,0,0,0,0,0,0,0,0,3,0,0,0,10,78,72
19031,0,1,0,0,0,0,0,0,0,0,0,0,0,0,0,0,0,0,3,0,0,0,15,78,71
19132,0,1,0,0,0,0,0,0,0,0,0,0,0,0,0,0,0,0,3,0,0,-3,15,78,71
19233,0,1,0,0,0,0,0,0,0,0,0,0,0,0,0,0,0,0,3,0,0,-6,12,78,71
19338,0,1,0,0,0,0,0,0,0,0,0,0,0,0,0,0,0,0,3,0,0,-7,18,78,71
19439,0,1,0,0,0,0,0,0,0,0,0,0,0,0,0,0,0,0,3,0,0,-7,27,78,71
19539,0,1,0,0,0,0,0,0,0,0,0,0,0,0,0,0,0,0,3,0,0,-7,35,78,71
19641,0,1,0,0,0,0,0,0,0,0,0,0,0,0,0,0,0,0,3,0,0,-7,42,78,71
19743,0,1,0,0,0,0,0,0,0,0,0,0,0,0,0,0,0,0,3,0,0,-6,49,78,71
19847,0,1,0,0,0,0,0,0,0,0,0,0,0,0,0,0,0,0,3,0,0,-5,56,78,71
19948,0,1,0,0,0,0,0,0,0,0,0,0,0,0,0,0,0,0,3,0,0,-4,61,78,71
20049,0,1,0,0,0,0,0,0,0,0,0,0,0,0,0,0,0,0,3,0,0,-3,65,78,71
20149,0,1,0,0,0,0,0,0,0,0,0,0,0,0,0,0,0,0,3,0,0,-2,68,78,71
20250,0,1,0,0,0,0,0,0,0,0,0,0,0,0,0,35,0,-1,3,0,0,-1,71,78,71
20351,0,1,0,0,0,0,0,0,0,0,0,0,0,0,0,0,0,0,3,0,0,-1,74,78,71
20452,0,1,0,0,0,0,0,0,0,0,0,0,0,0,0,0,0,0,3,0,0,-1,76,78,71
20553,0,1,0,0,0,0,0,0,0,0,0,0,0,0,0,0,0,0,3,0,0,0,79,78,71
20654,0,1,0,0,0,0,0,0,0,0,0,0,0,0,0,0,0,0,3,0,0,0,81,78,71
20755,0,1,0,0,0,0,0,0,0,0,0,0,0,0,0,0,0,0,3,0,0,0,82,78,71
20856,0,1,0,0,0,0,0,0,0,0,0,0,0,0,0,0,0,0,3,0,0,0,83,78,71
20957,0,1,0,0,0,0,0,0,0,0,0,0,0,0,0,0,0,0,3,0,0,0,84,78,72
21058,0,1,0,0,0,0,0,0,0,0,0,0,0,0,0,0,0,0,3,0,0,0,85,78,72
21159,0,1,0,0,0,0,0,0,0,0,0,0,0,0,0,0,0,0,3,0,0,0,86,78,72
21260,0,1,0,0,0,0,0,0,0,0,0,0,0,0,0,0,0,0,3,0,0,0,86,78,72
21361,0,1,0,0,0,0,0,0,0,0,0,0,0,0,0,0,0,0,3,0,0,0,86,78,72
21462,0,1,0,0,0,0,0,0,0,0,0,0,0,0,0,0,0,0,3,0,0,0,86,78,72
21563,0,1,0,0,0,0,0,0,0,0,0,0,0,0,0,0,0,0,3,0,0,0,86,78,72
21663,0,1,0,0,0,0,0,0,0,0,0,0,0,0,0,0,0,0,3,0,0,0,86,78,72
21764,0,1,0,0,0,0,0,0,0,0,0,0,0,0,0,0,0,0,3,0,0,-1,87,78,72
21865,0,1,0,0,0,0,0,0,0,0,0,0,0,0,0,0,0,0,3,0,0,-1,88,78,72
21966,0,1,0,0,0,0,0,0,0,0,0,0,0,0,0,0,0,0,3,0,0,-1,89,78,72
22068,0,1,0,0,0,0,0,0,0,0,0,0,0,0,0,0,0,0,3,0,0,-1,91,78,72
22170,0,1,0,0,0,0,0,0,0,0,0,0,0,0,0,0,0,0,3,0,0,-1,92,78,72
22271,0,1,0,0,0,0,0,0,0,0,0,0,0,0,0,0,0,0,3,0,0,-1,94,78,72
22372,0,1,0,0,0,0,0,0,0,0,0,0,0,0,0,0,0,0,3,0,0,-1,94,78,72
22474,0,1,0,0,0,0,0,0,0,0,0,0,0,0,0,0,0,0,3,0,0,-2,98,78,72
22579,0,1,0,0,0,0,0,0,0,0,0,0,0,0,0,0,0,0,3,0,0,-2,100,78,72
22681,0,1,0,0,0,0,0,0,0,0,0,0,0,0,0,0,0,0,3,0,0,-2,101,78,72
22782,0,1,1,61,508,35,21,2,364,12,-50,360,0,0,0,0,0,0,3,0,0,-2,104,78,72
22886,0,1,1,61,508,35,21,2,364,12,-50,360,0,0,0,0,0,0,3,0,0,-2,105,78,72
22987,0,1,1,61,508,35,21,2,364,12,-50,360,0,0,0,0,0,0,3,0,0,-2,107,78,71
23087,0,1,1,61,508,35,21,2,364,12,-50,360,0,0,0,0,0,0,3,0,0,-2,109,78,71
23188,0,1,0,61,508,35,0,2,364,12,-50,360,0,0,0,0,0,0,3,0,0,-2,110,78,71
23289,0,1,1,68,518,38,21,3,364,16,-49,360,0,0,0,0,0,0,3,0,0,-2,112,78,71
23390,0,1,1,68,518,38,21,3,364,16,-49,360,0,0,0,0,0,0,3,0,0,-1,114,78,71
23491,0,1,1,74,522,35,21,3,364,18,-50,359,0,0,0,0,0,0,3,0,0,-1,116,78,71
23591,0,1,1,74,522,35,21,3,364,18,-50,359,0,0,0,0,0,0,3,0,0,-1,116,78,71
23694,0,1,1,70,518,34,23,3,336,15,-47,332,0,0,0,0,0,0,3,0,0,-2,120,78,71
23795,0,1,1,72,514,39,21,2,364,14,-49,360,0,0,0,0,0,0,3,0,0,-2,122,78,71
23897,0,1,1,79,514,48,20,2,376,15,-47,372,0,0,0,0,0,0,3,0,0,-2,123,78,71
23998,0,1,1,73,514,45,20,2,382,15,-49,378,0,0,0,0,0,0,3,0,0,-1,125,78,72
24099,0,1,1,73,514,45,20,2,382,15,-49,378,0,0,0,0,0,0,3,0,0,-1,125,78,72
24200,0,1,1,79,520,56,21,3,364,17,-42,360,0,0,0,0,0,0,3,0,0,-2,129,78,72
24300,0,1,1,79,520,56,21,3,364,17,-42,360,0,0,0,0,0,0,3,0,0,-2,129,78,72
24401,0,1,1,75,518,73,21,3,364,16,-36,361,0,0,0,0,0,0,3,0,0,-2,133,78,72
24503,0,1,1,75,518,73,21,3,364,16,-36,361,0,0,0,0,0,0,3,0,0,-2,133,78,72
24604,0,1,1,75,518,73,21,3,364,16,-36,361,0,0,0,0,0,0,3,0,0,-2,134,78,72
24710,0,1,1,76,534,80,23,4,326,21,-30,323,0,0,0,0,0,0,3,0,0,-2,134,78,72
24811,0,1,1,76,534,80,23,4,326,21,-30,323,0,0,0,0,0,0,3,0,0,-1,140,78,72
24911,0,1,1,76,534,80,23,4,326,21,-30,323,0,0,0,0,0,0,3,0,0,0,141,78,72
25013,0,1,1,72,532,91,25,4,311,19,-25,309,0,0,0,0,0,0,3,0,0,0,141,78,72
25114,0,1,1,70,528,116,23,3,326,19,-17,324,0,0,0,0,0,0,3,0,0,0,142,78,72
25215,0,1,1,70,528,116,23,3,326,19,-17,324,0,0,0,0,0,0,3,0,0,0,142,78,72
25317,0,1,1,70,528,116,23,3,326,19,-17,324,0,0,0,0,0,0,3,0,0,0,142,78,72
25417,0,1,1,70,534,125,23,4,336,22,-15,335,0,0,0,0,0,0,3,0,0,0,141,78,72
25518,0,1,1,72,541,122,23,4,331,24,-16,329,0,0,0,0,0,0,3,0,0,0,141,78,72
25619,0,1,1,73,526,136,27,3,287,16,-9,286,0,0,0,0,0,0,3,0,0,0,142,78,72
25720,0,1,1,73,526,136,27,3,287,16,-9,286,0,0,0,0,0,0,3,0,0,0,142,78,72
25821,0,1,1,75,538,122,25,4,301,21,-14,299,0,0,0,0,0,0,3,0,0,0,141,78,72
25922,0,1,1,75,538,122,25,4,301,21,-14,299,0,0,0,0,0,0,3,0,0,0,142,78,72
26022,0,1,1,70,529,107,28,3,274,16,-17,272,0,0,0,0,0,0,3,0,0,0,142,78,72
26123,0,1,1,73,541,110,27,4,278,20,-16,276,0,0,0,0,0,0,3,0,0,0,142,78,72
26224,0,1,1,74,528,142,28,3,274,16,-7,273,0,0,0,0,0,0,3,0,0,0,142,77,72
26325,0,1,1,74,528,142,28,3,274,16,-7,273,0,0,0,0,0,0,3,0,0,0,142,77,72
26426,0,1,1,76,537,125,28,4,274,19,-12,272,0,0,0,0,0,0,3,0,0,0,142,77,72
26527,0,1,1,76,537,125,28,4,274,19,-12,272,0,0,0,0,0,0,3,0,0,0,142,77,72
26628,0,1,1,75,532,126,26,4,292,18,-12,290,0,0,0,0,0,0,3,0,0,0,141,77,72
26730,0,1,1,75,532,126,26,4,292,18,-12,290,0,0,0,0,0,0,3,0,0,0,141,77,72
26831,0,1,0,75,532,126,25,4,311,18,-12,290,0,0,0,0,0,0,3,0,0,0,142,77,72
26932,0,1,1,81,526,110,25,3,311,17,-18,309,0,0,0,0,0,0,3,0,0,0,142,77,72
27033,0,1,1,68,540,115,26,4,296,21,-16,295,0,0,0,0,0,0,3,0,0,0,142,77,72
27135,0,1,1,68,540,115,26,4,296,21,-16,295,0,0,0,0,0,0,3,0,0,0,142,77,71
27236,0,1,1,79,535,126,26,4,292,19,-12,290,0,0,0,0,0,0,3,0,0,0,142,77,71
27337,0,1,1,79,535,126,26,4,292,19,-12,290,0,0,0,0,0,0,3,0,0,0,142,77,71
27439,0,1,1,81,535,115,26,4,296,19,-16,295,0,0,0,0,0,0,3,0,0,0,142,77,71
27540,0,1,1,81,535,115,26,4,296,19,-16,295,0,0,0,0,0,0,3,0,0,0,143,77,71
27641,0,1,1,83,541,111,28,4,269,20,-16,268,0,0,0,0,0,0,3,0,0,0,143,77,71
27742,0,1,1,83,547,113,27,5,278,22,-16,276,0,0,0,0,0,-1,3,0,0,0,143,77,71
27843,0,1,1,83,547,113,27,5,278,22,-16,276,0,0,0,0,0,0,3,0,0,0,143,77,71
27944,0,1,1,82,541,132,28,4,269,20,-10,268,0,0,0,0,0,0,3,0,0,0,143,77,71
28044,0,1,1,82,552,98,27,5,287,25,-21,285,0,0,0,0,0,0,3,0,0,0,143,77,71
28145,0,1,1,82,552,98,27,5,287,25,-21,285,0,0,0,0,0,0,3,0,0,0,143,77,71
28246,0,1,1,82,552,98,27,5,287,25,-21,285,0,0,0,0,0,0,3,0,0,0,143,77,71
28347,0,1,1,83,540,138,28,4,274,20,-8,272,0,0,0,0,0,0,3,0,0,0,143,76,71
28448,0,1,1,83,540,138,28,4,274,20,-8,272,0,0,0,0,0,0,3,0,0,0,143,76,71
28554,0,1,1,81,546,114,25,5,306,24,-17,304,0,0,0,0,0,0,3,0,0,0,143,76,71
28655,0,2,1,83,546,142,25,5,306,24,-8,304,0,0,0,0,0,0,3,0,0,0,143,76,71
28756,0,2,1,83,538,125,28,4,269,19,-12,268,0,0,0,0,0,0,3,0,0,0,143,76,71
28857,0,2,1,83,538,125,28,4,269,19,-12,268,0,0,0,0,0,0,3,0,0,0,143,76,71
28958,0,2,1,83,532,148,30,4,253,16,-5,252,0,0,0,0,0,0,3,0,0,0,143,76,71
29059,0,2,1,83,532,148,30,4,253,16,-5,252,0,0,0,0,0,0,3,0,0,0,143,76,71
29160,0,2,1,83,528,127,30,3,257,15,-11,256,0,0,0,0,0,0,3,0,0,0,143,76,71
29260,0,2,1,83,528,127,30,3,257,15,-11,256,0,0,0,0,0,0,3,0,0,0,142,76,71
29361,0,2,1,79,531,140,29,4,261,16,-7,260,0,0,0,0,0,0,3,0,0,0,143,76,71
29462,0,2,1,79,531,140,29,4,261,16,-7,260,0,0,0,0,0,0,3,0,0,0,143,76,71
29563,0,2,1,82,540,120,30,4,257,18,-12,255,0,0,0,0,0,0,3,0,0,0,143,76,71
29664,0,2,1,82,534,146,31,4,245,16,-5,244,0,0,0,0,0,0,3,0,0,0,143,76,71
29764,0,2,1,82,535,139,29,4,265,17,-8,264,0,0,0,0,0,0,3,0,0,0,143,76,71
29865,0,2,1,82,541,126,26,4,292,21,-12,290,0,0,0,0,0,0,3,0,0,0,143,76,71
29966,0,2,1,83,546,119,27,5,287,23,-14,285,0,0,0,0,-1,0,3,0,0,0,143,76,71
30066,0,2,1,83,546,119,27,5,287,23,-9,285,0,0,0,0,-1,0,3,0,0,0,142,76,72
30167,0,2,1,80,537,166,28,4,274,19,4,273,0,0,0,0,-1,0,3,0,0,0,142,76,72
30268,0,2,1,83,538,134,27,4,283,19,-5,281,0,0,0,0,0,0,3,0,0,0,142,75,72
30369,0,2,1,83,538,134,27,4,283,19,-10,281,0,0,0,0,0,0,3,0,0,0,142,75,72
30469,0,2,1,83,537,162,27,4,288,20,-1,286,0,0,0,0,0,0,3,0,0,0,142,75,72
30570,0,2,1,83,541,143,26,4,292,21,-7,290,0,0,0,0,0,0,3,0,0,0,142,75,72
30671,0,2,1,83,541,143,26,4,292,21,-7,290,0,0,0,0,0,0,3,0,0,0,142,75,72
30771,0,2,1,83,537,128,27,4,278,19,-11,277,0,0,0,0,0,0,3,0,0,0,142,75,72
30873,0,2,1,83,538,136,29,4,265,18,-8,264,0,0,0,0,0,0,3,0,0,0,142,75,72
30973,0,2,1,83,538,136,29,4,265,18,-8,264,0,0,0,0,0,0,3,0,0,0,141,75,72
31074,6,2,1,83,538,136,29,4,265,18,-8,264,0,40,0,0,0,0,3,0,0,0,141,75,72
31177,6,2,1,83,538,136,29,4,265,18,-8,264,0,40,0,0,0,0,3,0,0,0,142,75,72
31279,6,2,1,79,537,109,29,4,261,18,-16,259,0,0,0,0,-2,0,3,0,0,0,141,75,72
31380,6,2,1,79,537,109,29,4,261,18,-16,259,0,34,-35,0,-4,0,3,0,0,0,141,75,72
31482,6,2,1,79,537,109,29,4,261,18,-16,259,0,34,-35,0,-4,0,3,0,0,0,141,75,72
31584,6,2,1,77,552,137,23,5,326,28,12,324,0,40,0,0,-2,0,3,1,0,0,143,75,72
31685,6,2,1,77,552,137,23,5,326,28,12,324,0,40,0,0,-1,0,3,1,0,0,144,75,72
31786,6,2,1,77,552,137,23,5,326,28,-5,324,0,40,0,0,-1,0,3,1,0,0,144,75,72
31887,6,2,1,77,552,137,23,5,326,28,-5,324,0,40,0,0,-1,0,3,1,0,0,144,75,72
31989,6,2,1,81,546,125,25,5,301,24,7,299,0,40,0,0,-4,0,3,2,0,0,143,75,72
32090,6,2,1,82,547,128,25,5,311,25,13,309,0,40,0,0,-5,0,3,2,0,0,143,75,72
32191,6,2,1,82,547,128,25,5,311,25,13,309,0,40,0,0,-5,0,3,3,0,0,144,75,72
32292,6,2,1,82,547,128,25,5,311,25,13,309,0,40,0,0,-5,0,3,3,0,0,143,74,72
32393,6,2,1,82,547,128,25,5,311,25,13,309,0,40,0,0,-4,0,3,4,0,0,144,74,72
32495,6,2,1,83,546,152,25,5,306,24,16,304,0,40,0,0,-4,0,3,4,0,0,144,74,72
32596,6,2,1,83,543,131,28,4,274,21,8,272,0,0,0,0,-4,0,3,4,0,0,144,74,72
32697,6,2,1,83,543,131,28,4,274,21,8,272,0,35,-35,0,-4,0,3,5,0,0,145,74,72
32799,6,2,1,83,543,131,28,4,274,21,8,272,0,35,-35,0,-4,0,3,5,0,0,145,74,72
32900,6,2,1,79,555,125,22,5,342,31,-9,339,0,40,0,0,-1,0,3,5,0,0,146,74,72
33001,6,2,1,81,535,121,30,4,257,17,-8,256,0,0,0,0,-1,-1,3,5,0,0,147,74,72
33103,6,2,1,81,535,121,30,4,257,17,-8,256,0,33,-35,0,-2,-3,3,4,0,0,147,74,71
33205,6,2,1,81,535,121,30,4,257,17,-8,256,0,33,-35,0,-2,-3,3,4,0,0,147,74,71
33306,6,2,1,75,537,116,32,4,241,16,-9,240,0,31,-35,0,-1,-1,3,5,-1,0,148,74,71
33407,6,2,1,75,537,116,32,4,241,16,-9,240,0,31,-35,0,0,-1,3,4,-1,0,147,74,71
33509,6,2,1,76,540,126,31,4,249,18,-11,248,0,32,-35,0,-1,-3,3,4,-1,0,147,74,71
33610,6,2,1,76,540,126,31,4,249,18,-11,248,0,32,-35,0,-2,-4,3,4,-1,0,147,74,71
33712,6,2,1,75,540,143,33,4,236,17,1,235,0,30,-35,0,-2,-4,3,4,-2,0,147,74,71
33814,6,2,1,73,541,123,35,4,222,16,-2,220,0,0,0,0,-2,-4,3,4,-2,0,148,74,71
33914,6,2,1,73,541,123,35,4,222,16,-2,220,0,28,-35,0,-2,-4,3,4,-3,0,148,74,71
34016,6,2,1,69,541,168,41,4,188,13,6,186,0,0,0,0,-2,-3,3,4,-3,0,148,74,71
34117,6,2,1,69,541,168,41,4,188,13,6,186,0,23,-35,0,-1,-1,3,4,-3,0,148,74,72
34218,6,2,0,69,541,168,0,4,188,13,6,186,0,40,0,0,0,-1,3,4,-3,0,148,73,72
34319,6,2,1,72,599,142,32,8,241,34,-6,238,0,0,0,0,0,0,3,3,-3,0,148,73,72
34420,6,2,1,72,599,142,32,8,241,34,-6,238,0,31,-35,0,0,0,3,3,-3,0,148,73,72
34521,6,2,1,72,599,142,32,8,241,34,-6,238,0,31,-35,0,-1,0,3,3,-2,0,147,73,72
34622,6,2,1,83,637,192,29,11,261,49,11,256,0,0,0,0,-1,0,3,3,-2,0,147,73,72
34724,6,2,1,83,637,192,29,11,261,49,11,256,0,34,-35,0,-1,0,3,3,-2,0,146,73,72
34825,6,2,1,79,669,87,27,13,281,63,-14,272,0,0,0,0,-2,-2,3,3,-2,0,145,73,72
34926,6,2,1,79,669,87,27,13,281,63,-14,272,0,37,-35,0,-1,-1,3,3,-2,0,146,73,72
35027,6,2,1,75,695,92,27,15,280,72,-17,269,0,0,0,0,-1,-1,3,2,-2,0,145,73,72
35128,6,2,1,75,695,92,27,15,280,72,-17,269,0,37,-35,0,0,0,3,2,-2,0,145,73,72
35231,6,2,1,75,695,92,27,15,280,72,-17,269,0,37,-35,0,-1,0,3,2,-2,0,144,73,72
35332,6,2,1,78,697,94,29,15,263,68,-15,252,0,34,-35,0,-1,-1,3,2,-2,0,143,73,72
35434,6,2,1,76,709,137,29,16,265,73,-4,254,0,0,0,0,-1,-1,3,2,-2,0,143,73,72
35536,6,2,1,76,709,137,29,16,265,73,-4,254,0,34,-35,0,-2,-2,3,2,-2,0,142,73,72
35637,6,2,1,76,709,137,29,16,265,73,-4,254,0,34,-35,0,-3,-2,3,2,-2,0,142,73,72
35738,6,2,2,75,727,79,32,17,238,69,-13,226,0,0,0,0,-2,-1,3,3,-2,0,141,73,72
35840,6,2,2,75,727,79,32,17,238,69,-13,226,0,34,-35,0,-1,-1,3,3,-2,0,142,73,72
35941,6,2,2,75,727,79,32,17,238,69,-13,226,0,34,-35,0,-2,-1,3,3,-2,0,142,73,72
36042,6,2,2,70,745,89,35,19,220,69,-10,207,0,32,-35,0,-1,-1,3,3,-2,0,142,73,72
36144,6,2,1,63,773,67,37,21,204,71,-18,190,0,0,0,0,-1,-1,3,3,-2,0,144,73,72
36245,6,2,1,63,773,67,37,21,204,71,-18,190,0,25,-35,0,-2,-1,3,3,-2,0,143,72,72
36347,6,2,1,63,773,67,37,21,204,71,-18,190,0,25,-35,0,-3,-3,3,2,-2,0,144,72,72
36448,6,2,1,64,811,89,35,23,221,86,-6,202,0,28,-35,0,-3,-3,3,3,-2,0,145,72,72
36549,6,2,1,73,810,59,41,23,190,74,-11,173,0,23,-35,0,-3,-4,3,3,-3,0,145,72,72
36650,6,2,1,73,810,59,41,23,190,74,-11,173,0,23,-35,0,-2,-3,3,3,-3,0,146,72,72
36751,6,2,1,69,824,67,37,24,208,84,-14,189,0,26,-35,0,-2,-3,3,3,-3,0,146,72,72
36851,6,2,1,69,824,67,37,24,208,84,-14,189,0,26,-35,0,-2,-3,3,3,-4,0,146,72,72
36953,6,2,1,68,841,69,34,25,229,97,-15,206,0,29,-35,0,-2,-3,3,3,-4,0,146,72,72
37054,6,2,1,68,841,69,34,25,229,97,-15,206,0,29,-35,0,-2,-3,3,3,-4,0,147,72,72
37156,6,2,1,61,845,79,34,26,229,98,-13,205,0,0,0,0,-2,-3,3,3,-4,0,147,72,72
37257,6,2,1,61,845,79,34,26,229,98,-13,205,0,29,-35,0,-2,-3,3,3,-4,0,146,72,72
37358,6,2,0,61,845,79,0,26,229,98,-13,205,0,40,0,0,-2,-3,3,3,-4,0,147,72,72
37459,6,2,0,61,845,79,0,26,229,98,-13,205,0,40,0,0,-2,-2,3,3,-4,0,147,72,72
37560,6,2,0,61,845,79,0,26,229,98,-13,205,0,40,0,0,-1,-1,3,3,-4,0,147,72,72
37662,6,2,0,61,845,79,0,26,229,98,-13,205,0,40,0,0,-1,0,3,3,-4,0,147,72,72
37762,6,2,0,61,845,79,0,26,229,98,-13,205,0,40,0,0,-3,0,3,3,-4,0,147,72,72
37864,6,2,0,61,845,79,0,26,229,98,-13,205,0,40,0,0,-4,0,3,3,-3,0,147,72,72
37965,6,2,0,61,845,79,0,26,229,98,-13,205,0,40,0,0,-4,0,3,4,-3,0,143,72,72
38066,6,2,0,61,845,79,0,26,229,98,-13,205,0,40,0,0,-4,0,3,4,-2,0,127,72,72
38167,6,2,0,61,845,79,0,26,229,98,-13,205,0,40,0,0,-4,0,3,4,-2,0,91,72,73
38268,6,2,0,61,845,79,0,26,229,98,-13,205,0,40,0,0,-4,0,3,5,-1,0,86,71,73
38370,6,2,0,61,845,79,0,26,229,98,-13,205,0,40,0,0,-4,0,3,5,-1,0,84,71,73
38471,6,2,0,61,845,79,0,26,229,98,-13,205,0,40,0,0,-4,0,3,5,-1,0,87,71,73
38572,6,2,0,61,845,79,0,26,229,98,-13,205,0,40,0,0,-3,0,3,5,-1,0,94,71,73
38673,6,2,0,61,845,79,0,26,229,98,-13,205,0,40,0,0,-2,0,3,6,0,0,99,71,73
38774,6,2,0,61,845,79,0,26,229,98,-13,205,0,40,0,0,-2,0,3,6,0,0,101,71,73
38875,6,2,0,61,845,79,0,26,229,98,-13,205,0,40,0,0,-2,0,3,6,0,0,102,71,73
38976,6,2,0,61,845,79,0,26,229,98,-13,205,0,40,0,0,-2,0,3,6,0,0,103,71,73
39077,6,2,0,61,845,79,0,26,229,98,-13,205,0,40,0,0,-2,0,3,5,0,0,103,71,73
39179,6,2,0,61,845,79,0,26,229,98,-13,205,0,40,0,0,-2,0,3,5,0,0,104,71,72
39280,6,2,0,61,845,79,0,26,229,98,-13,205,0,40,0,0,-2,0,3,5,0,0,104,71,72
39381,6,2,0,61,845,79,0,26,229,98,-13,205,0,40,0,0,-2,0,3,5,0,0,106,71,72
39482,6,2,0,61,845,79,0,26,229,98,-13,205,0,40,0,0,-2,0,3,5,0,0,107,71,72
39583,6,2,0,61,845,79,0,26,229,98,-13,205,0,40,0,0,-2,0,3,5,0,0,109,71,72
39684,6,2,0,61,845,79,0,26,229,98,-13,205,0,40,0,0,-2,0,3,5,0,0,110,71,72
39786,6,2,0,61,845,79,0,26,229,98,-13,205,0,40,0,0,-2,0,3,5,0,0,111,71,72
39891,6,2,0,61,845,79,0,26,229,98,-13,205,0,40,0,0,-2,-1,3,5,0,0,115,71,72
39993,6,2,0,61,845,79,0,26,229,98,-13,205,0,40,0,0,-3,-1,3,5,0,0,118,71,72
40094,6,2,0,61,845,79,0,26,229,98,-13,205,0,40,0,0,-3,-1,3,5,0,0,118,71,72
40195,6,2,0,61,845,79,0,26,229,98,-13,205,0,40,0,0,-2,-1,3,6,0,0,116,70,72
40296,6,2,0,61,845,79,0,26,229,98,-13,205,0,40,0,0,-2,-1,3,6,0,0,116,70,72
40397,6,2,0,61,845,79,0,26,229,98,-13,205,0,40,0,0,-2,-1,3,6,0,0,121,70,72
40498,6,2,0,61,845,79,0,26,229,98,-13,205,0,40,0,0,-2,-1,3,6,0,0,138,70,72
40599,6,2,0,61,845,79,0,26,229,98,-13,205,0,40,0,0,-2,-1,3,5,0,0,148,70,72
40700,6,2,0,61,845,79,0,26,229,98,-13,205,0,40,0,0,-3,0,3,6,0,0,152,70,72
40802,6,2,0,61,845,79,0,26,229,98,-13,205,0,40,0,0,-2,0,3,6,0,0,154,70,72
40903,6,2,0,61,845,79,0,26,229,98,-13,205,0,40,0,0,-2,0,3,6,0,0,156,70,72
41008,6,2,0,61,845,79,0,26,229,98,-13,205,0,40,0,0,-2,0,3,6,0,0,156,70,72
41110,6,2,0,61,845,79,0,26,229,98,-13,205,0,40,0,0,-2,0,3,6,0,0,155,70,72
41211,6,2,0,61,845,79,0,26,229,98,-13,205,0,40,0,0,-3,0,3,6,0,0,155,70,72
41313,6,2,0,61,845,79,0,26,229,98,-13,205,0,40,0,0,-3,0,3,6,0,0,154,70,72
41414,6,2,0,61,845,79,0,26,229,98,-13,205,0,40,0,0,-3,0,3,6,0,0,154,70,72
41516,6,2,0,61,845,79,0,26,229,98,-13,205,0,40,0,0,-3,0,3,6,0,0,154,70,72
41616,6,2,0,61,845,79,0,26,229,98,-13,205,0,40,0,0,-3,0,3,6,0,0,154,70,72
41719,0,2,0,61,845,79,0,26,229,98,-13,205,0,0,0,0,-3,0,3,6,0,0,154,70,72
41820,0,2,0,61,845,79,0,26,229,98,-13,205,0,0,0,0,-3,0,3,6,0,0,154,70,72
41920,0,2,0,61,845,79,0,26,229,98,-13,205,0,0,0,0,-3,0,3,6,0,0,153,70,72
42022,0,2,0,61,845,79,0,26,229,98,-13,205,0,0,0,0,-3,0,3,6,0,0,153,70,72
42123,0,2,0,61,845,79,0,26,229,98,-13,205,0,0,0,0,-1,0,3,6,0,0,152,70,72
42225,0,2,0,61,845,79,0,26,229,98,-13,205,0,0,0,0,12,5,26,2,5,8,113,70,72
42326,0,2,0,61,845,79,0,26,229,98,-13,205,0,0,0,0,-14,40,41,2,6,11,166,69,72
42427,0,2,0,61,845,79,0,26,229,98,-13,205,0,0,0,0,-43,98,31,2,8,19,94,69,72
42528,0,2,0,61,845,79,0,26,229,98,-13,205,0,0,0,0,-44,177,3,1,8,29,219,69,72
42629,0,2,0,61,845,79,0,26,229,98,-13,205,0,0,0,0,6,-175,15,1,2,14,210,69,72
42730,0,2,0,61,845,79,0,26,229,98,-13,205,0,0,0,0,7,-163,26,0,-2,10,104,69,72
42831,0,2,0,61,845,79,0,26,229,98,-13,205,0,0,0,0,10,-174,49,0,6,14,216,69,72
42932,0,2,0,61,845,79,0,26,229,98,-13,205,0,0,0,0,9,173,42,0,6,8,210,69,72
43032,0,2,0,61,845,79,0,26,229,98,-13,205,0,0,0,0,9,164,41,2,6,6,201,69,72
43133,0,2,0,61,845,79,0,26,229,98,-13,205,0,0,0,0,9,164,41,2,6,6,201,69,72
43234,0,2,0,61,845,79,0,26,229,98,-13,205,0,0,0,0,9,161,40,2,6,4,184,69,72
43335,0,2,0,61,845,79,0,26,229,98,-13,205,0,0,0,0,6,163,36,3,7,3,196,69,72
43436,0,2,0,61,845,79,0,26,229,98,-13,205,0,0,0,0,6,162,35,3,7,3,197,69,72
43537,0,2,0,61,845,79,0,26,229,98,-13,205,0,0,0,0,7,162,35,4,7,2,195,69,72
43639,0,2,0,61,845,79,0,26,229,98,-13,205,0,0,0,0,5,163,35,5,7,2,197,69,72
43739,0,2,0,61,845,79,0,26,229,98,-13,205,0,0,0,0,5,163,35,5,6,1,199,69,72
43840,0,2,0,61,845,79,0,26,229,98,-13,205,0,0,0,0,5,165,35,6,5,0,198,69,72
43941,0,2,0,61,845,79,0,26,229,98,-13,205,0,0,0,0,7,166,35,7,5,0,198,69,72
44046,0,2,0,61,845,79,0,26,229,98,-13,205,0,0,0,0,8,165,34,7,4,0,195,69,72
44147,0,2,0,61,845,79,0,26,229,98,-13,205,0,0,0,0,8,165,33,7,4,0,193,69,72
44249,0,2,0,61,845,79,0,26,229,98,-13,205,0,0,0,0,8,165,34,8,4,-1,193,68,72
44350,0,2,0,61,845,79,0,26,229,98,-13,205,0,0,0,0,7,165,34,8,4,-2,193,68,72
44451,0,2,0,61,845,79,0,26,229,98,-13,205,0,0,0,0,7,165,33,9,4,-2,191,68,72
44552,0,2,0,61,845,79,0,26,229,98,-13,205,0,0,0,0,6,165,33,0,0,-2,191,68,72
44652,0,2,0,61,845,79,0,26,229,98,-13,205,0,0,0,0,6,165,33,0,0,-3,192,68,72
44753,0,2,0,61,845,79,0,26,229,98,-13,205,0,0,0,0,6,166,33,0,0,-3,191,68,72
44854,0,2,0,61,845,79,0,26,229,98,-13,205,0,0,0,0,6,166,33,0,0,-3,193,68,72
44955,0,2,0,61,845,79,0,26,229,98,-13,205,0,0,0,0,6,166,33,0,0,-3,194,68,72
45056,0,2,0,61,845,79,0,26,229,98,-13,205,0,0,0,0,6,166,33,0,0,-3,194,68,72
45157,0,2,0,61,845,79,0,26,229,98,-13,205,0,0,0,0,5,166,33,0,0,-4,194,68,73
45258,0,2,0,61,845,79,0,26,229,98,-13,205,0,0,0,0,5,166,33,0,0,-3,194,68,73
45359,0,2,0,61,845,79,0,26,229,98,-13,205,0,0,0,0,6,166,33,0,0,-3,194,68,73
45460,0,2,0,61,845,79,0,26,229,98,-13,205,0,0,0,0,6,166,33,0,0,-3,194,68,73
45565,0,2,0,61,845,79,0,26,229,98,-13,205,0,0,0,0,6,166,32,0,0,-3,195,68,73
45666,0,2,0,61,845,79,0,26,229,98,-13,205,0,0,0,0,6,166,32,0,0,-3,194,68,73
45767,0,2,0,61,845,79,0,26,229,98,-13,205,0,0,0,0,6,166,32,0,0,-3,195,68,73
45868,0,2,0,61,845,79,0,26,229,98,-13,205,0,0,0,0,5,166,32,0,0,-3,193,68,73
45969,0,2,0,61,845,79,0,26,229,98,-13,205,0,0,0,0,5,165,32,0,0,-2,194,68,73
46070,0,2,0,61,845,79,0,26,229,98,-13,205,0,0,0,0,5,165,32,0,0,-2,194,68,73
46171,0,2,0,61,845,79,0,26,229,98,-13,205,0,0,0,0,5,166,32,0,0,-2,195,68,73
46273,0,2,0,61,845,79,0,26,229,98,-13,205,0,0,0,0,5,166,32,0,0,-2,194,67,73
46374,0,2,0,61,845,79,0,26,229,98,-13,205,0,0,0,0,5,166,32,0,0,-2,195,67,73
46475,0,2,0,61,845,79,0,26,229,98,-13,205,0,0,0,0,5,166,31,0,0,-1,195,67,73
46577,0,2,0,61,845,79,0,26,229,98,-13,205,0,0,0,0,5,166,31,0,0,-1,194,67,73
46685,0,2,0,61,845,79,0,26,229,98,-13,205,0,0,0,0,5,166,31,0,0,-1,195,67,73
46786,0,2,0,61,845,79,0,26,229,98,-13,205,0,0,0,0,5,166,31,0,0,-1,194,67,73
46887,0,2,0,61,845,79,0,26,229,98,-13,205,0,0,0,0,5,166,31,0,0,0,195,67,73
46988,0,2,0,61,845,79,0,26,229,98,-13,205,0,0,0,0,5,166,31,0,0,0,194,67,73
47089,0,2,0,61,845,79,0,26,229,98,-13,205,0,0,0,0,5,166,31,0,0,0,195,67,73
47190,0,2,0,61,845,79,0,26,229,98,-13,205,0,0,0,0,5,166,31,0,0,0,195,67,73
47291,0,2,0,61,845,79,0,26,229,98,-13,205,0,0,0,0,5,166,31,0,0,0,194,67,73
47392,0,2,0,61,845,79,0,26,229,98,-13,205,0,0,0,0,5,166,31,0,0,0,194,67,73
47494,0,2,0,61,845,79,0,26,229,98,-13,205,0,0,0,0,5,166,31,0,0,0,195,67,73
47595,0,2,0,61,845,79,0,26,229,98,-13,205,0,0,0,0,5,166,31,0,0,0,193,67,73
47695,0,2,0,61,845,79,0,26,229,98,-13,205,0,0,0,0,5,166,31,0,0,0,193,67,73
47796,0,2,0,61,845,79,0,26,229,98,-13,205,0,0,0,0,5,166,31,0,0,1,190,67,73
47897,0,2,0,61,845,79,0,26,229,98,-13,205,0,0,0,0,5,166,31,0,0,1,191,67,73
47998,0,2,0,61,845,79,0,26,229,98,-13,205,0,0,0,0,5,166,31,0,0,1,192,67,73
48099,0,2,0,61,845,79,0,26,229,98,-13,205,0,0,0,0,5,166,31,0,0,1,191,67,73
48200,0,2,0,61,845,79,0,26,229,98,-13,205,0,0,0,0,5,166,32,0,0,1,193,67,73
48301,0,3,0,61,845,79,0,26,229,98,-13,205,0,0,0,0,5,167,32,0,0,1,194,67,73
48402,0,3,0,61,845,79,0,26,229,98,-13,205,0,0,0,0,5,166,32,0,0,1,194,67,73
48504,0,3,0,61,845,79,0,26,229,98,-13,205,0,0,0,0,5,167,32,0,0,1,195,67,73
48605,0,3,0,61,845,79,0,26,229,98,-13,205,0,0,0,0,5,167,32,0,0,1,194,67,73
48706,0,3,0,61,845,79,0,26,229,98,-13,205,0,0,0,0,5,167,32,0,0,1,194,67,73
48807,0,3,0,61,845,79,0,26,229,98,-13,205,0,0,0,0,5,167,32,0,0,1,194,67,73
48908,0,3,0,61,845,79,0,26,229,98,-13,205,0,0,0,0,5,167,32,0,0,1,195,67,73
49010,0,3,0,61,845,79,0,26,229,98,-13,205,0,0,0,0,5,167,32,0,0,1,194,67,73
49111,0,3,0,61,845,79,0,26,229,98,-13,205,0,0,0,0,5,167,32,0,0,1,194,67,73
49211,0,3,0,61,845,79,0,26,229,98,-13,205,0,0,0,0,5,167,32,0,0,1,195,67,73
49312,0,3,0,61,845,79,0,26,229,98,-13,205,0,0,0,0,5,167,32,0,0,1,194,67,73
49413,0,3,0,61,845,79,0,26,229,98,-13,205,0,0,0,0,5,167,32,0,0,0,195,67,73
49514,0,3,0,61,845,79,0,26,229,98,-13,205,0,0,0,0,5,167,32,0,0,0,195,67,73
49615,0,3,0,61,845,79,0,26,229,98,-13,205,0,0,0,0,4,167,31,0,0,0,195,67,73
49715,0,3,0,61,845,79,0,26,229,98,-13,205,0,0,0,0,4,166,31,0,0,0,195,67,73
49816,0,3,0,61,845,79,0,26,229,98,-13,205,0,0,0,0,4,166,31,0,0,0,195,67,73
49917,0,3,0,61,845,79,0,26,229,98,-13,205,0,0,0,0,4,166,31,0,0,0,194,67,73
50017,0,3,0,61,845,79,0,26,229,98,-13,205,0,0,0,0,4,166,31,0,0,0,194,67,73
50118,0,3,0,61,845,79,0,26,229,98,-13,205,0,0,0,0,4,166,31,0,0,0,194,67,73
50219,0,3,0,61,845,79,0,26,229,98,-13,205,0,0,0,0,4,167,31,0,0,0,195,67,73
50320,0,3,0,61,845,79,0,26,229,98,-13,205,0,0,0,0,4,167,31,0,0,0,196,67,73
50421,0,3,0,61,845,79,0,26,229,98,-13,205,0,0,0,0,4,167,31,0,0,0,196,67,73
50521,0,3,0,61,845,79,0,26,229,98,-13,205,0,0,0,0,4,167,31,0,0,0,195,67,73
50622,0,3,0,61,845,79,0,26,229,98,-13,205,0,0,0,0,4,167,31,0,0,0,195,67,73
50723,0,3,0,61,845,79,0,26,229,98,-13,205,0,0,0,0,4,167,31,0,0,0,195,67,73
50824,0,3,0,61,845,79,0,26,229,98,-13,205,0,0,0,0,4,167,31,0,0,0,196,67,73
50924,0,3,0,61,845,79,0,26,229,98,-13,205,0,0,0,0,4,167,31,0,0,0,196,67,73
51025,0,3,0,61,845,79,0,26,229,98,-13,205,0,0,0,0,4,167,30,0,0,0,196,67,73
51126,0,3,0,61,845,79,0,26,229,98,-13,205,0,0,0,0,4,167,30,0,0,0,196,67,73
51226,0,3,0,61,845,79,0,26,229,98,-13,205,0,0,0,0,4,167,30,0,0,0,196,67,73
51327,0,3,0,61,845,79,0,26,229,98,-13,205,0,0,0,0,4,167,30,0,0,0,196,67,73
51428,0,3,0,61,845,79,0,26,229,98,-13,205,0,0,0,0,4,168,30,0,0,0,196,67,73
51529,0,3,0,61,845,79,0,26,229,98,-13,205,0,0,0,0,4,167,30,0,0,0,196,67,73
51630,0,3,0,61,845,79,0,26,229,98,-13,205,0,0,0,0,4,167,30,0,0,0,196,67,73
51731,0,3,0,61,845,79,0,26,229,98,-13,205,0,0,0,0,4,167,30,0,0,0,196,67,73
51832,0,3,0,61,845,79,0,26,229,98,-13,205,0,0,0,0,4,167,30,0,0,0,196,67,73
51932,0,3,0,61,845,79,0,26,229,98,-13,205,0,0,0,0,4,167,30,0,0,0,196,67,73
52033,0,3,0,61,845,79,0,26,229,98,-13,205,0,0,0,0,4,167,29,0,0,0,196,67,73
52134,0,3,0,61,845,79,0,26,229,98,-13,205,0,0,0,0,4,167,29,0,0,0,195,67,73
52235,0,3,0,61,845,79,0,26,229,98,-13,205,0,0,0,0,4,167,30,0,0,0,196,67,75
52335,0,3,0,61,845,79,0,26,229,98,-13,205,0,0,0,0,4,167,30,0,0,0,195,67,75
52436,0,3,0,61,845,79,0,26,229,98,-13,205,0,0,0,0,4,167,30,0,0,0,196,67,75
52537,0,3,0,61,845,79,0,26,229,98,-13,205,0,0,0,0,3,167,30,0,0,0,196,67,75
52638,0,3,0,61,845,79,0,26,229,98,-13,205,0,0,0,0,3,167,30,0,0,0,196,67,75
52739,0,3,0,61,845,79,0,26,229,98,-13,205,0,0,0,0,3,167,30,0,0,0,196,67,75
52840,0,3,0,61,845,79,0,26,229,98,-13,205,0,0,0,0,3,168,30,0,0,0,197,67,75
52941,0,3,0,61,845,79,0,26,229,98,-13,205,0,0,0,0,2,167,29,0,0,0,197,67,75
53041,0,3,0,61,845,79,0,26,229,98,-13,205,0,0,0,0,1,166,29,0,0,0,197,67,75
53142,0,3,0,61,845,79,0,26,229,98,-13,205,0,0,0,0,1,166,29,0,0,0,197,67,75
53243,0,3,0,61,845,79,0,26,229,98,-13,205,0,0,0,0,1,166,28,0,0,0,196,67,73
53343,0,3,0,61,845,79,0,26,229,98,-13,205,0,0,0,0,1,167,27,0,0,0,196,67,73
53444,0,3,0,61,845,79,0,26,229,98,-13,205,0,0,0,0,1,167,27,0,0,0,196,67,73
53545,0,3,0,61,845,79,0,26,229,98,-13,205,0,0,0,0,0,167,27,0,0,0,196,67,73
53646,0,3,0,61,845,79,0,26,229,98,-13,205,0,0,0,0,0,167,27,0,0,0,196,67,73
53747,0,3,0,61,845,79,0,26,229,98,-13,205,0,0,0,0,-1,167,27,0,0,0,199,67,73
53848,0,3,0,61,845,79,0,26,229,98,-13,205,0,0,0,0,-1,167,27,0,0,0,199,67,73
53949,0,3,0,61,845,79,0,26,229,98,-13,205,0,0,0,0,-2,167,28,0,0,0,200,67,73
54050,0,3,0,61,845,79,0,26,229,98,-13,205,0,0,0,0,-3,166,28,0,0,0,201,67,73
54151,0,3,0,61,845,79,0,26,229,98,-13,205,0,0,0,0,-3,166,28,0,0,1,201,67,73
54252,0,3,0,61,845,79,0,26,229,98,-13,205,0,0,0,0,-4,165,28,0,0,0,201,67,74
54353,0,3,0,61,845,79,0,26,229,98,-13,205,0,0,0,0,-4,165,28,0,0,0,201,67,74
54455,0,3,0,61,845,79,0,26,229,98,-13,205,0,0,0,0,-4,164,27,0,0,0,200,67,74
54555,0,3,0,61,845,79,0,26,229,98,-13,205,0,0,0,0,-5,165,27,0,0,0,202,67,74
54656,0,3,0,61,845,79,0,26,229,98,-13,205,0,0,0,0,-7,164,26,0,0,0,202,67,74
54757,0,3,0,61,845,79,0,26,229,98,-13,205,0,0,0,0,-9,163,25,0,0,0,204,67,74
54858,0,3,0,61,845,79,0,26,229,98,-13,205,0,0,0,0,-11,161,24,0,0,0,202,67,74
54958,0,3,0,61,845,79,0,26,229,98,-13,205,0,0,0,0,-13,157,25,0,0,1,178,67,74
55059,0,3,0,61,845,79,0,26,229,98,-13,205,0,0,0,0,-13,156,26,0,0,0,175,67,74
55160,0,3,0,61,845,79,0,26,229,98,-13,205,0,0,0,0,-13,156,26,0,0,0,175,67,74
55260,0,3,0,61,845,79,0,26,229,98,-13,205,0,0,0,0,-20,153,30,0,0,1,204,67,75
55365,0,3,0,61,845,79,0,26,229,98,-13,205,0,0,0,0,-25,147,33,0,0,1,192,67,75
55466,0,3,0,61,845,79,0,26,229,98,-13,205,0,0,0,0,-28,146,36,0,0,2,236,67,75
55567,0,3,0,61,845,79,0,26,229,98,-13,205,0,0,0,0,-29,143,42,0,0,2,260,67,75
55668,0,3,0,61,845,79,0,26,229,98,-13,205,0,0,0,0,-26,139,50,0,0,1,267,67,75
55769,0,3,0,61,845,79,0,26,229,98,-13,205,0,0,0,0,-26,137,56,0,0,1,258,67,75
55871,0,3,0,61,845,79,0,26,229,98,-13,205,0,0,0,0,-27,138,62,0,0,1,260,67,75
55975,0,3,0,61,845,79,0,26,229,98,-13,205,0,0,0,0,-27,140,66,0,0,0,272,67,75
56076,0,3,0,61,845,79,0,26,229,98,-13,205,0,0,0,0,-30,142,69,0,0,0,267,67,75
56177,0,3,0,61,845,79,0,26,229,98,-13,205,0,0,0,0,-35,146,70,0,0,0,147,67,75
56285,0,3,0,61,845,79,0,26,229,98,-13,205,0,0,0,0,-40,151,70,0,0,0,104,67,74
56385,0,3,0,61,845,79,0,26,229,98,-13,205,0,0,0,0,-41,150,72,0,0,0,98,67,74
56486,0,3,0,61,845,79,0,26,229,98,-13,205,0,0,0,0,-36,154,69,0,0,0,114,67,74
56587,0,3,0,61,845,79,0,26,229,98,-13,205,0,0,0,0,-33,155,72,0,0,0,114,67,74
56687,0,3,0,61,845,79,0,26,229,98,-13,205,0,0,0,0,-36,156,74,0,0,0,95,67,74
56788,0,3,0,61,845,79,0,26,229,98,-13,205,0,0,0,0,-36,156,74,0,0,0,95,67,74
56889,0,3,0,61,845,79,0,26,229,98,-13,205,0,0,0,0,-42,148,82,0,0,0,74,67,74
56990,0,3,0,61,845,79,0,26,229,98,-13,205,0,0,0,0,-42,148,82,0,0,0,74,67,74
57091,0,3,0,61,845,79,0,26,229,98,-13,205,0,0,0,0,-44,144,83,0,0,0,77,67,74
57191,0,3,0,61,845,79,0,26,229,98,-13,205,0,0,0,0,-40,140,85,0,0,0,99,67,75
57292,0,3,0,61,845,79,0,26,229,98,-13,205,0,0,0,0,-40,140,85,0,0,0,99,67,75
57395,0,3,0,61,845,79,0,26,229,98,-13,205,0,0,0,0,-38,137,86,0,0,0,105,67,75
57496,0,3,0,61,845,79,0,26,229,98,-13,205,0,0,0,0,-34,133,87,0,0,0,118,67,75
57597,0,3,0,61,845,79,0,26,229,98,-13,205,0,0,0,0,-34,133,87,0,0,0,118,67,75
57699,0,3,0,61,845,79,0,26,229,98,-13,205,0,0,0,0,-34,133,87,0,0,0,118,67,75
57800,0,3,0,61,845,79,0,26,229,98,-13,205,0,0,0,0,-35,134,88,0,0,0,111,67,75
57902,0,3,0,61,845,79,0,26,229,98,-13,205,0,0,0,0,-35,134,88,0,0,0,111,67,75
58002,0,3,0,61,845,79,0,26,229,98,-13,205,0,0,0,0,-37,135,88,0,0,0,105,67,75
58103,0,3,0,61,845,79,0,26,229,98,-13,205,0,0,0,0,-37,136,87,0,0,0,102,67,75
58204,0,3,0,61,845,79,0,26,229,98,-13,205,0,0,0,0,-37,136,87,0,0,0,102,67,75
58305,0,3,0,61,845,79,0,26,229,98,-13,205,0,0,0,0,-37,136,87,0,0,0,102,67,75
58405,0,3,0,61,845,79,0,26,229,98,-13,205,0,0,0,0,-38,138,87,0,0,0,101,67,75
58506,0,3,0,61,845,79,0,26,229,98,-13,205,0,0,0,0,-40,141,84,0,0,0,95,67,75
58607,0,3,0,61,845,79,0,26,229,98,-13,205,0,0,0,0,-43,138,84,0,0,0,98,67,75
58708,0,3,0,61,845,79,0,26,229,98,-13,205,0,0,0,0,-46,130,79,0,0,0,218,67,75
58809,0,3,0,61,845,79,0,26,229,98,-13,205,0,0,0,0,-46,130,79,0,0,0,218,67,75
58909,0,3,0,61,845,79,0,26,229,98,-13,205,0,0,0,0,-50,130,72,0,0,0,233,67,75
59010,0,3,0,61,845,79,0,26,229,98,-13,205,0,0,0,0,-49,127,67,0,0,0,216,67,75
59111,0,3,0,61,845,79,0,26,229,98,-13,205,0,0,0,0,-53,128,56,0,0,0,221,67,75
59211,0,3,0,61,845,79,0,26,229,98,-13,205,0,0,0,0,-52,135,42,0,0,0,242,67,75
59312,0,3,0,61,845,79,0,26,229,98,-13,205,0,0,0,0,-55,141,27,0,0,0,255,67,75
59413,0,3,0,61,845,79,0,26,229,98,-13,205,0,0,0,0,-56,145,16,0,0,0,202,67,75
59514,0,3,0,61,845,79,0,26,229,98,-13,205,0,0,0,0,-67,142,9,0,0,0,134,67,75
59616,0,3,0,61,845,79,0,26,229,98,-13,205,0,0,0,0,-67,142,9,0,0,0,134,67,75
59717,0,3,0,61,845,79,0,26,229,98,-13,205,0,0,0,0,-75,76,39,0,0,0,187,67,75
59818,0,3,0,61,845,79,0,26,229,98,-13,205,0,0,0,0,-78,81,29,0,0,-1,177,67,75
59918,0,3,0,61,845,79,0,26,229,98,-13,205,0,0,0,0,-78,81,29,0,0,-1,177,67,75
60019,0,3,0,61,845,79,0,26,229,98,-13,205,0,0,0,0,-77,-153,-98,0,0,-1,345,67,75
60120,0,3,0,61,845,79,0,26,229,98,-13,205,0,0,0,0,-51,-134,-112,0,0,-2,32,67,75
60221,0,3,0,61,845,79,0,26,229,98,-13,205,0,0,0,0,-51,-134,-112,0,0,-2,32,67,75
60322,0,3,0,61,845,79,0,26,229,98,-13,205,0,0,0,0,-30,-104,-150,0,0,-1,155,67,75
60422,0,3,0,61,845,79,0,26,229,98,-13,205,0,0,0,0,-30,-104,-150,0,0,-1,155,67,75
60523,0,3,0,61,845,79,0,26,229,98,-13,205,0,0,0,0,-30,-104,-150,0,0,-1,155,67,75
60623,0,3,0,61,845,79,0,26,229,98,-13,205,0,0,0,0,-20,-104,-153,0,0,0,166,67,75
60724,0,3,0,61,845,79,0,26,229,98,-13,205,0,0,0,0,-19,-104,-158,0,0,0,159,67,75
60825,0,3,0,61,845,79,0,26,229,98,-13,205,0,0,0,0,-19,-104,-158,0,0,0,159,67,75
60926,0,3,0,61,845,79,0,26,229,98,-13,205,0,0,0,0,-5,-104,-163,0,0,1,161,67,75
61027,0,3,0,61,845,79,0,26,229,98,-13,205,0,0,0,0,5,-107,-165,0,0,0,169,67,75
61128,0,3,0,61,845,79,0,26,229,98,-13,205,0,0,0,0,5,-107,-165,0,0,0,169,67,75
61229,0,3,0,61,845,79,0,26,229,98,-13,205,0,0,0,0,16,-111,-169,0,0,0,192,67,75
61330,0,3,0,61,845,79,0,26,229,98,-13,205,0,0,0,0,17,-115,-167,0,0,0,125,67,75
61431,0,3,0,61,845,79,0,26,229,98,-13,205,0,0,0,0,17,-115,-167,0,0,0,125,67,75
61531,0,3,0,61,845,79,0,26,229,98,-13,205,0,0,0,0,18,-118,-164,0,0,0,142,67,75
61633,0,3,0,61,845,79,0,26,229,98,-13,205,0,0,0,0,17,-118,-160,0,0,0,183,67,75
61733,0,3,0,61,845,79,0,26,229,98,-13,205,0,0,0,0,17,-113,-159,0,0,0,263,67,75
61835,0,3,0,61,845,79,0,26,229,98,-13,205,0,0,0,0,17,-113,-159,0,0,0,263,67,75
61939,0,3,0,61,845,79,0,26,229,98,-13,205,0,0,0,0,22,-116,-152,0,0,0,135,67,75
62041,0,3,0,61,845,79,0,26,229,98,-13,205,0,0,0,0,34,-113,-158,0,0,0,195,67,75
62142,0,3,0,61,845,79,0,26,229,98,-13,205,0,0,0,0,46,-109,-162,0,0,0,228,67,75
62244,0,3,0,61,845,79,0,26,229,98,-13,205,0,0,0,0,59,-102,-163,0,0,0,284,67,75
62346,0,3,0,61,845,79,0,26,229,98,-13,205,0,0,0,0,66,-94,-160,0,0,0,250,67,75
62447,0,3,0,61,845,79,0,26,229,98,-13,205,0,0,0,0,68,-88,-156,0,0,0,233,67,75
62548,0,3,0,61,845,79,0,26,229,98,-13,205,0,0,0,0,70,-81,-150,0,0,0,218,67,75
62649,0,3,0,61,845,79,0,26,229,98,-13,205,0,0,0,0,70,-81,-151,0,0,0,230,67,75
62749,0,3,0,61,845,79,0,26,229,98,-13,205,0,0,0,0,70,-81,-149,0,0,0,246,67,75
62850,0,3,0,61,845,79,0,26,229,98,-13,205,0,0,0,0,70,-81,-148,0,0,0,263,67,75
62951,0,3,0,61,845,79,0,26,229,98,-13,205,0,0,0,0,70,-80,-146,0,0,0,260,67,75
63051,0,3,0,61,845,79,0,26,229,98,-13,205,0,0,0,0,69,-81,-146,0,0,0,265,67,75
63152,0,3,0,61,845,79,0,26,229,98,-13,205,0,0,0,0,68,-84,-148,0,0,0,263,67,75
63253,0,3,0,61,845,79,0,26,229,98,-13,205,0,0,0,0,67,-86,-148,0,0,0,256,67,75
63354,0,3,0,61,845,79,0,26,229,98,-13,205,0,0,0,0,67,-85,-147,0,0,0,241,67,75
63455,0,3,0,61,845,79,0,26,229,98,-13,205,0,0,0,0,67,-85,-147,0,0,0,242,67,75
63555,0,3,0,61,845,79,0,26,229,98,-13,205,0,0,0,0,67,-85,-146,0,0,0,239,67,75
63657,0,3,0,61,845,79,0,26,229,98,-13,205,0,0,0,0,67,-84,-146,0,0,0,241,67,75
63757,0,3,0,61,845,79,0,26,229,98,-13,205,0,0,0,0,67,-84,-146,0,0,0,239,67,75
63858,0,3,0,61,845,79,0,26,229,98,-13,205,0,0,0,0,67,-84,-146,0,0,0,244,67,75
63958,0,3,0,61,845,79,0,26,229,98,-13,205,0,0,0,0,67,-84,-146,0,0,0,243,67,75
64059,0,3,0,61,845,79,0,26,229,98,-13,205,0,0,0,0,67,-84,-146,0,0,0,244,67,75
64160,0,3,0,61,845,79,0,26,229,98,-13,205,0,0,0,0,67,-84,-146,0,0,0,242,67,75
64261,0,3,0,61,845,79,0,26,229,98,-13,205,0,0,0,0,68,-84,-145,0,0,0,237,67,76
64362,0,3,0,61,845,79,0,26,229,98,-13,205,0,0,0,0,68,-84,-145,0,0,0,238,67,76
64463,0,3,0,61,845,79,0,26,229,98,-13,205,0,0,0,0,68,-84,-145,0,0,0,235,67,76
64564,0,3,0,61,845,79,0,26,229,98,-13,205,0,0,0,0,68,-84,-145,0,0,0,237,67,76
64665,0,3,0,61,845,79,0,26,229,98,-13,205,0,0,0,0,68,-84,-145,0,0,0,240,67,76
64766,0,3,0,61,845,79,0,26,229,98,-13,205,0,0,0,0,68,-84,-145,0,0,0,239,67,76
64867,0,3,0,61,845,79,0,26,229,98,-13,205,0,0,0,0,68,-84,-145,0,0,0,241,67,76
64968,0,3,0,61,845,79,0,26,229,98,-13,205,0,0,0,0,68,-83,-145,0,0,0,235,67,76
65069,0,3,0,61,845,79,0,26,229,98,-13,205,0,0,0,0,68,-83,-144,0,0,0,237,67,76
65171,0,3,0,61,845,79,0,26,229,98,-13,205,0,0,0,0,68,-82,-144,0,0,0,234,67,76
65272,0,3,0,61,845,79,0,26,229,98,-13,205,0,0,0,0,68,-82,-144,0,0,0,236,67,76
65374,0,3,0,61,845,79,0,26,229,98,-13,205,0,0,0,0,68,-82,-144,0,0,0,232,67,76
65474,0,3,0,61,845,79,0,26,229,98,-13,205,0,0,0,0,68,-82,-143,0,0,0,236,67,76
65575,0,3,0,61,845,79,0,26,229,98,-13,205,0,0,0,0,68,-82,-143,0,0,0,236,67,76
65676,0,3,0,61,845,79,0,26,229,98,-13,205,0,0,0,0,68,-82,-143,0,0,0,236,67,76
65777,0,3,0,61,845,79,0,26,229,98,-13,205,0,0,0,0,68,-82,-143,0,0,0,236,67,76
65878,0,3,0,61,845,79,0,26,229,98,-13,205,0,0,0,0,68,-82,-143,0,0,0,229,67,76
65979,0,3,0,61,845,79,0,26,229,98,-13,205,0,0,0,0,68,-81,-142,0,0,0,229,67,76
66080,0,3,0,61,845,79,0,26,229,98,-13,205,0,0,0,0,68,-81,-142,0,0,0,223,67,76
66180,0,3,0,61,845,79,0,26,229,98,-13,205,0,0,0,0,68,-81,-142,0,0,0,226,67,76
66281,0,3,0,61,845,79,0,26,229,98,-13,205,0,0,0,0,68,-81,-141,0,0,0,225,67,76
66382,0,3,0,61,845,79,0,26,229,98,-13,205,0,0,0,0,68,-80,-141,0,0,0,224,67,76
66482,0,3,0,61,845,79,0,26,229,98,-13,205,0,0,0,0,68,-80,-141,0,0,0,224,67,76
66583,0,3,0,61,845,79,0,26,229,98,-13,205,0,0,0,0,67,-80,-141,0,0,0,222,67,76
66684,0,3,0,61,845,79,0,26,229,98,-13,205,0,0,0,0,67,-80,-141,0,0,0,220,67,76
66784,0,3,0,61,845,79,0,26,229,98,-13,205,0,0,0,0,68,-80,-141,0,0,0,226,67,76
66885,0,3,0,61,845,79,0,26,229,98,-13,205,0,0,0,0,67,-80,-141,0,0,0,226,67,76
66986,0,3,0,61,845,79,0,26,229,98,-13,205,0,0,0,0,67,-81,-142,0,0,0,226,67,76
67086,0,3,0,61,845,79,0,26,229,98,-13,205,0,0,0,0,67,-81,-142,0,0,0,228,67,76
67187,0,3,0,61,845,79,0,26,229,98,-13,205,0,0,0,0,67,-81,-142,0,0,0,224,67,76
67288,0,3,0,61,845,79,0,26,229,98,-13,205,0,0,0,0,68,-81,-142,0,0,0,224,67,76
67388,0,3,0,61,845,79,0,26,229,98,-13,205,0,0,0,0,67,-81,-142,0,0,0,224,67,76
67490,0,3,0,61,845,79,0,26,229,98,-13,205,0,0,0,0,67,-81,-142,0,0,0,228,67,76
67590,0,3,0,61,845,79,0,26,229,98,-13,205,0,0,0,0,68,-81,-143,0,0,0,226,67,76
67691,0,3,0,61,845,79,0,26,229,98,-13,205,0,0,0,0,68,-81,-142,0,0,0,226,67,76
67792,0,3,0,61,845,79,0,26,229,98,-13,205,0,0,0,0,68,-81,-142,0,0,0,223,67,76
67893,0,3,0,61,845,79,0,26,229,98,-13,205,0,0,0,0,68,-81,-142,0,0,0,223,67,76
67993,0,3,0,61,845,79,0,26,229,98,-13,205,0,0,0,0,68,-81,-142,0,0,0,223,67,76
68094,0,3,0,61,845,79,0,26,229,98,-13,205,0,0,0,0,68,-81,-142,0,0,0,217,67,76
68195,0,3,0,61,845,79,0,26,229,98,-13,205,0,0,0,0,68,-72,-133,0,0,0,226,67,76
68296,0,3,0,61,845,79,0,26,229,98,-13,205,0,0,0,0,68,-52,-118,0,0,0,254,67,77
68399,0,3,0,61,845,79,0,26,229,98,-13,205,0,0,0,0,66,-42,-111,0,0,0,184,67,77
68500,0,3,0,61,845,79,0,26,229,98,-13,205,0,0,0,0,66,-42,-111,0,0,0,184,67,77
68601,0,3,0,61,845,79,0,26,229,98,-13,205,0,0,0,0,62,-27,-100,0,0,0,117,67,77
68701,0,3,0,61,845,79,0,26,229,98,-13,205,0,0,0,0,61,-24,-99,0,0,0,107,67,77
68802,0,3,0,61,845,79,0,26,229,98,-13,205,0,0,0,0,60,-22,-99,0,0,0,101,67,77
68903,0,3,0,61,845,79,0,26,229,98,-13,205,0,0,0,0,57,-21,-100,0,0,0,98,67,77
69004,0,3,0,61,845,79,0,26,229,98,-13,205,0,0,0,0,57,-19,-101,0,0,0,97,67,77
69105,0,3,0,61,845,79,0,26,229,98,-13,205,0,0,0,0,55,-13,-96,0,0,0,100,67,77
69206,0,3,0,61,845,79,0,26,229,98,-13,205,0,0,0,0,52,-12,-96,0,0,0,97,67,77
69310,0,3,0,61,845,79,0,26,229,98,-13,205,0,0,0,0,49,-11,-97,0,0,0,98,67,76
69412,0,3,0,61,845,79,0,26,229,98,-13,205,0,0,0,0,44,-12,-100,0,0,0,115,67,76
69513,0,3,0,61,845,79,0,26,229,98,-13,205,0,0,0,0,41,-6,-96,0,0,-2,135,67,76
69614,0,3,0,61,845,79,0,26,229,98,-13,205,0,0,0,0,38,-1,-92,-8,2,-1,134,67,76
69714,0,3,0,61,845,79,0,26,229,98,-13,205,0,0,0,0,38,-1,-92,-9,2,0,136,67,76
69815,0,3,0,61,845,79,0,26,229,98,-13,205,0,0,0,0,38,-2,-92,-11,2,1,133,67,76
69916,0,3,0,61,845,79,0,26,229,98,-13,205,0,0,0,0,39,-2,-86,-13,2,1,132,67,76
70016,0,3,0,61,845,79,0,26,229,98,-13,205,0,0,0,0,38,-2,-81,-13,1,0,127,67,76
70117,0,3,1,66,643,347,91,11,83,16,-27,80,0,0,0,0,30,1,-72,-13,0,0,114,67,76
70218,0,3,0,66,643,347,0,11,83,16,-27,80,0,0,0,0,23,3,-66,-13,-2,1,106,67,76
70321,0,3,0,66,643,347,0,11,83,16,-27,80,0,0,0,0,20,6,-56,-13,-1,3,101,67,76
70423,0,3,0,66,643,347,0,11,83,16,-27,80,0,0,0,0,16,6,-52,-12,0,4,92,67,76
70523,0,3,0,66,643,347,0,11,83,16,-27,80,0,0,0,0,12,3,-50,-12,0,3,85,67,76
70628,0,3,0,66,643,347,0,11,83,16,-27,80,0,0,0,0,10,-1,-48,-11,0,3,80,67,76
70729,0,3,0,66,643,347,0,11,83,16,-27,80,0,0,0,0,5,-4,-44,-10,0,1,77,67,76
70829,0,3,0,66,643,347,0,11,83,16,-27,80,0,0,0,0,4,-6,-40,-9,0,2,73,67,76
70930,0,3,0,66,643,347,0,11,83,16,-27,80,0,0,0,0,4,-6,-40,-9,0,2,73,67,76
71031,0,3,0,66,643,347,0,11,83,16,-27,80,0,0,0,0,4,-6,-40,-9,0,2,73,67,76
71132,0,3,0,66,643,347,0,11,83,16,-27,80,0,0,0,0,4,-5,-28,-9,0,6,56,67,76
71234,0,3,0,66,643,347,0,11,83,16,-27,80,0,0,0,0,4,-5,-23,-8,1,8,46,67,76
71336,0,3,0,66,643,347,0,11,83,16,-27,80,0,0,0,0,2,-6,-19,-6,1,9,35,67,76
71437,0,3,0,66,643,347,0,11,83,16,-27,80,0,0,0,0,1,-6,-16,-4,0,9,10,67,76
71539,0,3,0,66,643,347,0,11,83,16,-27,80,0,0,0,0,1,-5,-14,-3,0,7,10,67,76
71640,0,3,0,66,643,347,0,11,83,16,-27,80,0,0,0,0,2,-3,-14,-1,0,5,10,67,76
71741,0,3,0,66,643,347,0,11,83,16,-27,80,0,0,0,0,3,-4,-12,0,0,3,10,67,76
71843,0,3,0,66,643,347,0,11,83,16,-27,80,0,0,0,0,2,-4,-13,0,0,1,10,67,76
71944,0,3,0,66,643,347,0,11,83,16,-27,80,0,0,0,0,3,-4,-13,0,0,0,10,67,76
72045,0,3,0,66,643,347,0,11,83,16,-27,80,0,0,0,0,6,-7,-9,0,0,0,10,67,76
72146,0,3,0,66,643,347,0,11,83,16,-27,80,0,0,0,0,6,-3,-7,0,0,0,10,67,76
72246,0,3,0,66,643,347,0,11,83,16,-27,80,0,0,0,0,4,-1,-10,0,0,0,10,67,76
72347,0,3,0,66,643,347,0,11,83,16,-27,80,0,0,0,0,0,0,-11,0,0,0,10,67,76
72447,0,3,0,66,643,347,0,11,83,16,-27,80,0,0,0,0,0,0,-11,0,0,0,10,67,76
72548,0,3,0,66,643,347,0,11,83,16,-27,80,0,0,0,0,0,0,-11,0,0,0,10,67,76
72649,0,3,0,66,643,347,0,11,83,16,-27,80,0,0,0,0,0,0,-7,0,0,0,10,67,76
72750,0,3,0,66,643,347,0,11,83,16,-27,80,0,0,0,0,0,0,-6,0,0,0,10,67,76
72850,0,3,0,66,643,347,0,11,83,16,-27,80,0,0,0,0,0,0,-6,0,0,0,10,67,76
72952,0,3,0,66,643,347,0,11,83,16,-27,80,0,0,0,0,0,0,-6,0,0,0,10,67,76
73054,0,3,0,66,643,347,0,11,83,16,-27,80,0,0,0,0,0,0,-6,0,0,0,10,67,76
73155,0,3,0,66,643,347,0,11,83,16,-27,80,0,0,0,0,0,0,-6,0,0,0,10,67,76
73256,0,3,0,66,643,347,0,11,83,16,-27,80,0,0,0,0,0,0,-6,0,0,0,10,67,77
73357,0,3,0,66,643,347,0,11,83,16,-27,80,0,0,0,0,0,0,-6,0,0,0,10,67,77
73458,0,3,0,66,643,347,0,11,83,16,-27,80,0,0,0,0,0,0,-6,0,0,0,10,67,77
73558,0,3,0,66,643,347,0,11,83,16,-27,80,0,0,0,0,0,0,-6,0,0,0,10,67,77
73659,0,3,0,66,643,347,0,11,83,16,-27,80,0,0,0,0,0,0,-6,0,0,0,10,67,77
73760,0,3,0,66,643,347,0,11,83,16,-27,80,0,0,0,0,0,0,-6,0,0,0,10,67,77
73861,0,3,0,66,643,347,0,11,83,16,-27,80,0,0,0,0,0,0,-6,0,0,0,10,67,77
73962,0,3,0,66,643,347,0,11,83,16,-27,80,0,0,0,0,0,0,-6,0,0,0,10,67,77
74063,0,3,0,66,643,347,0,11,83,16,-27,80,0,0,0,0,0,0,-6,0,0,0,10,67,77
74164,0,3,0,66,643,347,0,11,83,16,-27,80,0,0,0,0,0,0,-6,0,0,0,10,67,77
74265,0,3,0,66,643,347,0,11,83,16,-27,80,0,0,0,0,0,0,-6,0,0,0,10,67,77
74366,0,3,0,66,643,347,0,11,83,16,-27,80,0,0,0,0,0,0,-6,0,0,0,10,67,76
74467,0,3,0,66,643,347,0,11,83,16,-27,80,0,0,0,0,0,0,-6,0,0,0,10,67,76
74569,0,3,0,66,643,347,0,11,83,16,-27,80,0,0,0,0,0,0,-6,0,0,0,10,67,76
74669,0,3,0,66,643,347,0,11,83,16,-27,80,0,0,0,0,0,0,-6,0,0,0,10,67,76
74770,0,3,0,66,643,347,0,11,83,16,-27,80,0,0,0,0,0,0,-6,0,0,0,10,67,76
74871,0,3,0,66,643,347,0,11,83,16,-27,80,0,0,0,0,0,0,-6,0,0,0,10,67,76
74972,0,3,0,66,643,347,0,11,83,16,-27,80,0,0,0,0,0,0,-6,0,0,0,10,67,76
75073,0,3,0,66,643,347,0,11,83,16,-27,80,0,0,0,0,0,0,-6,0,0,0,10,67,76
75173,0,3,0,66,643,347,0,11,83,16,-27,80,0,0,0,0,0,0,-6,0,0,0,10,67,76
75274,0,3,0,66,643,347,0,11,83,16,-27,80,0,0,0,0,0,0,-6,0,0,0,10,67,76
75375,0,3,0,66,643,347,0,11,83,16,-27,80,0,0,0,0,0,0,-6,0,0,0,10,67,76
75476,0,3,0,66,643,347,0,11,83,16,-27,80,0,0,0,0,0,0,-6,0,0,0,10,67,76
75576,0,3,0,66,643,347,0,11,83,16,-27,80,0,0,0,0,0,0,-6,0,0,0,10,67,76
75677,0,3,0,66,643,347,0,11,83,16,-27,80,0,0,0,0,0,0,-6,0,0,0,10,67,76
75778,0,3,0,66,643,347,0,11,83,16,-27,80,0,0,0,0,0,0,-6,0,0,0,10,67,76
75879,0,3,0,66,643,347,0,11,83,16,-27,80,0,0,0,0,0,0,-6,0,0,0,10,67,76
75980,0,3,0,66,643,347,0,11,83,16,-27,80,0,0,0,0,0,0,-6,0,0,0,10,67,76
76081,0,3,0,66,643,347,0,11,83,16,-27,80,0,0,0,0,0,0,-6,0,0,0,10,67,76
76182,0,3,0,66,643,347,0,11,83,16,-27,80,0,0,0,0,0,0,-6,0,0,0,10,67,76
76283,0,3,0,66,643,347,0,11,83,16,-27,80,0,0,0,0,0,0,-6,0,0,0,10,67,76
76384,0,3,0,66,643,347,0,11,83,16,-27,80,0,0,0,0,0,0,-6,0,0,0,10,67,76
76485,0,3,0,66,643,347,0,11,83,16,-27,80,0,0,0,0,0,0,-6,0,0,0,10,67,77
76586,0,3,0,66,643,347,0,11,83,16,-27,80,0,0,0,0,0,0,-6,0,0,0,10,67,77
76690,0,3,0,66,643,347,0,11,83,16,-27,80,0,0,0,0,0,0,-6,0,0,0,10,67,77
76791,0,3,0,66,643,347,0,11,83,16,-27,80,0,0,0,0,0,0,-6,0,0,0,10,67,77
76892,0,3,0,66,643,347,0,11,83,16,-27,80,0,0,0,0,0,0,-6,0,0,0,10,67,77
76993,0,3,0,66,643,347,0,11,83,16,-27,80,0,0,0,0,0,0,-6,0,0,0,10,67,77
77093,0,3,0,66,643,347,0,11,83,16,-27,80,0,0,0,0,0,0,-6,0,0,0,10,67,77
77194,0,3,0,66,643,347,0,11,83,16,-27,80,0,0,0,0,0,0,-6,0,0,0,10,67,77
77295,0,3,0,66,643,347,0,11,83,16,-27,80,0,0,0,0,0,0,-6,0,0,0,10,67,77
77396,0,3,0,66,643,347,0,11,83,16,-27,80,0,0,0,0,0,0,-6,0,0,0,10,67,77
77497,0,3,0,66,643,347,0,11,83,16,-27,80,0,0,0,0,0,0,-6,0,0,0,10,67,77
77597,0,3,0,66,643,347,0,11,83,16,-27,80,0,0,0,0,0,0,-6,0,0,0,10,67,77
77698,0,3,0,66,643,347,0,11,83,16,-27,80,0,0,0,0,0,0,-6,0,0,0,10,67,77
77799,0,3,0,66,643,347,0,11,83,16,-27,80,0,0,0,0,0,0,-6,0,0,0,10,67,77
77899,0,3,0,66,643,347,0,11,83,16,-27,80,0,0,0,0,0,0,-6,0,0,0,10,67,77
78000,0,3,0,66,643,347,0,11,83,16,-27,80,0,0,0,0,0,0,-6,0,0,0,10,67,77
78102,0,3,0,66,643,347,0,11,83,16,-27,80,0,0,0,0,0,0,-6,0,0,0,10,67,77
78202,0,3,0,66,643,347,0,11,83,16,-27,80,0,0,0,0,0,0,-6,0,0,0,10,67,77
78303,0,3,0,66,643,347,0,11,83,16,-27,80,0,0,0,0,0,0,-6,0,0,0,10,67,76
78404,0,3,0,66,643,347,0,11,83,16,-27,80,0,0,0,0,0,0,-6,0,0,0,10,67,76
78505,0,3,0,66,643,347,0,11,83,16,-27,80,0,0,0,0,0,0,-6,0,0,0,10,67,76
78605,0,3,0,66,643,347,0,11,83,16,-27,80,0,0,0,0,0,0,-6,0,0,0,10,67,76
78706,0,3,0,66,643,347,0,11,83,16,-27,80,0,0,0,0,0,0,-6,0,0,0,10,67,76
78810,0,3,0,66,643,347,0,11,83,16,-27,80,0,0,0,0,0,0,-6,0,0,0,10,67,76
78911,0,3,0,66,643,347,0,11,83,16,-27,80,0,0,0,0,0,0,-6,0,0,0,10,67,76
79012,0,3,0,66,643,347,0,11,83,16,-27,80,0,0,0,0,0,0,-6,0,0,0,10,67,76
79112,0,3,0,66,643,347,0,11,83,16,-27,80,0,0,0,0,0,0,-6,0,0,0,10,67,76
79213,0,3,0,66,643,347,0,11,83,16,-27,80,0,0,0,0,0,0,-6,0,0,0,10,67,76
79313,0,3,0,66,643,347,0,11,83,16,-27,80,0,0,0,0,0,0,-6,0,0,0,10,67,77
79414,0,3,0,66,643,347,0,11,83,16,-27,80,0,0,0,0,0,0,-6,0,0,0,10,67,77
79515,0,3,0,66,643,347,0,11,83,16,-27,80,0,0,0,0,0,0,-6,0,0,0,10,67,77
79616,0,3,0,66,643,347,0,11,83,16,-27,80,0,0,0,0,0,0,-6,0,0,0,10,67,77
79717,0,3,0,66,643,347,0,11,83,16,-27,80,0,0,0,0,0,0,-6,0,0,0,10,67,77
79818,0,3,0,66,643,347,0,11,83,16,-27,80,0,0,0,0,0,0,-6,0,0,0,10,67,77
79918,0,3,0,66,643,347,0,11,83,16,-27,80,0,0,0,0,0,0,-6,0,0,0,10,67,77
80019,0,3,0,66,643,347,0,11,83,16,-27,80,0,0,0,0,0,0,-6,0,0,0,10,67,77
80120,0,3,0,66,643,347,0,11,83,16,-27,80,0,0,0,0,0,0,-6,0,0,0,10,67,77
80220,0,3,0,66,643,347,0,11,83,16,-27,80,0,0,0,0,0,0,-6,0,0,0,10,67,77
80321,0,3,0,66,643,347,0,11,83,16,-27,80,0,0,0,0,0,0,-6,0,0,0,10,67,77
80423,0,4,0,66,643,347,0,11,83,16,-27,80,0,0,0,0,0,0,-6,0,0,0,10,67,77
80524,0,4,0,66,643,347,0,11,83,16,-27,80,0,0,0,0,0,0,-6,0,0,0,10,67,77
80625,0,4,0,66,643,347,0,11,83,16,-27,80,0,0,0,0,0,0,-6,0,0,0,10,67,77
80727,0,4,0,66,643,347,0,11,83,16,-27,80,0,0,0,0,0,0,-6,0,0,0,10,67,77
80828,0,4,0,66,643,347,0,11,83,16,-27,80,0,0,0,0,0,0,-6,0,0,0,10,67,77
80928,0,4,0,66,643,347,0,11,83,16,-27,80,0,0,0,0,0,0,-6,0,0,0,10,67,77
81029,0,4,0,66,643,347,0,11,83,16,-27,80,0,0,0,0,0,0,-6,0,0,0,10,67,77
81130,0,4,0,66,643,347,0,11,83,16,-27,80,0,0,0,0,0,0,-6,0,0,0,10,67,77
81231,0,4,0,66,643,347,0,11,83,16,-27,80,0,0,0,0,0,0,-6,0,0,0,10,67,77
81336,0,4,0,66,643,347,0,11,83,16,-27,80,0,0,0,0,0,0,-6,0,0,0,10,67,77
81437,0,4,0,66,643,347,0,11,83,16,-27,80,0,0,0,0,0,0,-6,0,0,0,10,67,77
81538,0,4,0,66,643,347,0,11,83,16,-27,80,0,0,0,0,0,0,-6,0,0,0,10,67,77
81639,0,4,0,66,643,347,0,11,83,16,-27,80,0,0,0,0,0,0,-6,0,0,0,10,67,77
81741,0,4,0,66,643,347,0,11,83,16,-27,80,0,0,0,0,0,0,-6,0,0,0,10,67,77
81842,0,4,0,66,643,347,0,11,83,16,-27,80,0,0,0,0,0,0,-6,0,0,0,10,67,77
81942,0,4,0,66,643,347,0,11,83,16,-27,80,0,0,0,0,0,0,-6,0,0,0,10,67,77
82044,0,4,0,66,643,347,0,11,83,16,-27,80,0,0,0,0,0,0,-6,0,0,0,10,67,77
82145,0,4,0,66,643,347,0,11,83,16,-27,80,0,0,0,0,0,0,-6,0,0,0,10,67,77
82245,0,4,0,66,643,347,0,11,83,16,-27,80,0,0,0,0,0,0,-6,0,0,0,10,67,77
82346,0,4,0,66,643,347,0,11,83,16,-27,80,0,0,0,0,0,0,-6,0,0,0,10,67,77
82447,0,4,0,66,643,347,0,11,83,16,-27,80,0,0,0,0,0,0,-6,0,0,0,10,67,77
82548,0,4,0,66,643,347,0,11,83,16,-27,80,0,0,0,0,0,0,-6,0,0,0,10,67,77
82648,0,4,0,66,643,347,0,11,83,16,-27,80,0,0,0,0,0,0,-6,0,0,0,10,67,77
82749,0,4,0,66,643,347,0,11,83,16,-27,80,0,0,0,0,0,0,-6,0,0,0,10,67,77
82850,0,4,0,66,643,347,0,11,83,16,-27,80,0,0,0,0,0,0,-6,0,0,0,10,67,77
82950,0,4,0,66,643,347,0,11,83,16,-27,80,0,0,0,0,0,0,-6,0,0,0,10,67,77
83054,0,4,0,66,643,347,0,11,83,16,-27,80,0,0,0,0,0,0,-6,0,0,0,10,67,77
83156,0,4,0,66,643,347,0,11,83,16,-27,80,0,0,0,0,0,0,-6,0,0,0,10,67,77
83256,0,4,0,66,643,347,0,11,83,16,-27,80,0,0,0,0,0,0,-6,0,0,0,10,66,77
83357,0,4,0,66,643,347,0,11,83,16,-27,80,0,0,0,0,0,0,-6,0,0,0,10,66,77
83458,0,4,0,66,643,347,0,11,83,16,-27,80,0,0,0,0,0,0,-6,0,0,0,10,66,77
83559,0,4,0,66,643,347,0,11,83,16,-27,80,0,0,0,0,0,0,-6,0,0,0,10,66,77
83660,0,4,0,66,643,347,0,11,83,16,-27,80,0,0,0,0,0,0,-6,0,0,0,10,66,77
83761,0,4,0,66,643,347,0,11,83,16,-27,80,0,0,0,0,0,0,-6,0,0,0,10,66,77
83862,0,4,0,66,643,347,0,11,83,16,-27,80,0,0,0,0,0,0,-6,0,0,0,10,66,77
83964,0,4,0,66,643,347,0,11,83,16,-27,80,0,0,0,0,0,0,-6,0,0,0,10,66,77
84065,0,4,0,66,643,347,0,11,83,16,-27,80,0,0,0,0,0,0,-6,0,0,0,10,66,77
84166,0,4,0,66,643,347,0,11,83,16,-27,80,0,0,0,0,0,0,-6,0,0,0,10,66,77
84267,0,4,0,66,643,347,0,11,83,16,-27,80,0,0,0,0,0,0,-6,0,0,0,10,66,77
84367,0,4,0,66,643,347,0,11,83,16,-27,80,0,0,0,0,0,0,-6,0,0,0,10,66,77
84468,0,4,0,66,643,347,0,11,83,16,-27,80,0,0,0,0,0,0,-6,0,0,0,10,66,77
84569,0,4,0,66,643,347,0,11,83,16,-27,80,0,0,0,0,0,0,-6,0,0,0,10,66,77
84670,0,4,0,66,643,347,0,11,83,16,-27,80,0,0,0,0,0,0,-6,0,0,0,10,66,77
84770,0,4,0,66,643,347,0,11,83,16,-27,80,0,0,0,0,0,0,-6,0,0,0,10,66,77
84871,0,4,0,66,643,347,0,11,83,16,-27,80,0,0,0,0,0,0,-6,0,0,0,10,66,77
84973,0,4,0,66,643,347,0,11,83,16,-27,80,0,0,0,0,0,0,-6,0,0,0,10,66,77
85074,0,4,0,66,643,347,0,11,83,16,-27,80,0,0,0,0,0,0,-6,0,0,0,10,66,77
85176,0,4,0,66,643,347,0,11,83,16,-27,80,0,0,0,0,0,0,-6,0,0,0,10,66,77
85277,0,4,0,66,643,347,0,11,83,16,-27,80,0,0,0,0,0,0,-6,0,0,0,10,66,77
85378,0,4,0,66,643,347,0,11,83,16,-27,80,0,0,0,0,0,0,-6,0,0,0,10,66,77
85478,0,4,0,66,643,347,0,11,83,16,-27,80,0,0,0,0,0,0,-6,0,0,0,10,66,77
85579,0,4,0,66,643,347,0,11,83,16,-27,80,0,0,0,0,0,0,-6,0,0,0,10,66,77
85680,0,4,0,66,643,347,0,11,83,16,-27,80,0,0,0,0,0,0,-6,0,0,0,10,66,77
85780,0,4,0,66,643,347,0,11,83,16,-27,80,0,0,0,0,0,0,-6,0,0,0,10,66,77
85882,0,4,0,66,643,347,0,11,83,16,-27,80,0,0,0,0,0,0,-6,0,0,0,10,66,77
85983,0,4,0,66,643,347,0,11,83,16,-27,80,0,0,0,0,0,0,-6,0,0,0,10,66,77
86088,0,4,0,66,643,347,0,11,83,16,-27,80,0,0,0,0,0,0,-6,0,0,0,10,66,77
86188,0,4,0,66,643,347,0,11,83,16,-27,80,0,0,0,0,0,0,-6,0,0,0,10,66,77
86289,0,4,0,66,643,347,0,11,83,16,-27,80,0,0,0,0,0,0,-6,0,0,0,10,66,77
86390,0,4,0,66,643,347,0,11,83,16,-27,80,0,0,0,0,0,0,-6,0,0,0,10,66,77
86490,0,4,0,66,643,347,0,11,83,16,-27,80,0,0,0,0,0,0,-6,0,0,0,10,66,77
86591,0,4,0,66,643,347,0,11,83,16,-27,80,0,0,0,0,0,0,-6,0,0,0,10,66,77
86692,0,4,0,66,643,347,0,11,83,16,-27,80,0,0,0,0,0,0,-6,0,0,0,10,66,77
86793,0,4,0,66,643,347,0,11,83,16,-27,80,0,0,0,0,0,0,-6,0,0,0,10,66,77
86894,0,4,0,66,643,347,0,11,83,16,-27,80,0,0,0,0,0,0,-6,0,0,0,10,66,77
86995,0,4,0,66,643,347,0,11,83,16,-27,80,0,0,0,0,0,0,-6,0,0,0,10,66,77
87096,0,4,0,66,643,347,0,11,83,16,-27,80,0,0,0,0,0,0,-6,0,0,0,10,66,77
87197,0,4,0,66,643,347,0,11,83,16,-27,80,0,0,0,0,0,0,-6,0,0,0,10,66,77
87297,0,4,0,66,643,347,0,11,83,16,-27,80,0,0,0,0,0,0,-6,0,0,0,10,66,77
87398,0,4,0,66,643,347,0,11,83,16,-27,80,0,0,0,0,0,0,-6,0,0,0,10,66,78
87500,0,4,0,66,643,347,0,11,83,16,-27,80,0,0,0,0,0,0,-6,0,0,0,10,66,78
87601,0,4,0,66,643,347,0,11,83,16,-27,80,0,0,0,0,0,0,-6,0,0,0,10,66,78
87702,0,4,0,66,643,347,0,11,83,16,-27,80,0,0,0,0,0,0,-6,0,0,0,10,66,78
87804,0,4,0,66,643,347,0,11,83,16,-27,80,0,0,0,0,0,0,-6,0,0,0,10,66,78
87904,0,4,0,66,643,347,0,11,83,16,-27,80,0,0,0,0,0,0,-6,0,0,0,10,66,78
88005,0,4,0,66,643,347,0,11,83,16,-27,80,0,0,0,0,0,0,-6,0,0,0,10,66,78
88106,0,4,0,66,643,347,0,11,83,16,-27,80,0,0,0,0,0,0,-6,0,0,0,10,66,78
88207,0,4,0,66,643,347,0,11,83,16,-27,80,0,0,0,0,0,0,-6,0,0,0,10,66,78
88308,0,4,0,66,643,347,0,11,83,16,-27,80,0,0,0,0,0,0,-6,0,0,0,10,66,78
88409,0,4,0,66,643,347,0,11,83,16,-27,80,0,0,0,0,0,0,-6,0,0,0,10,66,78
88510,0,4,0,66,643,347,0,11,83,16,-27,80,0,0,0,0,0,0,-6,0,0,0,10,66,77
88611,0,4,0,66,643,347,0,11,83,16,-27,80,0,0,0,0,0,0,-6,0,0,0,10,66,77
88712,0,4,0,66,643,347,0,11,83,16,-27,80,0,0,0,0,0,0,-4,0,0,0,10,66,77
88813,0,4,0,66,643,347,0,11,83,16,-27,80,0,0,0,0,0,0,-2,0,0,0,10,66,77
88914,0,4,0,66,643,347,0,11,83,16,-27,80,0,0,0,0,0,0,-2,0,0,0,10,66,77
89016,0,4,0,66,643,347,0,11,83,16,-27,80,0,0,0,0,0,-1,-2,0,0,-3,10,66,77
89117,0,4,0,66,643,347,0,11,83,16,-27,80,0,0,0,0,0,0,-2,0,0,-7,13,66,77
89218,0,4,0,66,643,347,0,11,83,16,-27,80,0,0,0,0,0,0,-2,0,0,-7,25,66,77
89319,0,4,0,66,643,347,0,11,83,16,-27,80,0,0,0,0,0,0,-2,0,0,-7,25,66,77
89420,0,4,0,66,643,347,0,11,83,16,-27,80,0,0,0,0,0,0,-2,0,0,-7,33,66,77
89521,0,4,0,66,643,347,0,11,83,16,-27,80,0,0,0,0,0,0,-2,0,0,-7,40,66,77
89622,0,4,0,66,643,347,0,11,83,16,-27,80,0,0,0,0,0,0,-2,0,0,-5,52,66,77
