timestamp,trackMode,telSeqId,personCount,personConfidence,faceXPx,faceYPx,faceRadiusPx,angle_err,estimatedDistance,estimatedXPos,estimatedYPos,estimatedZPos,Uyaw,Uz,Ux,Uy,pitch,roll,yaw,vx,vy,vz,tof,batt,temp
41058,0,0,0,0,0,0,0,0,0,0,0,0,0,0,0,0,3,0,0,0,0,0,10,76,75
41160,0,0,0,0,0,0,0,0,0,0,0,0,0,0,0,0,3,0,0,0,0,0,10,76,75
41261,0,0,0,0,0,0,0,0,0,0,0,0,0,0,0,0,3,0,0,0,0,0,10,76,75
41361,0,0,0,0,0,0,0,0,0,0,0,0,0,0,0,0,3,0,0,0,0,0,10,76,75
41463,0,0,0,0,0,0,0,0,0,0,0,0,0,0,0,0,3,0,0,0,0,0,10,76,75
41564,0,0,0,0,0,0,0,0,0,0,0,0,0,0,0,0,3,0,0,0,0,0,10,76,75
41665,0,0,0,0,0,0,0,0,0,0,0,0,0,0,0,0,3,0,0,0,0,0,10,76,75
41766,0,0,0,0,0,0,0,0,0,0,0,0,0,0,0,0,3,0,0,0,0,0,10,76,75
41867,0,0,0,0,0,0,0,0,0,0,0,0,0,0,0,0,3,0,0,0,0,0,10,76,74
41968,0,0,0,0,0,0,0,0,0,0,0,0,0,0,0,0,3,0,0,0,0,0,10,76,74
42068,0,0,0,0,0,0,0,0,0,0,0,0,0,0,0,0,3,0,0,0,0,0,10,76,74
42169,0,0,0,0,0,0,0,0,0,0,0,0,0,0,0,0,3,0,0,0,0,0,10,76,74
42276,0,0,0,0,0,0,0,0,0,0,0,0,0,0,0,0,3,0,0,0,0,0,10,76,74
42377,0,0,0,0,0,0,0,0,0,0,0,0,0,0,0,0,3,0,0,0,0,0,10,76,74
42478,0,0,0,0,0,0,0,0,0,0,0,0,0,0,0,0,3,0,0,0,0,0,10,76,74
42579,0,0,0,0,0,0,0,0,0,0,0,0,0,0,0,0,3,0,0,0,0,0,10,76,74
42680,0,0,0,0,0,0,0,0,0,0,0,0,0,0,0,0,3,0,0,0,0,0,10,76,74
42780,0,0,0,0,0,0,0,0,0,0,0,0,0,0,0,0,3,0,0,0,0,0,10,76,75
42881,0,0,0,0,0,0,0,0,0,0,0,0,0,0,0,0,3,0,0,0,0,0,10,76,75
42982,0,0,0,0,0,0,0,0,0,0,0,0,0,0,0,0,3,0,0,0,0,0,10,76,75
43084,0,0,0,0,0,0,0,0,0,0,0,0,0,0,0,0,3,0,0,0,0,0,10,76,75
43185,0,0,0,0,0,0,0,0,0,0,0,0,0,0,0,0,3,0,0,0,0,0,10,76,75
43286,0,0,0,0,0,0,0,0,0,0,0,0,0,0,0,0,3,0,0,0,0,0,10,76,75
43387,0,0,0,0,0,0,0,0,0,0,0,0,0,0,0,0,3,0,0,0,0,0,10,76,75
43488,0,0,0,0,0,0,0,0,0,0,0,0,0,0,0,0,3,0,0,0,0,0,10,76,75
43589,0,0,0,0,0,0,0,0,0,0,0,0,0,0,0,0,3,0,0,0,0,0,10,76,75
43690,0,0,0,0,0,0,0,0,0,0,0,0,0,0,0,0,3,0,0,0,0,0,10,76,75
43791,0,0,0,0,0,0,0,0,0,0,0,0,0,0,0,0,3,0,0,0,0,0,10,76,75
43892,0,0,0,0,0,0,0,0,0,0,0,0,0,0,0,0,3,0,0,0,0,0,10,76,75
43993,0,0,0,0,0,0,0,0,0,0,0,0,0,0,0,0,3,0,0,0,0,0,10,76,75
44094,0,0,0,0,0,0,0,0,0,0,0,0,0,0,0,0,3,0,0,0,0,0,10,76,75
44195,0,0,0,0,0,0,0,0,0,0,0,0,0,0,0,0,3,0,0,0,0,0,10,76,75
44295,0,0,0,0,0,0,0,0,0,0,0,0,0,0,0,0,3,0,0,0,0,0,10,76,75
44398,0,0,0,0,0,0,0,0,0,0,0,0,0,0,0,0,3,0,0,0,0,0,10,76,75
44499,0,0,0,0,0,0,0,0,0,0,0,0,0,0,0,0,3,0,0,0,0,0,10,76,75
44608,0,0,0,0,0,0,0,0,0,0,0,0,0,0,0,0,3,0,0,0,0,0,10,76,75
44709,0,0,0,0,0,0,0,0,0,0,0,0,0,0,0,0,3,0,0,0,0,0,10,76,75
44810,0,0,0,0,0,0,0,0,0,0,0,0,0,0,0,0,3,0,0,0,0,0,10,76,75
44911,0,0,0,0,0,0,0,0,0,0,0,0,0,0,0,0,3,0,0,0,0,0,10,76,75
45012,0,0,0,0,0,0,0,0,0,0,0,0,0,0,0,0,3,0,0,0,0,0,10,76,75
45114,0,0,0,0,0,0,0,0,0,0,0,0,0,0,0,0,3,0,0,0,0,0,10,76,75
45215,0,0,0,0,0,0,0,0,0,0,0,0,0,0,0,0,3,0,0,0,0,0,10,76,75
45316,0,0,0,0,0,0,0,0,0,0,0,0,0,0,0,0,3,0,0,0,0,0,10,76,75
45417,0,0,0,0,0,0,0,0,0,0,0,0,0,0,0,0,3,0,0,0,0,0,10,76,75
45517,0,0,0,0,0,0,0,0,0,0,0,0,0,0,0,0,3,0,0,0,0,0,10,76,75
45618,0,0,0,0,0,0,0,0,0,0,0,0,0,0,0,0,3,0,0,0,0,0,10,76,75
45718,0,0,0,0,0,0,0,0,0,0,0,0,0,0,0,0,3,0,0,0,0,0,10,76,75
45822,0,0,0,0,0,0,0,0,0,0,0,0,0,0,0,0,3,0,0,0,0,0,10,76,75
45923,0,0,0,0,0,0,0,0,0,0,0,0,0,0,0,0,3,0,0,0,0,0,10,76,75
46023,0,0,0,0,0,0,0,0,0,0,0,0,0,0,0,0,3,0,0,0,0,0,10,76,75
46125,0,0,0,0,0,0,0,0,0,0,0,0,0,0,0,0,3,0,0,0,0,0,10,76,75
46225,0,0,0,0,0,0,0,0,0,0,0,0,0,0,0,0,3,0,0,0,0,0,10,76,75
46326,0,0,0,0,0,0,0,0,0,0,0,0,0,0,0,0,3,0,0,0,0,0,10,76,75
46427,0,0,0,0,0,0,0,0,0,0,0,0,0,0,0,0,3,0,0,0,0,0,10,76,75
46527,0,0,0,0,0,0,0,0,0,0,0,0,0,0,0,0,3,0,0,0,0,0,10,76,75
46628,0,0,0,0,0,0,0,0,0,0,0,0,0,0,0,0,3,0,0,0,0,0,10,76,75
46731,0,0,0,0,0,0,0,0,0,0,0,0,0,0,0,0,3,0,0,0,0,0,10,76,75
46831,0,0,0,0,0,0,0,0,0,0,0,0,0,0,0,0,3,0,0,0,0,0,10,76,75
46932,0,0,0,0,0,0,0,0,0,0,0,0,0,0,0,0,3,0,0,0,0,0,10,76,75
47033,0,0,0,0,0,0,0,0,0,0,0,0,0,0,0,0,3,0,0,0,0,0,10,76,75
47134,0,0,0,0,0,0,0,0,0,0,0,0,0,0,0,0,3,0,0,0,0,0,10,76,75
47234,0,0,0,0,0,0,0,0,0,0,0,0,0,0,0,0,3,0,0,0,0,0,10,76,75
47335,0,0,0,0,0,0,0,0,0,0,0,0,0,0,0,0,3,0,0,0,0,0,10,76,75
47436,0,0,0,0,0,0,0,0,0,0,0,0,0,0,0,0,3,0,0,0,0,0,10,76,75
47536,0,0,0,0,0,0,0,0,0,0,0,0,0,0,0,0,3,0,0,0,0,0,10,76,75
47637,0,0,0,0,0,0,0,0,0,0,0,0,0,0,0,0,3,0,0,0,0,0,10,76,75
47738,0,0,0,0,0,0,0,0,0,0,0,0,0,0,0,0,3,0,0,0,0,0,10,76,75
47838,0,0,0,0,0,0,0,0,0,0,0,0,0,0,0,0,3,0,0,0,0,0,10,76,75
47940,0,0,0,0,0,0,0,0,0,0,0,0,0,0,0,0,3,0,0,0,0,0,10,76,75
48040,0,0,0,0,0,0,0,0,0,0,0,0,0,0,0,0,3,0,0,0,0,0,10,76,75
48142,0,0,0,0,0,0,0,0,0,0,0,0,0,0,0,0,2,0,0,0,0,0,10,76,75
48243,0,0,0,0,0,0,0,0,0,0,0,0,0,0,0,0,2,0,0,0,0,0,10,76,75
48344,0,0,0,0,0,0,0,0,0,0,0,0,0,0,0,0,3,0,0,0,0,0,10,76,75
48446,0,0,0,0,0,0,0,0,0,0,0,0,0,0,0,0,3,1,0,0,0,0,10,76,75
48547,0,0,0,0,0,0,0,0,0,0,0,0,0,0,0,0,0,0,0,0,0,-1,15,76,75
48648,0,0,0,0,0,0,0,0,0,0,0,0,0,0,0,0,0,0,0,0,0,-4,16,76,75
48749,0,0,0,0,0,0,0,0,0,0,0,0,0,0,0,0,0,0,0,0,-1,-6,18,76,75
48850,0,0,0,0,0,0,0,0,0,0,0,0,0,0,0,0,0,4,0,0,-2,-7,19,76,76
48951,0,0,0,0,0,0,0,0,0,0,0,0,0,0,0,0,1,7,0,0,-3,-7,27,76,76
49054,0,0,0,0,0,0,0,0,0,0,0,0,0,0,0,0,1,9,0,0,-3,-7,33,76,76
49155,0,0,0,0,0,0,0,0,0,0,0,0,0,0,0,0,2,10,0,0,-2,-6,40,76,76
49256,0,0,0,0,0,0,0,0,0,0,0,0,0,0,0,0,1,9,0,0,-1,-5,45,76,76
49356,0,0,0,0,0,0,0,0,0,0,0,0,0,0,0,0,0,8,0,0,-1,-4,51,76,76
49457,0,0,1,67,217,51,40,-18,200,-62,-24,188,0,0,0,0,0,9,0,0,-2,-4,54,76,76
49558,0,0,1,67,217,51,40,-18,200,-62,-24,188,0,0,0,0,-1,10,0,-1,-1,-3,58,76,76
49659,0,0,1,70,245,54,41,-16,197,-55,-16,187,0,0,0,0,-2,9,0,-1,-1,-2,61,76,76
49762,0,0,1,72,254,47,38,-16,213,-57,-19,203,0,0,0,0,-2,8,0,0,0,-2,63,76,76
49863,0,0,1,70,286,42,38,-14,211,-49,-16,203,0,0,0,0,-3,8,0,-1,0,-1,65,76,76
49963,0,0,1,70,291,46,38,-13,209,-47,-15,201,0,0,0,0,-3,8,0,0,0,-1,67,76,76
50064,0,0,1,69,295,40,38,-13,209,-46,-17,201,0,0,0,0,-3,8,0,0,0,-1,69,76,76
50165,0,0,1,76,319,53,36,-11,221,-42,-18,215,0,0,0,0,-2,8,0,0,0,-1,70,76,76
50266,0,0,1,78,323,51,34,-11,232,-43,-20,225,0,0,0,0,-2,8,0,0,0,-1,71,76,76
50367,0,0,1,75,333,55,35,-10,230,-40,-19,225,0,0,0,0,-2,9,0,0,0,-1,72,76,76
50468,0,0,1,76,334,63,36,-10,223,-39,-16,218,0,0,0,0,-2,9,0,0,0,-1,73,76,76
50569,0,0,1,76,334,63,36,-10,223,-39,-24,218,0,0,0,0,0,9,0,0,0,-1,74,76,76
50670,0,0,1,79,343,51,35,-10,230,-38,-28,225,0,0,0,0,0,9,0,0,0,0,76,76,76
50771,0,0,1,79,343,51,35,-10,229,-37,-28,224,0,0,0,0,0,10,0,0,0,-1,77,76,76
50872,0,0,1,81,345,48,36,-9,229,-37,-28,223,0,0,0,0,0,11,0,0,0,-1,78,76,76
50973,0,0,1,77,348,51,37,-9,222,-35,-23,217,0,0,0,0,-1,10,0,0,0,-1,79,76,76
51074,0,0,1,73,354,50,37,-9,217,-33,-23,213,0,0,0,0,-1,8,0,0,1,-1,79,76,76
51174,0,0,1,71,341,21,36,-10,219,-36,-33,213,0,0,0,0,0,7,0,0,0,-1,81,76,76
51275,0,0,1,69,355,48,39,-9,202,-30,-21,198,0,0,0,0,-1,7,0,0,1,0,82,76,76
51376,0,0,1,67,341,27,37,-10,213,-35,-31,207,0,0,0,0,0,7,0,0,1,0,82,76,76
51477,0,0,1,70,341,37,38,-10,209,-35,-28,204,0,0,0,0,0,7,0,0,1,0,83,76,76
51577,0,0,1,70,341,37,38,-10,209,-35,-28,204,0,0,0,0,0,6,0,0,1,0,83,76,76
51678,0,0,1,67,346,38,35,-9,221,-35,-30,215,0,0,0,0,-2,5,0,0,1,0,83,76,76
51779,0,0,1,66,343,48,35,-10,219,-36,-19,214,0,0,0,0,-2,5,0,0,1,0,83,76,76
51879,0,0,1,66,343,48,35,-10,219,-36,-19,214,0,0,0,0,-1,6,0,0,0,0,83,76,76
51980,0,0,1,68,339,48,36,-10,217,-36,-23,212,0,0,0,0,-1,7,0,0,0,0,83,76,76
52082,0,0,1,70,337,47,35,-10,222,-38,-24,217,0,0,0,35,-1,7,0,0,0,0,83,76,76
52183,0,0,1,70,337,47,35,-10,222,-38,-24,217,0,0,0,35,-1,6,0,0,0,0,83,76,76
52284,0,0,1,70,322,49,46,-11,171,-32,-18,166,0,0,0,0,-1,6,0,0,0,0,83,76,76
52385,0,0,1,69,319,50,46,-11,171,-33,-18,166,0,0,0,0,-1,6,0,0,0,0,83,76,76
52486,0,0,1,71,318,55,45,-11,174,-33,-17,169,0,0,0,0,-1,5,0,0,0,0,83,76,76
52587,0,0,1,71,318,55,45,-11,174,-33,-17,169,0,0,0,0,-2,6,0,0,0,0,84,76,76
52689,0,0,1,71,318,55,45,-11,174,-33,-17,169,0,0,0,0,-2,6,0,0,0,0,84,76,76
52789,0,0,1,74,304,31,39,-12,198,-41,-18,191,0,0,0,0,-3,5,0,0,0,0,85,75,76
52890,0,0,1,74,304,31,39,-12,198,-41,-18,191,0,0,0,0,-3,5,0,0,0,0,85,75,76
52991,0,0,1,71,304,51,41,-12,188,-39,-13,182,0,0,0,0,-4,5,0,0,0,0,85,75,76
53092,0,0,1,71,304,51,41,-12,188,-39,-13,182,0,0,0,0,-4,4,0,0,0,0,87,75,76
53192,0,0,1,71,304,51,41,-12,188,-39,-13,182,0,0,0,0,-3,4,0,0,0,0,87,75,76
53293,0,0,1,71,306,45,42,-12,184,-38,-14,178,0,0,0,0,-3,4,0,0,0,0,87,75,76
53393,0,0,1,73,298,51,41,-13,190,-41,-19,183,0,0,0,0,-1,6,0,0,0,-1,90,75,76
53494,0,0,1,74,300,40,42,-13,188,-40,-25,181,0,0,0,0,0,7,0,0,0,-1,92,75,76
53595,0,0,1,74,300,40,42,-13,188,-40,-18,181,0,0,0,0,-2,7,0,0,0,-1,93,75,76
53696,0,0,1,74,300,40,42,-13,188,-40,-18,181,0,0,0,0,-1,7,0,0,0,-1,95,75,76
53797,0,0,1,73,300,39,42,-13,188,-40,-22,181,0,0,0,0,-1,7,0,0,0,-2,98,75,76
53900,0,0,1,73,300,39,42,-13,188,-40,-22,181,0,0,0,0,-1,7,0,0,0,-2,100,75,76
54002,0,0,1,76,291,41,44,-13,179,-40,-20,173,0,0,0,0,-1,7,0,0,0,-2,102,75,76
54103,0,0,1,76,291,41,44,-13,179,-40,-20,173,0,0,0,0,-2,7,0,0,0,-2,105,75,76
54204,0,0,1,73,298,52,48,-13,164,-35,-14,158,0,0,0,0,-2,7,0,0,0,-2,105,75,76
54305,0,0,1,74,284,56,49,-14,161,-37,-13,155,0,0,0,0,-2,7,0,0,0,-2,109,75,76
54406,0,0,1,77,295,50,48,-13,164,-36,-17,158,0,0,0,0,-1,7,0,0,0,-2,112,75,76
54508,0,0,1,75,295,60,46,-13,171,-38,-16,165,0,0,0,0,-1,8,0,0,0,-2,114,75,76
54611,0,0,1,77,298,48,45,-13,175,-38,-15,169,0,0,0,0,-2,8,0,0,0,-2,117,75,76
54713,0,0,1,78,293,42,45,-13,175,-39,-14,169,0,0,0,0,-3,8,0,0,0,-2,119,75,76
54814,0,0,1,78,293,42,45,-13,175,-39,-14,169,0,0,0,0,-3,7,0,0,0,-2,121,75,76
54915,0,0,1,75,300,42,45,-13,177,-38,-14,170,0,0,0,0,-3,7,0,0,0,-2,124,74,75
55016,0,0,1,75,300,42,45,-13,177,-38,-14,170,0,0,0,0,-3,7,0,0,0,-2,125,74,75
55117,0,0,1,76,304,47,45,-12,177,-37,-13,171,0,0,0,0,-3,7,0,0,0,-2,127,74,75
55218,0,0,1,77,311,45,42,-12,184,-37,-14,178,0,0,0,0,-3,6,0,0,0,-2,128,74,75
55319,0,0,1,77,311,45,42,-12,184,-37,-14,178,0,0,0,0,-4,6,0,0,0,-2,131,74,75
55425,0,0,1,77,311,39,42,-12,184,-37,-12,178,0,0,0,0,-4,6,0,0,0,-1,133,74,75
55526,0,0,1,76,309,45,44,-12,177,-36,-10,171,0,0,0,0,-3,6,0,0,0,-2,138,74,75
55626,0,0,1,78,306,44,43,-12,181,-37,-14,175,0,0,0,0,-2,7,0,0,0,-2,141,74,75
55727,0,0,1,76,304,45,44,-12,179,-37,-16,173,0,0,0,0,-2,7,0,0,0,-2,143,74,75
55828,0,0,1,76,304,38,43,-12,182,-38,-18,176,0,0,0,0,-3,7,0,0,0,-2,144,74,76
55928,0,0,1,79,304,44,43,-12,182,-38,-14,176,0,0,0,0,-3,7,0,0,0,-2,149,74,76
56029,0,0,1,77,304,44,44,-12,179,-37,-13,173,0,0,0,0,-2,8,0,0,0,-2,151,74,76
56130,0,0,1,78,300,48,43,-13,184,-39,-16,178,0,0,0,0,-2,8,0,0,0,-2,151,74,76
56231,0,0,1,78,300,54,44,-13,181,-39,-15,175,0,0,0,0,-2,8,0,0,0,-2,151,74,76
56331,0,0,1,78,300,54,44,-13,181,-39,-15,175,0,0,0,0,-1,8,0,0,0,-2,154,74,76
56432,0,0,1,78,300,65,44,-13,181,-39,-16,175,0,0,0,0,-1,8,0,0,0,-1,160,74,76
56533,0,0,1,78,300,65,44,-13,181,-39,-16,175,0,0,0,0,-2,7,0,0,0,-1,163,74,76
56635,0,0,1,79,306,78,42,-12,188,-39,-11,183,0,0,0,0,-1,7,0,0,0,0,163,74,76
56735,0,0,1,79,315,103,41,-12,191,-38,-9,186,0,0,0,0,-1,7,0,0,-1,0,162,74,76
56836,0,0,1,79,315,103,41,-12,191,-38,-9,186,0,0,0,0,-1,7,0,0,-1,0,165,73,75
56937,0,0,1,79,315,103,41,-12,191,-38,-9,186,0,0,0,0,-1,7,0,0,-2,0,165,73,75
57038,0,0,1,79,313,151,40,-12,197,-39,0,193,0,0,0,0,-2,7,0,0,-2,0,163,73,75
57139,0,0,1,79,313,151,40,-12,197,-39,0,193,0,0,0,0,-1,7,0,0,-2,0,166,73,75
57239,0,0,1,76,325,164,40,-11,198,-37,2,194,0,0,0,0,-1,7,0,0,-3,0,164,73,75
57340,0,0,1,76,325,164,40,-11,198,-37,2,194,0,0,0,0,-1,7,0,0,-3,0,165,73,75
57441,0,0,1,76,325,164,40,-11,198,-37,2,194,0,0,0,0,-2,7,0,0,-3,0,163,73,75
57542,0,0,1,68,361,176,38,-8,209,-30,8,206,0,0,0,0,-2,7,0,0,-3,0,163,73,75
57643,0,0,1,68,361,176,38,-8,209,-30,8,206,0,0,0,0,-2,7,0,0,-3,0,163,73,75
57744,0,0,0,68,361,176,0,-8,209,-30,8,206,0,0,0,0,-2,7,0,0,-3,0,166,73,75
57844,0,0,0,68,361,176,0,-8,209,-30,8,206,0,0,0,0,-2,7,0,0,-3,0,166,73,75
57946,0,0,1,64,410,156,37,-5,216,-18,4,214,0,0,0,0,-2,7,0,0,-4,0,164,73,76
58046,2,0,1,69,429,161,36,-4,219,-13,2,218,0,0,0,0,-1,7,0,0,-4,0,163,73,76
58149,2,0,1,77,436,173,40,-3,198,-10,4,197,-6,-33,0,0,-1,7,0,0,-4,0,165,73,76
58251,2,0,1,77,436,173,40,-3,198,-10,4,197,-6,-33,0,0,-2,7,0,-1,-4,0,165,73,76
58352,2,0,1,77,436,173,40,-3,198,-10,4,197,-6,-33,0,0,-2,7,0,0,-4,0,165,73,76
58453,2,0,1,80,470,174,38,-1,207,-2,8,206,-4,-30,0,0,-1,8,0,0,-5,0,162,73,76
58555,2,0,1,76,510,170,39,2,206,7,3,205,9,-32,0,0,0,8,0,0,-5,0,165,73,76
58657,2,0,1,76,510,170,39,2,206,7,3,205,9,-32,0,0,0,8,0,0,-5,0,165,73,76
58758,2,0,1,70,541,169,36,4,221,16,0,220,11,-28,0,0,1,7,0,0,-5,0,162,73,76
58859,2,0,1,70,541,169,36,4,221,16,0,220,11,-28,0,0,1,7,0,-1,-5,0,162,72,75
58960,2,0,1,70,541,169,36,4,221,16,0,220,11,-28,0,0,1,7,0,-1,-5,0,162,72,75
59061,2,0,1,70,602,152,34,9,233,34,-8,230,17,-24,0,0,1,7,0,-1,-5,0,162,72,75
59163,2,0,1,74,610,160,37,9,216,34,-9,212,17,-34,0,0,2,7,0,-1,-5,0,161,72,75
59264,2,0,1,64,607,167,38,9,206,31,-7,203,17,-37,0,0,2,7,0,-2,-5,0,161,72,75
59366,2,0,1,64,607,167,38,9,206,31,-7,203,17,-37,0,0,1,7,1,-3,-5,0,161,72,75
59467,2,0,1,62,598,191,40,8,196,28,1,193,16,-41,0,0,1,7,1,-3,-5,0,160,72,75
59568,2,0,0,62,598,191,0,8,196,28,1,193,0,0,0,0,1,7,2,-3,-6,0,159,72,75
59669,2,0,0,62,598,191,0,8,196,28,1,193,0,0,0,0,2,7,3,-4,-6,0,159,72,75
59770,2,0,1,79,501,161,31,1,250,6,-10,250,5,-16,0,0,0,7,3,-4,-7,0,158,72,75
59871,2,0,1,79,490,170,32,1,246,3,0,246,5,-21,0,0,0,7,3,-4,-7,0,158,72,75
59972,2,0,1,82,439,213,44,-3,179,-8,11,179,-11,-52,0,0,-1,7,3,-4,-7,0,155,72,75
60073,2,0,1,81,435,212,45,-3,177,-9,11,176,-10,-46,0,0,0,7,3,-4,-7,0,156,72,75
60174,2,0,1,77,412,206,46,-5,172,-14,6,171,-13,-50,0,0,0,7,3,-4,-8,0,155,72,75
60275,2,0,1,77,412,206,46,-5,172,-14,6,171,-11,-48,0,0,0,8,3,-5,-8,0,156,72,75
60377,2,0,1,74,367,158,30,-8,263,-36,-2,260,-17,-8,0,0,0,8,3,-5,-7,0,156,72,75
60478,2,0,1,83,357,137,31,-9,255,-38,-8,251,-17,-22,0,0,1,9,2,-6,-7,0,157,72,75
60584,2,0,1,83,357,137,31,-9,257,-38,-12,254,-17,-17,0,0,0,9,1,-6,-7,0,157,72,75
60686,2,0,1,83,358,181,39,-9,206,-30,2,203,-17,-46,0,0,-1,9,0,-7,-6,0,158,72,75
60787,2,0,1,83,358,181,39,-9,206,-30,2,203,-17,-46,0,0,-1,10,0,-6,-6,0,159,71,75
60888,2,0,1,82,364,192,36,-8,226,-31,9,223,-16,-32,0,0,-1,10,-1,-6,-5,0,161,71,75
60989,2,0,1,82,357,162,28,-9,291,-43,3,287,-18,0,0,0,-1,11,-2,-6,-5,0,162,71,75
61090,2,0,1,83,352,158,25,-9,334,-52,2,330,-18,18,0,0,0,11,-3,-6,-4,0,164,71,75
61191,2,0,1,83,352,158,25,-9,334,-52,2,330,-18,18,0,0,0,12,-4,-6,-3,0,165,71,75
61292,2,0,1,77,389,186,27,-6,308,-34,5,306,-15,6,0,0,-1,12,-5,-5,-2,0,166,71,75
61393,2,0,1,83,410,182,30,-5,276,-23,8,274,-12,-22,0,0,-1,11,-6,-4,-1,0,166,71,75
61494,2,0,1,80,456,198,25,-2,324,-9,15,323,-7,16,0,0,-2,10,-7,-4,-1,0,166,71,75
61595,2,0,1,76,454,196,21,-2,387,-12,24,386,-9,33,0,0,-2,9,-7,-3,-1,0,166,71,75
61696,2,0,1,73,454,191,21,-2,388,-12,22,387,-9,30,0,0,0,9,-7,-2,-1,0,169,71,75
61801,2,0,1,70,456,181,18,-2,441,-12,5,440,-10,53,0,0,-1,10,-7,-2,-1,0,168,71,75
61902,2,0,0,70,456,181,0,-2,441,-12,5,440,0,0,0,0,-3,11,-7,-2,-1,0,168,71,76
62003,2,0,1,62,467,167,18,-1,464,-7,23,463,-4,60,0,0,-5,11,-8,-2,-1,0,167,71,76
62104,2,0,1,72,471,203,18,-1,464,-5,57,463,-4,60,0,0,-7,11,-9,-1,-1,0,165,71,76
62205,2,0,1,66,469,226,19,-1,442,-5,80,441,-5,49,0,0,-7,11,-9,-1,-1,0,165,71,76
62306,2,0,1,71,466,223,17,-1,471,-8,67,470,-5,64,0,0,-5,11,-8,0,-1,0,164,71,76
62407,2,0,1,71,469,185,19,-1,435,-5,45,435,-5,44,0,0,-5,11,-8,0,-1,0,164,71,76
62508,2,0,1,77,482,122,17,0,493,1,44,492,5,76,0,0,-9,12,-9,2,-2,0,163,71,76
62609,2,0,1,77,487,110,17,0,485,4,46,484,6,64,0,0,-9,12,-9,2,-2,0,163,71,76
62710,2,0,1,77,487,110,17,0,485,4,46,484,6,64,0,0,-7,11,-9,5,-2,0,165,71,76
62814,2,0,1,77,497,120,18,1,456,9,32,455,6,59,0,0,-7,11,-8,6,-2,0,164,70,76
62915,2,0,1,77,497,120,18,1,456,9,32,455,6,59,0,0,-7,11,-8,7,-2,0,164,70,75
63017,2,0,1,64,503,84,17,2,486,13,16,483,7,72,0,0,-6,11,-8,8,-2,0,166,70,75
63119,2,0,1,64,503,84,17,2,486,13,16,483,7,72,0,0,-6,11,-8,9,-2,0,167,70,75
63221,2,0,1,64,503,84,17,2,486,13,16,483,7,72,0,0,-6,10,-8,10,-2,0,167,70,75
63322,2,0,1,67,502,115,16,2,519,13,25,518,7,82,0,0,-6,10,-8,10,-2,0,166,70,75
63423,2,0,1,67,502,115,16,2,519,13,25,518,7,82,0,0,-6,10,-8,11,-2,0,166,70,75
63524,2,0,1,77,491,115,16,1,495,6,24,494,5,72,0,0,-7,10,-8,11,-2,0,166,70,75
63625,2,0,1,77,482,126,18,0,458,1,35,457,4,58,0,0,-7,10,-8,12,-2,0,167,70,75
63726,2,0,1,77,482,126,18,0,458,1,35,457,4,58,0,0,-8,10,-8,13,-2,0,167,70,75
63828,2,0,1,77,481,135,17,0,472,0,49,472,5,73,0,0,-8,10,-8,13,-2,0,167,70,75
63930,2,0,1,77,477,119,18,-0,451,-1,39,449,-5,62,0,0,-8,10,-8,14,-2,0,167,70,75
64031,2,0,1,77,477,119,18,-0,451,-1,39,449,-5,62,0,0,-6,10,-7,14,-2,0,168,70,75
64132,2,0,1,77,477,119,18,-0,451,-1,39,449,-5,62,0,0,-5,9,-7,14,-2,0,170,70,75
64233,2,0,1,74,496,100,15,1,547,10,8,545,6,99,0,0,-5,9,-7,14,-2,0,171,70,75
64334,2,0,1,73,495,95,14,1,556,10,15,554,6,100,0,0,-6,9,-7,14,-2,0,171,70,75
64435,2,0,1,77,485,147,17,0,488,2,40,487,5,72,0,0,-6,10,-7,14,-2,0,172,70,75
64537,2,0,1,76,480,149,18,0,451,0,45,450,4,67,0,0,-7,10,-7,14,-2,0,173,70,75
64638,2,0,1,76,478,144,18,-0,445,-1,66,445,-5,68,0,0,-10,9,-8,14,-1,0,175,70,75
64739,2,0,1,77,472,129,17,-1,467,-4,78,466,-5,83,0,0,-12,9,-8,15,-2,0,173,70,75
64840,2,0,1,72,466,149,17,-1,460,-7,70,459,-6,79,0,0,-10,9,-8,16,-2,0,169,69,75
64941,2,0,1,74,474,86,18,-0,445,-3,23,443,-5,77,0,0,-8,9,-7,16,-1,0,166,69,75
65042,2,0,1,75,479,19,18,-0,434,0,-7,428,-4,75,0,0,-8,8,-6,16,-1,0,165,69,75
65144,2,0,1,74,472,19,19,-1,414,-3,0,408,-5,68,0,0,-9,8,-7,16,-1,0,163,69,75
65246,2,0,1,67,460,43,18,-1,439,-10,11,434,-7,85,0,0,-9,9,-6,17,-2,0,163,69,75
65348,2,0,1,63,444,90,17,-3,482,-21,27,480,-8,100,0,0,-8,9,-6,16,-2,0,163,69,75
65449,2,0,1,63,444,90,17,-3,482,-21,27,480,-8,100,0,0,-9,9,-6,16,-1,0,164,69,75
65550,2,0,1,67,436,81,18,-3,445,-23,29,442,-9,82,0,0,-9,8,-6,16,-1,0,163,69,75
65651,2,0,1,68,436,78,18,-3,434,-23,27,431,-9,83,0,0,-10,7,-6,16,-1,0,165,69,75
65752,2,0,1,72,436,62,19,-3,406,-21,25,402,-9,68,0,0,-12,7,-6,17,-1,0,165,69,75
65853,2,0,1,78,424,57,20,-4,393,-26,43,389,-10,70,0,0,-13,7,-6,18,-1,0,162,69,75
65954,2,0,1,81,412,45,21,-5,375,-30,23,370,-12,62,0,0,-11,7,-6,19,-1,0,165,69,75
66055,2,0,1,82,412,28,22,-5,363,-29,3,358,-11,60,0,0,-9,7,-6,19,0,0,168,69,75
66155,2,0,1,82,412,28,22,-5,363,-29,3,358,-11,60,0,0,-8,6,-6,19,0,0,169,69,75
66256,2,0,1,75,392,93,24,-6,321,-34,19,318,-14,43,0,0,-8,5,-6,18,0,0,169,69,75
66358,2,0,1,75,392,93,24,-6,321,-34,19,318,-14,43,0,0,-6,5,-6,18,-1,0,168,69,75
66460,2,0,1,75,392,93,24,-6,321,-34,19,318,-14,43,0,0,-4,6,-6,17,-1,0,164,69,75
66560,2,0,1,83,340,107,25,-10,318,-53,1,312,-20,48,0,0,-4,6,-6,17,-1,0,166,69,75
66661,2,0,1,83,340,107,25,-10,318,-53,1,312,-20,48,0,0,-2,6,-6,16,-1,0,169,69,75
66762,2,0,1,83,331,120,25,-10,318,-57,-4,311,-20,50,0,0,-1,7,-6,15,-1,0,172,69,75
66863,2,0,1,83,331,120,25,-10,318,-57,-4,311,-20,50,0,0,-1,7,-7,14,-1,0,172,68,75
66964,2,0,1,83,313,170,25,-12,310,-62,5,303,-22,49,0,0,-3,8,-9,12,-1,0,171,68,75
67065,2,0,1,83,319,183,27,-11,298,-58,20,292,-21,33,0,0,-3,8,-10,12,-1,0,170,68,75
67166,2,0,1,83,313,220,27,-12,289,-58,30,282,-23,31,0,0,-3,8,-11,12,-1,0,171,68,75
67271,2,0,1,79,299,222,31,-13,259,-56,28,252,-24,19,0,0,-2,8,-12,11,-1,0,176,68,75
67372,2,0,1,82,307,203,30,-12,263,-55,18,256,-23,25,0,0,-1,8,-13,11,-1,0,177,68,75
67473,2,0,1,80,313,183,29,-12,276,-55,9,269,-23,30,0,0,0,8,-14,10,-1,0,174,68,75
67574,2,0,1,80,313,183,29,-12,276,-55,4,269,-24,30,0,0,0,8,-14,10,-1,0,174,68,75
67675,2,0,1,80,313,183,29,-12,276,-55,4,269,-24,30,0,0,0,8,-15,8,-1,0,173,68,75
67776,2,0,1,83,331,213,29,-10,276,-49,12,270,-22,35,0,0,-2,8,-18,7,-1,0,170,68,75
67877,2,0,1,83,337,203,27,-10,289,-50,15,284,-23,37,0,0,-1,8,-20,7,-1,0,170,68,75
67978,2,0,1,82,354,211,27,-9,294,-44,13,289,-21,38,0,0,0,8,-21,6,-1,0,169,68,75
68080,2,0,1,78,363,217,28,-8,280,-39,14,276,-21,29,0,0,0,8,-21,6,-1,0,169,68,75
68182,2,0,1,66,370,225,26,-8,306,-40,28,302,-21,55,0,0,-2,9,-24,5,-1,0,168,68,75
68283,2,0,1,83,412,210,22,-5,370,-30,35,368,-17,81,0,0,-3,9,-25,5,-1,0,168,68,75
68384,2,0,1,82,448,212,23,-2,342,-13,27,341,-14,61,0,0,-2,9,-26,5,-2,0,166,68,75
68486,2,0,1,68,470,221,22,-1,363,-4,32,362,-12,75,0,0,-2,10,-27,5,-2,0,167,68,75
68587,2,0,1,79,502,210,25,2,330,8,43,329,0,55,0,0,-5,10,-28,6,-2,0,166,68,75
68688,2,0,1,81,515,186,21,2,380,16,53,380,0,84,0,0,-7,10,-30,6,-3,0,165,68,75
68789,2,0,1,83,561,185,21,6,388,38,60,386,5,78,0,0,-8,9,-30,7,-3,0,165,68,75
68890,2,0,1,78,589,190,23,8,353,46,44,349,7,63,0,0,-6,9,-30,8,-4,0,167,67,75
68991,2,0,1,83,604,181,27,9,305,45,30,301,8,43,0,0,-5,10,-30,9,-5,0,166,67,75
69092,2,0,1,83,645,145,29,12,279,55,22,272,13,25,0,0,-6,9,-31,10,-5,0,165,67,75
69193,2,0,1,79,666,121,32,13,249,56,13,242,14,14,0,0,-6,9,-31,10,-5,0,163,67,75
69294,2,0,1,83,730,115,30,18,267,80,8,254,22,27,0,0,-5,8,-30,11,-5,0,164,67,75
69395,2,0,1,83,730,115,30,18,267,80,8,254,22,27,0,0,-1,8,-29,11,-5,0,164,67,75
69496,2,0,1,83,807,129,28,23,282,109,-16,259,27,30,0,0,1,7,-27,10,-4,0,164,67,75
69598,2,0,1,79,842,118,29,25,273,116,-23,246,32,26,0,0,2,7,-26,9,-4,0,165,67,75
69699,2,0,1,73,845,126,30,26,258,111,-15,232,31,21,0,0,1,7,-26,8,-4,0,165,67,75
69800,2,0,0,73,845,126,0,26,258,111,-15,232,0,0,0,0,2,8,-25,8,-4,0,163,67,75
69901,2,0,1,70,877,218,25,28,326,151,5,288,39,16,0,0,2,9,-23,7,-4,0,162,67,75
70007,2,0,1,62,890,201,21,29,387,185,0,338,40,40,0,0,2,10,-22,7,-4,0,165,67,74
70108,2,0,0,62,890,201,0,29,387,185,0,338,0,0,0,0,2,10,-21,6,-4,0,165,67,74
70210,2,0,0,62,890,201,0,29,387,185,0,338,0,0,0,0,3,10,-19,5,-3,0,166,67,74
70311,2,0,0,62,890,201,0,29,387,185,0,338,0,0,0,0,2,11,-17,5,-3,0,164,67,74
70412,2,0,0,62,890,201,0,29,387,185,0,338,0,0,0,0,1,10,-17,4,-2,0,165,67,74
70513,2,0,0,62,890,201,0,29,387,185,0,338,0,0,0,0,1,10,-17,3,-2,0,165,67,74
70614,2,0,0,62,890,201,0,29,387,185,0,338,0,0,0,0,0,9,-17,3,-1,0,164,67,74
70716,2,0,0,62,890,201,0,29,387,185,0,338,0,0,0,0,0,8,-17,2,-1,0,163,67,74
70818,2,0,0,62,890,201,0,29,387,185,0,338,0,0,0,0,0,8,-17,2,0,0,165,67,74
70919,2,0,1,67,895,185,18,29,446,216,7,389,38,50,0,0,0,7,-17,2,0,0,163,66,74
71020,2,0,1,79,884,183,21,28,378,179,5,333,37,20,0,0,0,8,-17,2,0,0,166,66,75
71121,2,0,1,77,872,198,25,27,315,145,9,279,37,-3,0,0,0,7,-16,2,0,0,164,66,75
71222,2,0,1,75,864,201,26,27,309,139,15,275,37,1,0,0,-1,8,-15,2,0,0,163,66,75
71324,2,0,1,82,849,203,27,26,301,131,26,271,36,-1,0,0,-3,9,-13,1,-1,0,164,66,75
71426,2,0,1,83,838,201,28,25,288,121,19,260,37,-15,0,0,-2,9,-10,2,-1,0,164,66,75
71527,2,0,1,83,838,210,28,25,291,122,12,263,38,-11,0,0,0,10,-8,2,-1,0,165,66,75
71628,2,0,1,83,821,199,29,24,278,112,8,253,37,-17,0,0,0,10,-6,2,-1,0,165,66,75
71729,2,0,1,83,790,202,27,22,295,109,10,274,36,-6,0,0,0,10,-3,2,-1,0,163,66,75
71831,2,0,1,79,712,158,21,16,393,109,-4,377,27,48,0,0,0,10,-1,1,-1,0,163,66,75
71932,2,0,1,75,673,199,19,14,437,101,14,424,26,59,0,0,0,10,0,1,-1,0,163,66,75
72033,2,0,1,69,652,193,19,12,430,89,11,420,25,52,0,0,0,10,2,1,0,0,162,66,73
72135,2,0,1,70,594,186,16,8,498,69,26,492,21,81,0,0,-2,9,3,0,0,0,161,66,73
72236,2,0,1,67,562,183,17,6,480,47,49,477,19,65,0,0,-5,10,4,1,0,0,162,66,73
72337,2,0,1,75,532,179,16,4,511,32,76,510,17,85,0,0,-8,10,5,2,0,0,162,66,73
72438,2,0,1,77,466,189,18,-1,445,-7,94,445,0,47,0,0,-11,9,5,3,0,0,162,66,73
72538,2,0,1,77,466,189,18,-1,441,-7,108,440,4,57,0,0,-13,8,6,4,0,0,162,66,73
72639,2,0,1,64,406,134,21,-5,382,-34,79,380,-4,26,0,0,-14,8,7,5,0,0,163,66,73
72740,2,0,1,64,406,134,21,-5,382,-34,79,380,-4,26,0,0,-14,8,7,7,0,0,163,66,73
72841,2,0,1,79,364,49,25,-8,318,-44,26,312,-4,14,0,0,-12,8,8,8,1,0,162,65,73
72942,2,0,1,74,343,22,24,-10,327,-53,1,318,-6,21,0,0,-9,8,9,9,1,0,160,65,73
73043,2,0,1,77,325,20,23,-11,337,-62,-17,326,-7,26,0,0,-6,6,9,9,2,0,161,65,74
73144,2,0,1,77,288,17,19,-13,411,-94,-36,394,-11,61,0,0,-4,5,9,8,2,0,158,65,74
73245,2,0,1,74,265,12,18,-15,424,-108,-54,403,-13,60,0,0,-2,5,10,8,2,0,158,65,74
73346,2,0,1,64,257,68,17,-16,466,-124,-40,446,-13,82,0,0,-1,5,10,7,2,0,157,65,74
73448,2,0,1,77,245,151,18,-16,438,-123,14,419,-15,60,0,0,-3,5,9,7,2,0,159,65,74
73550,2,0,1,77,245,151,18,-16,438,-123,45,419,-14,67,0,0,-7,5,9,7,1,0,158,65,74
73650,2,0,1,77,245,151,18,-16,438,-123,45,419,-14,67,0,0,-9,6,9,7,1,0,162,65,74
73751,2,0,1,77,245,151,18,-16,438,-123,45,419,-14,67,0,0,-11,7,8,8,1,0,163,65,74
73852,2,0,1,73,215,183,17,-19,466,-148,95,441,-18,75,0,0,-11,7,7,9,1,0,162,65,74
73953,2,0,1,73,215,183,17,-19,466,-148,95,441,-18,75,0,0,-10,7,7,10,1,0,164,65,74
74055,2,0,1,77,187,129,18,-21,444,-155,58,415,-21,68,0,0,-10,7,7,10,1,0,164,65,74
74156,2,0,0,77,187,129,0,-21,444,-155,58,415,-21,68,0,0,-11,7,6,11,1,0,164,65,74
74257,2,0,1,82,159,38,24,-22,326,-123,18,298,-24,27,0,0,-11,8,6,11,1,0,165,65,74
74358,2,0,1,82,145,43,27,-23,294,-115,22,267,-25,12,0,0,-12,8,5,12,1,0,166,65,74
74459,2,0,1,77,115,30,23,-26,346,-147,10,309,-30,50,0,0,-10,7,5,13,2,0,165,65,74
74560,2,0,1,77,115,30,23,-26,346,-147,-13,309,-30,44,0,0,-6,7,4,13,2,0,166,65,74
74662,2,0,1,77,115,30,23,-26,346,-147,-13,309,-30,44,0,0,-2,7,4,12,1,0,164,65,74
74763,2,0,0,77,115,30,0,-26,346,-147,-13,309,0,0,0,0,-1,7,3,11,1,0,166,65,74
74864,2,0,0,77,115,30,0,-26,346,-147,-13,309,0,0,0,0,-2,8,1,11,1,0,169,64,74
74965,2,0,0,77,115,30,0,-26,346,-147,-13,309,0,0,0,0,-3,7,0,10,1,0,169,64,74
75066,2,0,1,71,88,151,22,-27,364,-167,6,322,-35,25,0,0,-2,7,-1,10,1,0,169,64,75
75167,2,0,0,71,88,151,0,-27,364,-167,6,322,0,0,0,0,0,7,0,10,1,0,171,64,75
75268,2,0,1,70,112,179,21,-26,369,-160,-2,332,-32,25,0,0,1,7,-1,9,1,0,170,64,75
75370,2,0,1,79,118,172,21,-25,375,-160,-5,338,-33,28,0,0,1,7,-1,8,1,0,170,64,75
75471,2,0,1,79,118,172,21,-25,375,-160,-5,338,-33,28,0,0,0,7,-3,7,1,0,171,64,75
75572,2,0,1,66,101,187,20,-27,390,-174,0,348,-38,36,0,0,1,6,-3,6,0,0,171,64,75
75674,2,0,1,66,94,203,22,-27,364,-165,13,324,-39,22,0,0,0,7,-5,6,0,0,173,64,75
75775,2,0,1,70,107,200,19,-26,406,-178,13,364,-39,47,0,0,-1,7,-10,5,0,0,171,64,75
75876,2,0,1,75,118,193,21,-25,375,-160,16,338,-39,28,0,0,-1,7,-13,5,0,0,170,64,75
75976,2,0,1,75,118,193,21,-25,375,-160,16,338,-39,28,0,0,-1,7,-13,5,0,0,170,64,75
76077,2,0,1,77,140,193,21,-24,381,-153,16,348,-37,36,0,0,-2,7,-18,5,0,0,168,64,73
76181,2,0,1,77,140,193,21,-24,381,-153,16,348,-37,36,0,0,-2,7,-21,5,0,0,166,64,73
76283,2,0,1,77,140,193,21,-24,381,-153,16,348,-37,36,0,0,-2,7,-21,5,0,0,166,64,73
76387,2,0,1,72,294,184,15,-13,512,-115,8,498,-25,76,0,0,0,7,-25,4,-1,0,167,64,73
76488,2,0,1,72,294,184,15,-13,512,-115,8,498,-25,76,0,0,0,8,-28,4,-1,0,166,64,73
76589,2,0,1,66,362,187,15,-8,533,-76,10,527,-21,81,0,0,0,8,-29,4,-1,0,168,64,73
76691,2,0,1,66,362,187,15,-8,533,-76,10,527,-21,81,0,0,-3,9,-31,5,-2,0,170,64,73
76792,2,0,1,66,362,187,15,-8,533,-76,10,527,-21,81,0,0,-6,8,-33,5,-2,0,169,63,73
76893,2,0,1,62,491,195,16,1,508,6,67,508,0,74,0,0,-8,8,-34,7,-3,0,170,63,73
76994,2,0,1,64,539,165,15,4,525,37,71,523,4,84,0,0,-9,8,-35,8,-4,0,169,63,73
77095,2,0,0,64,539,165,0,4,525,37,71,523,0,0,0,0,-8,7,-35,9,-5,0,170,63,73
77196,2,0,1,70,621,131,15,10,528,90,52,520,21,69,0,0,-7,8,-35,10,-5,0,171,63,73
77297,2,0,1,70,621,131,15,10,528,90,52,520,21,69,0,0,-7,7,-35,11,-6,0,168,63,73
77399,2,0,0,70,621,131,0,10,528,90,52,520,0,0,0,0,-2,7,-35,11,-7,0,170,63,73
77500,2,0,0,70,621,131,0,10,528,90,52,520,0,0,0,0,0,7,-34,11,-7,0,170,63,73
77601,2,0,1,69,682,72,20,14,391,95,-39,377,24,26,0,0,0,8,-33,11,-7,0,170,63,73
77702,2,0,1,71,685,96,20,14,389,95,-29,375,24,29,0,0,3,8,-32,11,-7,0,173,63,73
77803,2,0,1,71,685,96,20,14,389,95,-29,375,24,29,0,0,5,8,-33,10,-7,0,174,63,73
77904,2,0,1,71,685,159,20,14,395,97,-38,382,24,32,0,0,5,8,-33,10,-7,0,174,63,73
78005,2,0,1,69,676,215,20,14,399,94,-22,386,23,34,0,0,6,8,-31,9,-6,0,174,63,74
78108,2,0,1,69,676,215,20,14,399,94,-22,386,23,34,0,0,6,9,-29,8,-5,0,174,63,74
78209,2,0,1,68,669,228,19,13,418,95,-17,406,23,42,0,0,5,8,-28,8,-5,0,173,63,74
78310,2,0,1,67,670,257,19,13,414,94,2,401,23,44,0,0,5,8,-28,8,-4,0,173,63,74
78411,2,0,1,67,670,257,19,13,414,94,2,401,23,44,0,0,4,8,-27,7,-4,0,171,63,74
78512,2,0,1,63,643,274,19,11,421,82,17,409,21,44,0,0,4,8,-27,7,-4,0,171,63,74
78613,2,0,1,72,631,254,20,11,390,71,14,382,20,34,0,0,1,7,-26,6,-3,0,168,63,74
78714,2,0,1,70,624,236,19,10,410,71,21,402,20,47,0,0,1,7,-26,6,-3,0,168,63,74
78815,2,0,1,69,596,238,17,8,458,64,33,452,17,71,0,0,-1,8,-25,6,-3,0,168,62,74
78916,2,0,1,73,594,237,17,8,462,63,41,456,18,66,0,0,-1,8,-24,6,-3,0,168,62,74
79017,2,0,1,72,579,203,18,7,434,52,23,430,17,56,0,0,0,8,-23,7,-3,0,168,62,73
79119,2,0,1,72,579,203,18,7,434,52,23,430,17,56,0,0,0,8,-23,7,-3,0,168,62,73
79220,2,0,1,72,539,198,18,4,448,32,21,446,14,63,0,0,-4,8,-22,7,-3,0,168,62,73
79321,2,0,1,72,525,195,18,3,441,24,43,440,13,58,0,0,-4,8,-22,7,-3,0,164,62,73
79423,2,0,1,67,518,192,18,3,430,19,55,429,13,57,0,0,-6,7,-21,8,-3,0,164,62,73
79524,2,0,1,77,479,171,17,-0,448,0,40,447,0,65,0,0,-4,6,-19,9,-3,0,164,62,73
79625,2,0,1,77,479,171,17,-0,448,0,40,447,0,65,0,0,-4,6,-19,9,-3,0,164,62,73
79726,2,0,1,63,447,110,16,-2,484,-19,4,483,-2,78,0,0,-6,6,-19,10,-3,0,163,62,73
79827,2,0,1,63,447,110,16,-2,484,-19,4,483,-2,78,0,0,-6,6,-19,10,-3,0,162,62,73
79928,2,0,1,77,426,115,16,-4,492,-32,24,490,-3,80,0,0,-4,7,-19,11,-4,0,160,62,73
80028,2,0,1,77,418,150,19,-4,404,-30,20,402,-4,31,0,0,-4,7,-19,11,-4,0,160,62,73
80129,2,0,1,69,397,109,17,-6,477,-48,-4,473,-6,87,0,0,-5,8,-19,13,-4,0,157,62,73
80230,2,0,1,76,392,105,18,-6,434,-46,9,430,-6,55,0,0,-3,8,-19,13,-5,0,155,62,73
80331,2,0,1,77,382,108,17,-7,455,-54,-4,450,-7,79,0,0,-1,9,-19,14,-5,0,153,62,73
80432,2,0,1,77,377,114,17,-7,467,-58,-18,462,-7,79,0,0,-1,8,-19,14,-4,0,153,62,73
80533,2,0,1,73,367,143,19,-8,414,-56,-3,409,-8,58,0,0,-2,8,-19,13,-4,0,153,62,73
80634,2,0,1,71,348,122,19,-9,414,-66,-5,408,-11,64,0,0,-4,8,-20,13,-4,0,153,62,73
80734,2,0,1,72,345,104,19,-9,414,-67,1,407,-11,65,0,0,-4,8,-20,14,-4,0,152,62,73
80836,2,0,1,72,345,104,19,-9,414,-67,1,407,-11,65,0,0,-2,7,-19,14,-4,0,153,61,73
80937,2,0,1,72,345,104,19,-9,414,-67,1,407,-11,65,0,0,-2,7,-19,14,-4,0,155,61,73
81039,2,0,1,71,326,159,20,-11,385,-71,9,378,-13,58,0,0,-2,7,-19,14,-4,0,155,61,74
81140,2,0,1,64,308,103,21,-12,381,-79,-12,371,-15,58,0,0,-2,7,-19,14,-4,0,155,61,74
81241,2,0,1,63,292,78,17,-13,458,-103,-27,444,-17,95,0,0,-3,7,-20,13,-4,0,158,61,74
81342,2,0,0,63,292,78,0,-13,458,-103,-27,444,0,0,0,0,-1,6,-21,14,-4,0,159,61,74
81443,2,0,1,64,276,122,16,-14,484,-119,-15,468,-22,59,0,0,-2,6,-22,13,-4,0,162,61,74
81544,2,0,0,64,276,122,0,-14,484,-119,-15,468,0,0,0,0,-4,6,-22,13,-4,0,160,61,74
81644,2,0,1,70,244,133,19,-17,409,-116,13,391,-24,32,0,0,0,5,-22,13,-4,0,163,61,74
81745,2,0,1,70,240,129,19,-17,406,-117,-16,388,-25,36,0,0,3,6,-21,13,-4,0,165,61,74
81846,2,0,1,75,218,156,18,-18,443,-139,-28,420,-28,52,0,0,5,6,-22,11,-3,0,165,61,74
81948,2,0,1,80,221,151,19,-18,422,-131,-44,401,-27,39,0,0,4,6,-23,10,-3,0,167,61,74
82049,2,0,1,82,229,134,22,-18,360,-108,-38,343,-27,16,0,0,4,6,-25,10,-3,0,167,61,74
82152,2,0,1,83,224,172,27,-18,289,-88,-19,274,-29,-23,0,0,3,7,-27,10,-3,0,166,61,74
82253,2,0,1,83,219,179,29,-18,274,-85,-11,259,-30,-19,0,0,4,7,-29,9,-4,0,169,61,74
82354,2,0,1,83,219,179,29,-18,274,-85,-11,259,-30,-19,0,0,7,6,-30,9,-3,0,171,61,74
82456,2,0,1,83,227,206,23,-18,333,-101,-27,316,-30,13,0,0,9,6,-32,8,-3,0,169,61,74
82557,2,0,1,83,252,194,25,-16,318,-87,-41,305,-27,5,0,0,10,6,-33,6,-2,0,168,61,74
82658,2,0,1,64,284,190,25,-14,318,-75,-48,309,-25,11,0,0,10,6,-35,5,-2,0,168,61,74
82759,2,0,1,83,313,179,25,-12,318,-64,-51,310,-23,10,0,0,10,6,-35,5,-2,0,168,61,74
82862,2,0,1,83,313,179,25,-12,318,-64,-51,310,-23,10,0,0,8,6,-38,4,-1,0,166,60,74
82963,2,0,1,73,361,289,19,-8,409,-58,-5,401,-19,45,0,0,8,6,-38,4,-1,0,166,60,74
83064,2,0,0,73,361,289,0,-8,409,-58,-5,401,0,0,0,0,8,6,-39,3,-1,0,167,60,74
83165,2,0,0,73,361,289,0,-8,409,-58,-5,401,0,0,0,0,6,5,-42,2,-1,0,166,60,73
83266,2,0,1,69,469,307,18,-1,438,-5,17,432,-1,43,0,0,3,6,-43,2,0,0,163,60,73
83368,2,0,1,74,485,278,16,0,477,2,29,473,8,64,0,0,4,6,-44,2,-1,0,165,60,73
83469,2,0,1,74,485,278,16,0,477,2,29,473,8,64,0,0,4,6,-44,2,-1,0,165,60,73
83570,2,0,1,69,529,271,15,3,516,30,28,512,12,73,0,0,3,6,-44,1,-1,0,165,60,73
83671,2,0,1,75,579,244,19,7,414,49,32,409,18,20,0,0,0,6,-44,2,-1,0,164,60,73
83773,2,0,0,75,579,244,0,7,414,49,32,409,0,0,0,0,-2,6,-44,3,-2,0,161,60,73
83874,2,0,1,66,619,200,20,10,387,65,33,381,19,22,0,0,-3,5,-44,3,-3,0,162,60,73
83975,2,0,1,70,626,212,17,10,466,82,29,458,19,57,0,0,-1,5,-44,4,-3,0,162,60,73
84076,2,0,1,67,625,178,15,10,529,93,-13,520,19,80,0,0,2,5,-43,4,-3,0,161,60,73
84178,2,0,1,61,640,197,13,11,604,117,-13,592,21,100,0,0,3,6,-42,3,-3,0,159,60,73
84280,2,0,1,68,650,166,14,12,567,116,-1,555,21,85,0,0,0,6,-42,3,-3,0,159,60,73
84382,2,0,1,68,650,166,14,12,567,116,-1,555,21,85,0,0,-4,6,-41,4,-4,0,159,60,73
84484,2,0,1,68,650,166,14,12,567,116,-1,555,21,85,0,0,-7,6,-41,5,-5,0,162,60,73
84585,2,0,1,72,673,198,18,14,434,101,73,421,24,31,0,0,-8,6,-40,7,-6,0,158,60,73
84687,2,0,1,71,678,181,19,14,414,98,55,401,25,36,0,0,-7,6,-39,8,-7,0,160,60,73
84788,2,0,1,77,694,156,17,15,469,121,42,453,27,64,0,0,-6,6,-38,9,-8,0,161,60,73
84889,2,0,1,75,698,87,19,15,420,110,-21,403,27,38,0,0,-2,6,-37,10,-8,0,163,59,73
84990,2,0,1,76,696,76,20,15,394,102,-44,378,28,37,0,0,1,6,-36,10,-8,0,158,59,73
85091,2,0,1,75,687,62,19,14,407,101,-59,391,27,45,0,0,2,6,-34,10,-8,0,156,59,73
85192,2,0,1,75,686,87,19,14,420,104,-57,405,28,52,0,0,3,6,-33,10,-8,0,160,59,73
85293,2,0,1,75,686,87,19,14,420,104,-57,405,28,52,0,0,4,6,-31,10,-7,0,160,59,73
85395,2,0,1,75,686,87,19,14,420,104,-57,405,28,52,0,0,4,7,-30,9,-7,0,160,59,73
85498,2,0,1,75,686,87,19,14,420,104,-57,405,28,52,0,0,2,7,-28,9,-7,0,160,59,73
85599,2,0,1,71,652,168,14,12,572,119,-20,559,25,100,0,0,1,8,-26,8,-6,0,160,59,73
85700,2,0,1,71,652,168,14,12,572,119,-20,559,25,100,0,0,0,8,-24,8,-6,0,160,59,73
85801,2,0,1,76,628,193,13,10,605,108,15,594,24,100,0,0,0,9,-23,8,-6,0,160,59,73
85902,2,0,1,76,592,210,16,8,514,69,49,508,21,72,0,0,-3,9,-22,9,-6,0,160,59,73
86003,2,0,1,77,581,196,17,7,482,59,80,478,20,65,0,0,-8,9,-21,10,-6,0,163,59,73
86105,2,0,1,64,561,172,15,6,530,52,84,527,19,92,0,0,-9,9,-20,12,-6,0,163,59,73
86206,2,0,1,73,551,165,16,5,508,44,60,506,18,78,0,0,-7,8,-19,13,-7,0,162,59,73
86307,2,0,1,77,531,169,18,4,448,27,31,447,17,58,0,0,-4,8,-18,14,-7,0,163,59,73
86408,2,0,1,72,520,85,17,3,460,22,-16,457,16,72,0,0,-3,9,-17,15,-6,0,164,59,73
86510,2,0,1,66,517,43,16,3,500,22,-30,495,17,90,0,0,-4,8,-17,15,-6,0,166,59,73
86611,2,0,1,66,514,36,15,2,525,21,-45,519,17,100,0,0,-3,8,-17,16,-6,0,165,59,73
86713,2,0,1,66,514,36,15,2,525,21,-45,519,17,100,0,0,-1,7,-16,16,-6,0,164,59,73
86814,2,0,1,63,514,73,14,2,545,22,-44,542,17,100,0,0,-2,8,-16,16,-6,0,168,58,73
86915,2,0,1,72,528,127,14,3,586,34,-4,584,19,100,0,0,-5,8,-15,16,-5,0,172,58,73
87016,2,0,1,72,528,127,14,3,586,34,-4,584,19,100,0,0,-8,7,-15,17,-5,0,172,58,73
87117,2,0,1,62,571,184,20,6,388,43,80,385,25,55,0,0,-11,6,-14,17,-5,0,171,58,73
87221,2,0,0,62,571,184,0,6,388,43,80,385,0,0,0,0,-11,6,-13,19,-5,0,170,58,73
87322,2,0,1,66,587,120,20,7,386,50,54,381,14,20,0,0,-11,5,-12,20,-5,0,169,58,73
87423,2,0,1,70,610,66,18,9,429,67,6,421,17,44,0,0,-7,6,-10,20,-5,0,170,58,73
87524,2,0,1,71,616,39,18,10,429,70,-57,419,17,40,0,0,0,6,-8,20,-5,0,170,58,73
87625,2,0,1,83,622,34,25,10,318,54,-66,309,18,-7,0,0,4,6,-7,19,-4,0,170,58,73
87726,2,0,1,83,622,41,25,10,320,54,-75,312,18,7,0,0,6,7,-5,17,-4,0,167,58,73
87830,2,0,1,83,622,41,25,10,320,54,-75,312,18,7,0,0,4,8,-5,15,-4,0,167,58,73
87932,2,0,1,81,625,145,22,10,367,64,-40,360,18,23,0,0,5,8,-4,14,-4,0,168,58,73
88034,2,0,1,81,625,145,22,10,367,64,-40,360,18,23,0,0,7,9,-3,13,-3,0,171,58,73
88135,2,0,1,70,663,216,20,13,394,87,-28,384,23,34,0,0,7,9,-2,11,-2,0,169,58,73
88236,2,0,1,82,691,228,27,15,300,76,-12,289,25,-1,0,0,6,10,-1,10,-2,0,170,58,73
88337,2,0,1,82,703,231,27,16,297,79,-1,285,27,-6,0,0,4,9,-1,8,-1,0,167,58,73
88438,2,0,1,67,775,267,27,21,289,101,24,269,36,-10,0,0,1,8,0,7,-1,0,165,58,73
88538,2,0,1,67,775,267,27,21,287,100,24,266,35,-8,0,0,1,7,0,6,-1,0,165,58,73
88639,2,0,1,81,829,252,31,24,259,106,13,234,43,-21,0,0,2,8,2,6,-1,0,165,58,73
88740,2,0,1,80,843,218,33,25,242,103,0,217,43,-24,0,0,3,9,4,5,-1,0,168,58,73
88841,2,0,1,82,846,187,34,26,238,102,-3,214,44,-24,0,0,2,9,5,3,0,0,166,57,73
88942,2,0,1,79,845,189,33,26,243,104,5,219,44,-21,0,0,0,8,8,3,0,0,164,57,73
89043,2,0,1,82,829,202,27,24,292,120,5,265,43,0,0,0,1,9,11,2,0,0,165,57,73
89144,2,0,1,79,816,197,22,24,364,145,-1,334,43,40,0,0,2,9,14,2,0,0,165,57,73
89246,2,0,1,79,791,157,20,22,401,148,-11,372,41,50,0,0,1,9,17,1,0,0,165,57,73
89348,2,0,1,62,773,153,19,21,416,145,-6,389,40,53,0,0,0,8,19,0,0,0,164,57,73
89449,2,0,1,79,706,179,18,16,443,120,20,426,33,63,0,0,-2,8,22,0,0,0,161,57,73
89551,2,0,1,79,706,179,18,16,443,120,20,426,33,63,0,0,-5,9,24,0,0,0,163,57,73
89652,2,0,1,79,706,179,18,16,443,120,20,426,33,63,0,0,-9,8,26,0,0,0,165,57,73
89753,2,0,1,79,613,170,22,9,352,56,67,347,27,23,0,0,-11,7,28,1,0,0,165,57,73
89854,2,0,1,79,613,170,22,9,352,56,67,347,27,23,0,0,-14,6,30,2,0,0,166,57,73
89955,2,0,1,61,587,170,23,7,344,44,83,340,27,24,0,0,-14,6,32,3,1,0,163,57,73
90056,2,0,1,78,465,46,27,-1,284,-5,28,281,6,-14,0,0,-13,6,34,4,2,0,165,57,73
90157,2,0,1,78,465,46,27,-1,284,-5,28,281,6,-14,0,0,-10,6,36,5,2,0,162,57,73
90258,2,0,1,81,442,25,23,-3,344,-15,8,339,5,31,0,0,-7,7,38,5,2,0,162,57,73
90358,2,0,1,64,368,27,24,-8,326,-43,-8,319,-3,15,0,0,-6,6,39,4,2,0,158,57,73
90459,2,0,1,76,342,25,23,-10,333,-55,-15,324,-3,25,0,0,-5,6,40,4,2,0,158,57,73
90560,2,0,1,75,316,36,23,-11,333,-65,-17,323,-5,22,0,0,-4,5,40,4,2,0,159,57,73
90661,2,0,1,67,291,64,25,-13,316,-71,-12,305,-7,16,0,0,-5,6,40,3,2,0,159,57,73
90761,2,0,1,77,274,94,24,-14,328,-81,3,316,-8,24,0,0,-6,6,40,3,2,0,159,57,73
90862,2,0,1,79,256,141,25,-16,318,-85,24,305,-10,17,0,0,-7,5,40,2,2,0,159,56,73
90964,2,0,1,79,256,141,25,-16,318,-85,24,305,-10,17,0,0,-6,5,40,2,2,0,156,56,73
91064,2,0,1,79,221,104,22,-18,358,-111,19,339,-13,30,0,0,-7,5,40,2,2,0,155,56,73
91165,2,0,1,75,209,110,21,-19,362,-117,22,341,-14,35,0,0,-7,4,39,2,2,0,157,56,72
91266,2,0,1,64,175,129,25,-21,306,-111,19,284,-19,8,0,0,-6,5,39,2,2,0,157,56,72
91367,2,0,1,64,175,129,25,-21,306,-111,19,284,-19,8,0,0,-6,5,39,2,2,0,158,56,72
91467,2,0,1,73,185,118,23,-21,331,-116,17,309,-17,27,0,0,-7,5,38,2,2,0,157,56,72
91568,2,0,1,79,174,118,25,-21,311,-113,21,288,-19,14,0,0,-6,4,37,2,2,0,157,56,72
91669,2,0,1,83,153,119,24,-23,324,-125,17,297,-22,25,0,0,-5,4,36,2,2,0,158,56,72
91770,2,0,1,81,139,117,22,-24,350,-141,11,320,-24,35,0,0,-5,4,36,2,2,0,158,56,72
91871,2,0,1,77,128,119,22,-25,358,-148,18,324,-26,36,0,0,-6,5,35,1,2,0,159,56,72
91972,2,0,1,79,130,119,22,-25,356,-147,18,323,-26,36,0,0,-6,4,34,1,2,0,160,56,72
92073,2,0,1,78,128,132,21,-25,364,-151,24,330,-27,40,0,0,-6,5,33,2,2,0,161,56,72
92174,2,0,1,74,130,150,21,-25,369,-153,31,336,-28,42,0,0,-6,5,32,2,2,0,161,56,72
92274,2,0,1,73,135,155,22,-24,356,-145,38,325,-28,36,0,0,-7,5,31,2,2,0,162,56,72
92376,2,0,1,74,138,128,19,-24,417,-169,40,381,-29,64,0,0,-8,5,29,2,2,0,162,56,72
92476,2,0,1,71,163,154,18,-22,431,-162,60,398,-27,64,0,0,-9,5,28,2,2,0,162,56,72
92577,2,0,1,77,172,147,19,-22,411,-150,55,381,-28,56,0,0,-9,5,26,2,2,0,161,56,72
92678,2,0,1,69,189,137,18,-20,438,-152,54,410,-27,70,0,0,-9,5,25,3,2,0,163,56,72
92780,2,0,1,69,189,137,18,-20,438,-152,54,410,-27,70,0,0,-11,5,23,3,3,0,163,56,72
92881,2,0,1,77,221,108,18,-18,424,-131,61,402,-26,62,0,0,-12,5,22,4,3,0,164,55,72
92982,2,0,1,75,251,96,19,-16,404,-111,60,387,-24,57,0,0,-13,5,21,5,3,0,163,55,72
93083,2,0,1,75,251,96,19,-16,404,-111,60,387,-24,57,0,0,-13,5,19,6,4,0,166,55,72
93184,2,0,1,77,278,47,19,-14,411,-99,40,395,-22,61,0,0,-13,5,18,7,4,0,167,55,72
93285,2,0,1,77,294,41,18,-13,431,-96,32,415,-22,70,0,0,-12,5,17,8,4,0,167,55,72
93386,2,0,1,75,302,36,19,-12,417,-89,14,403,-22,62,0,0,-10,5,16,9,4,0,164,55,72
93487,2,0,1,77,321,22,15,-11,521,-99,1,504,-21,100,0,0,-9,5,15,9,4,0,162,55,72
93588,2,0,1,77,328,11,16,-11,489,-88,-3,473,-22,82,0,0,-9,5,14,10,4,0,163,55,72
93689,2,0,1,77,333,20,15,-10,516,-91,0,501,-22,100,0,0,-9,6,13,10,4,0,164,55,72
93791,2,0,1,77,333,20,15,-10,516,-91,0,501,-22,100,0,0,-9,6,13,11,4,0,163,55,72
93893,2,0,1,77,333,20,15,-10,516,-91,0,501,-22,100,0,0,-12,6,12,12,4,0,165,55,72
93994,2,0,1,77,338,89,17,-10,448,-76,64,439,-23,73,0,0,-13,6,11,13,4,0,163,55,72
94095,2,0,1,77,344,85,19,-10,420,-69,65,412,-23,64,0,0,-14,6,10,14,4,0,167,55,72
94196,2,0,1,77,344,70,19,-10,414,-67,72,405,-24,64,0,0,-16,6,8,16,4,0,168,55,72
94298,2,0,1,72,335,5,18,-10,438,-75,32,424,-25,78,0,0,-14,5,7,17,4,0,166,55,72
94399,2,0,1,75,336,21,17,-10,462,-79,1,449,-26,87,0,0,-9,6,7,18,4,0,166,55,72
94500,2,0,1,77,339,20,18,-10,440,-74,-22,428,-26,77,0,0,-6,6,6,18,4,0,167,55,72
94601,2,0,1,77,342,14,17,-10,462,-76,-26,449,-26,90,0,0,-6,6,5,18,4,0,166,55,72
94703,2,0,1,77,339,11,16,-10,500,-84,-12,485,-27,100,0,0,-8,6,3,17,3,0,168,55,72
94804,2,0,1,77,339,11,16,-10,500,-84,-12,485,-27,100,0,0,-9,5,2,18,4,0,170,55,72
94911,2,0,1,77,339,11,16,-10,500,-84,-12,485,-27,100,0,0,-9,5,1,19,3,0,170,54,72
95012,2,0,1,77,348,128,16,-9,481,-77,55,474,-27,95,0,0,-10,5,0,19,3,0,170,54,72
95114,2,0,0,77,348,128,0,-9,481,-77,55,474,-27,95,0,0,-11,4,-1,20,3,0,172,54,72
95216,2,0,1,77,347,117,19,-9,404,-65,55,398,-28,61,0,0,-11,5,-2,20,3,0,168,54,73
95317,2,0,1,72,360,102,19,-8,415,-60,50,409,-27,77,0,0,-11,4,-4,21,2,0,167,54,73
95419,2,0,1,72,374,96,23,-7,338,-43,27,334,-26,34,0,0,-6,4,-6,23,1,0,166,54,73
95520,2,0,1,72,374,96,23,-7,338,-43,27,334,-26,34,0,0,-3,5,-7,22,0,0,164,54,73
95621,2,0,1,80,398,46,24,-6,324,-32,-41,320,-24,41,0,0,0,4,-8,22,0,0,161,54,73
95731,2,0,1,80,398,46,24,-6,324,-32,-41,320,-24,41,0,0,3,4,-10,20,0,0,162,54,73
95832,2,0,1,80,398,46,24,-6,324,-32,-41,320,-24,41,0,0,4,4,-11,18,0,0,162,54,73
95933,2,0,1,69,417,90,20,-4,377,-28,-57,375,-23,66,0,0,4,4,-12,17,0,0,162,54,73
96034,2,0,1,69,417,90,20,-4,377,-28,-57,375,-23,66,0,0,3,4,-14,16,0,0,159,54,73
96135,2,0,1,79,451,187,22,-2,356,-12,-11,355,-20,51,0,0,3,4,-16,15,-1,0,157,54,72
96236,2,0,1,79,451,187,22,-2,356,-12,-11,355,-20,51,0,0,1,5,-17,15,-1,0,155,54,72
96337,2,0,1,75,463,192,22,-1,358,-7,2,357,-20,59,0,0,1,6,-19,15,-2,0,154,54,72
96438,2,0,1,64,470,199,21,-1,366,-4,5,365,-20,63,0,0,2,6,-20,14,-2,0,152,54,72
96539,2,0,1,67,503,163,19,2,415,11,-16,415,-6,87,0,0,2,5,-22,14,-2,0,149,54,72
96640,2,0,1,69,532,160,19,4,400,25,-17,399,-3,73,0,0,2,3,-23,13,-2,0,145,54,72
96740,2,0,1,75,553,158,19,5,396,35,-18,394,-2,76,0,0,1,4,-23,13,-3,0,144,54,72
96842,2,0,1,81,622,175,21,10,373,64,-3,367,5,63,0,0,-2,6,-24,12,-4,0,145,53,72
96944,2,0,1,79,657,161,23,12,344,73,9,335,7,54,0,0,-3,6,-24,13,-4,0,145,53,72
97045,2,0,1,77,690,180,22,15,350,88,22,338,11,60,0,0,-2,5,-24,13,-4,0,145,53,72
97146,2,0,1,83,720,160,24,17,326,94,8,311,14,48,0,0,-1,5,-24,13,-4,0,143,53,72
97247,2,0,1,83,744,155,25,18,315,99,1,299,16,49,0,0,0,5,-24,13,-5,0,146,53,72
97348,2,0,1,80,778,182,24,21,321,114,4,300,20,52,0,0,2,5,-23,13,-5,-1,144,53,72
97449,2,0,1,83,807,160,26,23,296,115,-12,272,23,30,0,0,2,6,-23,13,-5,0,147,53,72
97550,2,0,1,83,817,157,26,24,303,121,-14,278,23,49,0,0,2,5,-23,12,-5,0,146,53,72
97650,2,0,1,83,819,177,22,24,347,139,-8,317,24,67,0,0,2,5,-23,12,-5,0,146,53,72
97751,2,0,1,82,842,182,22,25,347,148,-13,313,27,63,0,0,3,5,-21,12,-5,-1,148,53,72
97852,2,0,1,68,860,188,27,27,292,130,-9,261,30,25,0,0,3,5,-21,12,-5,-1,148,53,72
97953,2,0,1,68,860,188,27,27,292,130,-9,261,30,25,0,0,3,5,-21,12,-5,-1,148,53,72
98054,2,0,1,68,860,188,27,27,292,130,-9,261,30,25,0,0,1,6,-19,11,-5,-1,156,53,72
98155,2,0,1,62,893,198,19,29,403,194,5,352,33,81,0,0,2,6,-18,11,-5,-1,155,53,72
98258,2,0,0,62,893,198,0,29,403,194,5,352,0,0,0,0,3,5,-17,10,-5,-1,156,53,72
98358,2,0,0,62,893,198,0,29,403,194,5,352,0,0,0,0,3,5,-15,10,-5,-1,160,53,72
98459,2,0,0,62,893,198,0,29,403,194,5,352,0,0,0,0,2,6,-14,9,-5,-1,163,53,72
98561,2,0,0,62,893,198,0,29,403,194,5,352,0,0,0,0,5,7,-13,8,-5,0,164,53,72
98662,3,0,0,62,893,198,0,29,403,194,5,352,0,0,0,0,5,7,-13,8,-5,0,164,53,72
98763,3,0,0,62,893,198,0,29,403,194,5,352,0,0,0,0,5,7,-12,7,-4,0,166,53,72
98865,3,0,0,62,893,198,0,29,403,194,5,352,0,0,0,0,2,7,-12,5,-3,0,166,52,72
98967,3,0,0,62,893,198,0,29,403,194,5,352,0,0,0,0,1,7,-12,5,-3,0,167,52,72
99068,3,0,1,67,893,279,19,29,422,202,34,367,37,36,-40,0,2,6,-12,5,-3,0,167,52,72
99170,3,0,1,66,892,275,19,29,422,202,25,367,38,40,-40,0,3,6,-12,4,-3,0,170,52,71
99272,3,0,1,66,892,275,19,29,422,202,25,367,38,40,-40,0,3,6,-11,4,-2,0,171,52,71
99372,3,0,1,64,895,253,18,29,443,213,16,385,39,48,-40,0,2,5,-9,3,-2,0,170,52,71
99473,3,0,0,64,895,253,0,29,443,213,16,385,0,0,0,0,0,4,-7,3,-2,0,169,52,71
99574,3,0,1,61,900,198,16,29,477,234,23,415,37,55,-40,0,-1,2,-4,3,-2,0,168,52,71
99675,3,0,0,61,900,198,0,29,477,234,23,415,0,0,0,0,-1,1,-3,4,-3,0,169,52,71
99776,3,0,1,75,889,210,20,29,378,180,16,331,35,19,-40,0,0,3,-2,4,-3,0,169,52,71
99877,3,0,1,66,855,207,18,26,422,186,17,378,32,46,-40,0,0,3,-1,3,-2,0,166,52,71
99977,3,0,1,66,855,207,18,26,422,186,17,378,32,46,-40,0,0,4,0,3,-2,0,166,52,71
100078,3,0,1,75,822,203,18,24,424,171,15,387,30,41,-40,0,0,2,1,2,-2,0,164,52,71
100179,3,0,1,66,785,193,18,21,427,155,11,397,28,46,-40,0,-2,1,3,2,-3,1,165,52,71
100280,3,0,1,61,762,206,20,20,376,126,27,353,27,21,-40,0,-4,1,4,3,-4,0,163,52,71
100381,3,0,1,79,747,207,21,19,358,114,39,339,27,21,-40,0,-5,2,6,4,-4,0,164,52,71
100483,3,0,1,81,747,211,22,19,348,111,45,329,29,17,-40,0,-5,2,7,4,-4,0,163,52,71
100584,3,0,1,83,729,208,22,17,348,104,44,331,28,20,-40,0,-4,1,9,4,-4,0,164,52,71
100685,3,0,1,75,701,199,21,15,364,97,37,350,26,29,-40,0,-3,1,10,4,-4,0,163,52,71
100786,3,0,1,75,687,225,19,14,398,99,44,385,27,43,-40,0,-3,0,12,4,-4,0,164,52,71
100887,3,0,1,69,681,189,19,14,398,96,29,386,27,41,-40,0,-3,1,13,4,-5,0,163,52,71
100988,3,0,1,68,676,172,20,14,386,91,21,375,28,37,-40,0,-3,1,14,4,-5,0,163,52,71
101090,3,0,1,63,665,194,18,13,418,93,33,407,28,51,-40,0,-4,1,15,4,-5,0,162,52,71
101192,3,0,1,67,654,194,20,12,376,79,36,367,28,30,-40,0,-5,1,16,5,-5,0,162,52,73
101293,3,0,1,77,637,200,21,11,358,68,43,351,27,30,-40,0,-6,1,17,5,-5,0,162,52,73
101395,3,0,1,77,637,200,21,11,358,68,43,351,27,30,-40,0,-7,1,19,6,-5,0,162,52,73
101496,3,0,1,80,615,198,22,9,353,57,53,347,26,28,-40,0,-6,1,21,6,-5,0,163,52,73
101597,3,0,1,76,604,192,22,9,342,51,38,337,26,25,-40,0,-5,1,22,6,-4,0,163,52,73
101698,3,0,1,76,604,192,22,9,342,51,38,337,26,25,-40,0,-5,1,23,6,-5,0,162,52,73
101799,3,0,1,73,590,156,21,8,359,48,26,355,25,36,-40,0,-5,1,25,7,-5,0,161,51,73
101900,3,0,1,70,581,162,21,7,362,44,29,359,25,36,-40,0,-4,2,26,7,-5,0,161,51,73
102000,3,0,1,77,552,157,21,5,365,32,21,363,23,38,-40,0,-3,2,27,7,-4,0,162,51,73
102101,3,0,1,76,543,166,20,4,377,28,18,375,23,43,-40,0,-4,1,28,7,-4,0,163,51,73
102203,3,0,1,76,537,177,21,4,364,25,28,363,23,37,-40,0,-5,0,29,7,-4,0,162,51,71
102304,3,0,1,75,532,180,20,4,376,23,37,374,23,45,-40,0,-6,0,30,7,-4,0,163,51,71
102405,3,0,1,75,529,177,20,3,376,22,42,374,23,44,-40,0,-7,1,31,7,-4,0,165,51,71
102507,3,0,1,75,529,177,20,3,376,22,42,374,23,44,-40,0,-7,1,33,7,-3,0,166,51,71
102608,3,0,1,72,526,176,21,3,370,20,48,369,23,42,-40,0,-7,1,34,8,-3,0,167,51,71
102709,3,0,1,72,526,176,21,3,370,20,48,369,23,42,-40,0,-7,1,35,8,-3,0,167,51,71
102812,3,0,1,80,537,151,21,4,370,25,38,368,25,43,-40,0,-7,1,36,9,-3,0,167,51,71
102913,3,0,1,80,537,151,21,4,370,25,38,368,25,43,-40,0,-7,1,36,9,-3,0,167,51,71
103014,3,0,1,80,537,151,21,4,370,25,38,368,25,43,-40,0,-7,1,38,9,-2,0,168,51,71
103115,3,0,1,82,535,151,21,4,358,24,37,357,25,41,-40,0,-7,1,39,9,-2,0,167,51,71
103216,3,0,1,79,538,139,21,4,358,25,32,357,26,42,-40,0,-7,1,41,9,-2,0,168,51,72
103317,3,0,1,79,538,139,21,4,358,25,32,357,26,42,-40,0,-7,1,42,9,-2,0,166,51,72
103418,3,0,1,79,538,139,21,4,358,25,32,357,26,42,-40,0,-7,1,43,9,-2,0,165,51,72
103519,3,0,1,81,541,143,23,4,331,24,31,330,26,33,-40,0,-7,1,44,10,-2,0,166,51,72
103620,3,0,1,82,549,132,25,5,311,26,26,309,27,27,-40,0,-7,1,46,10,-2,0,163,51,72
103722,3,0,1,82,552,122,25,5,306,26,22,304,28,27,-40,0,-7,1,47,9,-1,0,165,51,72
103823,3,0,1,82,552,122,25,5,306,26,22,304,28,27,-40,0,-7,0,48,9,-1,0,164,51,72
103924,3,0,1,80,558,124,25,5,311,29,23,309,29,31,-40,0,-7,1,49,9,-1,0,164,51,72
104027,3,0,1,77,559,116,26,6,296,28,19,294,29,11,-40,0,-7,0,51,9,-1,0,163,51,72
104129,3,0,1,72,562,119,25,6,301,30,21,299,30,27,-40,0,-7,0,52,9,-1,0,164,51,72
104231,3,0,1,68,562,130,26,6,296,29,24,294,30,12,-40,0,-7,0,53,9,-1,0,165,51,71
104334,3,0,1,64,564,131,26,6,292,29,29,289,30,12,-40,0,-8,0,54,8,-1,0,166,51,71
104435,3,0,1,62,589,139,26,8,292,38,26,288,34,12,-40,0,-7,0,56,8,-1,0,165,51,71
104536,3,0,1,75,595,146,27,8,283,39,22,279,34,8,-40,0,-6,0,57,8,0,0,162,51,71
104637,3,0,1,76,596,136,26,8,292,41,15,288,34,14,-40,0,-5,0,59,8,0,0,165,51,71
104738,3,0,1,76,599,132,26,8,292,42,9,288,35,12,-40,0,-4,0,61,8,-1,0,163,51,71
104838,3,0,1,76,599,132,26,8,292,42,9,288,35,12,-40,0,-4,-1,62,8,-1,0,163,50,71
104939,3,0,1,80,601,120,27,8,283,41,5,279,35,9,-40,0,-5,-1,64,7,-1,0,165,50,71
105041,3,0,1,79,607,169,28,9,274,42,24,270,36,6,-40,0,-5,-1,66,7,-1,0,163,50,71
105143,3,0,1,79,607,169,28,9,274,42,24,270,36,6,-40,0,-6,-1,68,7,-1,0,164,50,71
105243,3,0,1,79,596,183,27,8,287,40,34,284,35,12,-40,0,-6,-2,69,7,-1,0,163,50,71
105344,3,0,1,75,599,189,28,8,274,39,34,271,36,5,-40,0,-5,-3,71,7,-1,0,163,50,71
105446,3,0,1,75,599,189,28,8,274,39,34,271,36,5,-40,0,-6,-2,72,7,-1,0,163,50,71
105547,3,0,1,66,593,135,27,8,283,38,19,279,36,13,-40,0,-6,-1,74,7,-2,0,165,50,71
105648,3,0,1,66,593,135,27,8,283,38,19,279,36,13,-40,0,-6,0,76,7,-2,0,163,50,71
105749,3,0,1,70,595,130,28,8,269,37,17,266,37,4,-40,0,-6,-1,77,7,-2,0,165,50,71
105850,3,0,1,71,599,151,27,8,278,40,24,275,38,10,-40,0,-6,-1,79,7,-2,0,166,50,71
105951,3,0,1,77,601,134,29,8,265,39,18,262,38,2,-40,0,-7,-1,81,7,-1,0,167,50,71
106051,3,0,1,78,602,116,27,9,278,41,18,274,39,10,-40,0,-7,-1,84,7,-1,0,165,50,71
106152,3,0,1,75,601,129,28,8,270,39,21,266,39,3,-40,0,-7,-2,86,7,-1,0,167,50,71
106253,3,0,1,78,604,126,29,9,266,40,20,262,40,3,-40,0,-6,-2,88,7,-1,0,167,50,70
106354,3,0,1,63,595,132,29,8,262,36,17,258,39,1,-40,0,-6,-2,90,7,0,0,167,50,70
106455,3,0,0,63,595,132,0,8,262,36,17,258,0,0,0,0,-7,-2,93,7,0,0,166,50,70
106556,3,0,1,71,559,128,27,6,283,27,22,281,9,-8,-40,0,-7,-2,95,7,0,0,165,50,70
106657,3,0,1,79,552,129,28,5,274,24,22,273,9,-14,-40,0,-6,-3,98,7,0,0,165,50,70
106757,3,0,1,79,549,133,28,5,271,22,18,269,9,-14,-40,0,-6,-2,99,7,0,0,163,50,70
106859,3,0,1,81,523,121,26,3,292,15,16,291,6,-4,-40,0,-6,-1,99,7,0,0,163,50,70
106960,3,0,1,79,511,114,28,2,274,10,13,273,6,-14,-40,0,-6,-1,99,6,0,0,162,50,70
107061,3,0,1,75,499,129,27,1,284,6,13,283,5,-7,-40,0,-5,-3,99,6,0,0,158,50,70
107162,3,0,1,72,499,133,24,1,317,7,15,317,6,16,-40,0,-5,-3,100,6,0,0,157,50,70
107263,3,0,1,72,499,133,24,1,317,7,15,317,6,12,-40,0,-4,-4,100,6,0,0,153,50,71
107364,3,0,1,83,526,101,25,3,304,17,0,302,10,6,-40,0,-4,-3,100,7,0,0,153,50,71
107465,3,0,1,80,544,90,25,4,303,23,-3,300,11,7,-40,0,-4,-3,100,7,0,0,153,50,71
107566,3,0,1,76,556,116,26,5,298,27,14,296,13,-6,-40,0,-6,-3,100,7,0,0,153,50,71
107667,3,0,1,62,584,119,25,7,303,38,10,299,17,7,-40,0,-5,-3,100,6,0,0,154,50,71
107768,3,0,1,79,604,123,26,9,299,45,11,295,18,5,-40,0,-5,-4,100,6,0,0,152,50,71
107870,3,0,1,82,624,113,28,10,276,48,12,271,21,-16,-40,0,-6,-4,101,6,0,0,153,50,71
107971,3,0,1,71,662,111,28,13,277,60,12,269,25,-13,-40,0,-6,-3,101,6,0,0,151,50,71
108072,3,0,1,73,677,86,27,14,283,67,5,273,26,-11,-40,0,-6,-4,102,6,0,0,149,50,71
108173,3,0,1,77,698,93,28,15,278,72,2,267,29,-13,-40,0,-5,-5,103,6,0,0,151,50,71
108275,3,0,1,79,712,70,30,16,261,72,-4,249,30,-23,-40,0,-5,-5,105,6,1,0,152,50,71
108376,3,0,1,79,721,96,29,17,269,77,-1,256,31,-15,-40,0,-4,-5,106,6,0,0,153,50,71
108477,3,0,1,74,748,74,30,19,257,82,-7,242,35,-24,-40,0,-4,-5,108,6,0,0,152,50,71
108578,3,0,1,74,742,78,28,18,278,87,-6,262,33,-11,-40,0,-4,-5,109,7,1,0,154,50,71
108679,3,0,1,79,733,102,28,18,278,84,-4,264,33,-15,-40,0,-3,-5,111,6,1,0,155,50,71
108780,3,0,1,82,727,99,29,17,265,78,-9,252,33,-19,-40,0,-2,-5,112,7,1,0,155,50,71
108882,3,0,1,83,724,117,29,17,264,77,-4,251,33,-20,-40,0,-2,-4,113,7,1,0,157,50,71
108983,3,0,1,83,718,122,30,17,261,74,1,249,34,-21,-40,0,-3,-5,114,7,1,0,156,50,71
109084,3,0,1,83,718,128,30,17,260,74,2,248,34,-21,-40,0,-3,-4,115,7,1,0,157,50,71
109185,3,0,1,83,714,127,30,16,260,73,-2,248,35,-22,-40,0,-2,-4,116,7,1,0,158,50,71
109286,3,0,1,83,724,134,30,17,261,76,0,249,37,-22,-40,0,-2,-5,118,7,1,0,158,50,70
109387,3,0,1,83,724,134,30,17,261,76,0,249,37,-22,-40,0,-2,-5,119,7,0,0,162,50,70
109488,3,0,1,82,733,149,30,18,257,78,3,244,38,-24,-40,0,-3,-5,121,7,0,0,164,50,70
109589,3,0,1,75,759,178,32,20,240,80,14,225,42,-30,-40,0,-3,-4,124,7,0,0,164,50,70
109690,3,0,1,73,762,183,32,20,241,81,16,226,43,-27,-40,0,-3,-5,126,7,1,0,166,50,70
109791,3,0,1,83,753,193,31,19,250,81,15,236,42,-25,-40,0,-2,-6,128,7,1,0,169,50,70
109892,3,0,1,83,741,197,32,18,247,77,11,234,42,-27,-40,0,-1,-6,131,7,1,0,167,50,70
109993,3,0,1,83,716,192,29,17,272,77,6,260,40,-15,-40,0,0,-6,134,7,2,0,170,50,70
110095,3,0,1,83,703,191,28,16,280,75,6,269,40,-16,-40,0,0,-6,137,7,2,0,172,50,70
110196,3,0,1,83,686,184,28,14,280,69,4,270,39,-16,-40,0,0,-6,140,7,2,0,175,50,70
110297,3,0,1,83,631,186,26,11,298,54,5,292,33,-8,-40,0,0,-6,143,7,2,0,175,50,70
110399,3,0,1,83,598,206,26,8,303,43,17,299,32,1,-40,0,-1,-6,146,7,2,0,175,50,70
110500,3,0,1,82,567,193,23,6,336,35,14,333,29,16,-40,0,-1,-7,149,7,2,0,175,50,70
110601,3,0,1,83,526,185,23,3,347,19,12,346,26,17,-40,0,-1,-7,151,6,2,0,176,50,70
110702,3,0,1,83,506,198,22,2,363,11,23,362,25,23,-40,0,-2,-7,153,6,2,0,176,50,70
110803,3,0,1,83,465,193,21,-1,381,-6,29,380,10,29,-40,0,-3,-7,155,6,2,0,175,50,70
110904,3,0,1,83,435,190,21,-3,369,-20,27,368,9,21,-40,0,-3,-7,157,5,3,0,173,49,70
111005,3,0,1,83,412,201,21,-5,369,-30,31,367,7,22,-40,0,-3,-7,158,4,3,0,173,49,70
111106,3,0,1,83,401,195,22,-6,352,-33,28,350,8,13,-40,0,-3,-7,159,4,4,0,172,49,70
111207,3,0,1,83,401,195,22,-6,352,-33,28,350,8,13,-40,0,-3,-7,160,3,4,0,169,49,70
111308,3,0,1,83,401,195,22,-6,352,-33,28,350,8,13,-40,0,-3,-7,160,2,5,0,169,49,70
111410,3,0,1,77,364,175,21,-8,375,-52,22,371,5,24,-40,0,-2,-7,161,1,5,0,169,49,70
111511,3,0,1,79,358,179,22,-9,363,-53,4,359,5,18,-40,0,0,-7,161,1,5,0,170,49,70
111612,3,0,1,82,358,172,22,-9,363,-53,1,359,5,20,-40,0,0,-7,162,1,5,0,169,49,70
111714,3,0,1,74,366,168,21,-8,375,-52,0,371,6,25,-40,0,0,-7,162,1,5,0,168,49,70
111815,3,0,1,70,369,173,21,-8,369,-49,1,365,6,22,-40,0,0,-7,162,0,5,0,166,49,70
111916,3,0,1,69,375,176,21,-7,372,-47,9,369,7,25,-40,0,-1,-8,163,0,4,0,168,49,70
112017,3,0,1,68,390,186,23,-6,347,-38,12,344,9,12,-40,0,-1,-7,163,0,5,0,166,49,70
112118,3,0,1,79,398,184,22,-6,358,-35,18,355,9,21,-40,0,-2,-7,163,0,5,0,167,49,70
112219,3,0,1,82,403,184,22,-5,363,-34,18,361,9,23,-40,0,-2,-7,163,0,5,0,165,49,70
112320,3,0,1,83,403,180,22,-5,363,-34,10,361,8,24,-40,0,-1,-7,163,0,5,0,163,49,69
112421,3,0,1,83,409,180,22,-5,361,-31,10,359,9,22,-40,0,-1,-8,163,0,5,0,164,49,69
112522,3,0,1,83,409,180,22,-5,361,-31,10,359,9,22,-40,0,-1,-8,163,0,6,0,162,49,69
112623,3,0,1,83,442,170,23,-3,350,-16,6,349,12,17,-40,0,-1,-8,163,0,6,0,162,49,69
112724,3,0,1,83,442,170,23,-3,350,-16,6,349,12,17,-40,0,-1,-8,163,0,7,0,163,49,69
112826,3,0,1,83,442,170,23,-3,350,-16,6,349,12,17,-40,0,-1,-7,163,0,7,0,162,49,69
112927,3,0,1,78,467,170,22,-1,352,-5,0,351,14,24,-40,0,0,-7,164,0,7,0,160,49,69
113029,3,0,1,78,467,170,22,-1,352,-5,0,351,14,24,-40,0,0,-7,164,0,7,0,162,49,69
113130,3,0,1,83,499,166,24,1,325,7,0,325,26,15,-40,0,0,-7,165,0,7,0,164,49,69
113232,3,0,1,83,515,166,24,2,325,13,4,324,28,15,-40,0,-1,-7,166,0,7,0,162,49,69
113337,3,0,1,83,525,163,25,3,320,17,3,319,28,14,-40,0,-1,-7,167,0,7,0,163,49,69
113439,3,0,1,83,535,169,25,4,320,21,0,319,29,15,-40,0,0,-7,168,0,7,0,164,49,69
113540,3,0,1,83,540,170,25,4,310,22,0,309,29,11,-40,0,0,-7,170,0,7,0,165,49,69
113641,3,0,1,83,547,161,26,5,300,24,-2,299,30,8,-40,0,0,-7,171,0,7,0,164,49,69
113742,3,0,1,83,548,153,27,5,296,24,-4,295,30,-4,-40,0,0,-7,172,0,7,0,166,49,69
113843,3,0,1,83,550,171,26,5,300,25,0,299,30,10,-40,0,0,-7,174,0,7,0,166,49,69
113944,3,0,1,83,550,171,26,5,300,25,0,299,30,10,-40,0,-1,-7,176,0,7,0,166,49,69
114045,3,0,1,83,541,168,27,4,296,22,5,294,29,-3,-40,0,-1,-7,178,0,7,0,166,49,69
114145,3,0,1,83,535,172,27,4,291,19,6,290,29,-4,-40,0,0,-7,-179,0,7,0,166,49,69
114247,3,0,1,83,524,168,27,3,296,15,-5,295,28,-3,-40,0,1,-7,-178,0,7,0,166,49,69
114348,3,0,1,83,524,168,27,3,296,15,-5,295,28,-3,-40,0,1,-7,-176,0,7,0,167,49,70
114449,3,0,1,83,511,160,25,2,311,11,-8,310,26,17,-40,0,1,-7,-174,0,7,0,167,49,70
114555,3,0,1,83,497,151,27,1,287,5,-10,286,25,-7,-40,0,1,-7,-172,-1,7,0,166,49,70
114657,3,0,0,82,494,149,0,1,282,4,-10,281,25,-6,-40,0,2,-6,-171,-1,7,0,166,49,70
114758,3,0,1,83,491,159,28,1,280,3,-12,279,25,-8,-40,0,3,-6,-169,-1,7,0,167,49,70
114860,3,0,1,83,491,159,28,1,280,3,-12,279,25,-8,-40,0,2,-7,-168,0,7,0,169,49,70
114961,3,0,1,83,491,159,28,1,280,3,-12,279,25,-8,-40,0,2,-7,-166,-1,7,0,170,49,70
115062,3,0,1,72,474,161,27,-0,291,-2,-12,291,14,-3,-40,0,4,-6,-163,-1,7,0,172,49,70
115163,3,0,1,75,477,160,28,-0,275,-1,-21,275,15,-11,-40,0,4,-6,-163,-1,7,0,170,49,70
115264,3,0,1,76,474,166,28,-0,280,-2,-20,279,14,-7,-40,0,3,-7,-162,0,7,0,171,49,68
115366,3,0,1,76,474,166,28,-0,280,-2,-20,279,14,-7,-40,0,1,-7,-161,0,7,0,171,49,68
115467,3,0,1,82,470,156,28,-1,278,-3,-8,277,14,-8,-40,0,0,-7,-160,0,7,0,170,49,68
115568,3,0,1,82,470,156,28,-1,278,-3,-8,277,14,-8,-40,0,1,-7,-160,0,7,0,168,49,68
115669,3,0,1,82,474,180,28,-0,278,-2,-1,277,15,-7,-40,0,1,-7,-159,0,7,0,166,49,68
115771,3,0,1,78,479,181,29,-0,273,0,-1,273,15,-9,-40,0,1,-7,-158,0,7,0,165,49,68
115872,3,0,1,81,494,155,30,1,261,4,-8,260,27,-16,-40,0,0,-7,-158,0,7,0,164,49,68
115972,3,0,1,83,496,150,29,1,269,5,-5,268,27,-11,-40,0,0,-7,-157,0,7,0,165,49,68
116073,3,0,1,83,494,156,29,1,273,4,-3,273,27,-9,-40,0,1,-7,-156,-1,6,0,164,49,68
116176,3,0,1,83,517,151,30,3,265,11,-9,264,30,-14,-40,0,2,-7,-155,-1,6,0,163,49,68
116277,3,0,1,83,522,141,29,3,274,14,-17,273,29,-8,-40,0,2,-7,-155,-1,6,0,163,49,68
116378,3,0,1,83,529,148,27,3,287,17,-16,285,30,-5,-40,0,2,-7,-154,0,5,0,163,49,69
116479,3,0,1,83,546,133,30,5,265,21,-14,263,32,-16,-40,0,2,-7,-150,-1,5,0,165,49,69
116580,3,0,1,83,546,133,30,5,265,21,-14,263,32,-16,-40,0,2,-7,-150,-1,5,0,165,49,69
116681,3,0,1,83,546,133,30,5,265,21,-14,263,32,-16,-40,0,2,-7,-147,-1,5,0,162,49,69
116782,3,0,1,83,545,141,27,5,296,23,-18,295,32,-2,-40,0,2,-7,-147,-1,5,0,162,49,69
116883,3,0,1,83,526,139,27,3,292,16,-24,291,30,-7,-40,0,3,-7,-144,-1,4,0,161,48,69
116984,3,0,1,83,526,139,27,3,292,16,-24,291,30,-7,-40,0,3,-7,-144,-1,4,0,161,48,69
117085,3,0,1,83,502,143,27,2,287,7,-22,286,28,-7,-40,0,3,-7,-142,-1,4,0,160,48,69
117186,3,0,1,83,494,152,28,1,280,4,-19,279,27,-11,-40,0,3,-7,-138,-1,4,0,160,48,69
117287,3,0,1,79,485,163,28,0,282,1,-16,282,26,-8,-40,0,3,-7,-138,-1,4,0,160,48,69
117388,3,0,1,82,474,155,27,-0,287,-2,-13,286,15,-7,-40,0,2,-7,-136,-1,4,0,160,48,69
117489,3,0,1,83,452,148,27,-2,296,-10,-16,296,12,-3,-40,0,2,-7,-135,-2,4,0,162,48,69
117590,3,0,1,83,432,142,25,-3,320,-18,-19,319,11,17,-40,0,2,-7,-133,-2,4,0,162,48,69
117691,3,0,1,83,413,139,25,-5,310,-25,-25,308,9,10,-40,0,3,-7,-132,-2,4,0,163,48,69
117792,3,0,1,79,394,130,25,-6,320,-33,-29,318,7,16,-40,0,3,-7,-131,-2,3,0,164,48,69
117893,3,0,1,79,373,127,27,-7,291,-37,-27,288,5,-10,-40,0,3,-7,-130,-2,4,0,166,48,69
117994,3,0,1,82,369,140,27,-8,296,-39,-19,292,5,-4,-40,0,2,-7,-130,-2,4,0,167,48,69
118095,3,0,1,83,364,147,27,-8,291,-41,-11,288,5,-8,-40,0,1,-7,-130,-2,4,0,167,48,69
118196,3,0,1,82,369,142,28,-8,278,-37,-12,274,5,-14,-40,0,1,-7,-130,-2,3,0,167,48,69
118298,3,0,1,82,391,135,29,-6,273,-29,-14,271,8,-14,-40,0,1,-7,-130,-3,3,0,170,48,69
118399,3,0,1,83,410,122,27,-5,291,-24,-19,289,10,-5,-40,0,1,-7,-130,-3,3,0,168,48,67
118500,3,0,1,83,429,112,27,-4,291,-18,-27,290,11,-7,-40,0,2,-7,-130,-4,3,0,168,48,67
118601,3,0,1,83,453,122,27,-2,291,-9,-29,290,14,-7,-40,0,3,-7,-130,-4,2,0,167,48,67
118702,3,0,1,80,471,125,26,-1,298,-3,-34,297,15,-3,-40,0,4,-6,-130,-4,2,0,168,48,67
118804,3,0,1,83,488,126,28,1,282,2,-32,281,26,-12,-40,0,4,-7,-129,-4,2,0,167,48,67
118906,3,0,1,83,512,155,29,2,271,10,-22,270,29,-15,-40,0,4,-6,-127,-4,2,0,169,48,67
119007,3,0,1,83,526,158,29,3,267,14,-21,266,29,-16,-40,0,4,-6,-127,-4,2,0,169,48,67
119108,3,0,1,83,535,172,31,4,250,16,-16,249,30,-23,-40,0,4,-6,-126,-4,2,0,168,48,67
119209,3,0,1,83,538,168,32,4,247,17,-17,245,30,-23,-40,0,4,-6,-124,-4,2,0,169,48,67
119310,3,0,1,83,538,168,32,4,247,17,-17,245,30,-23,-40,0,5,-6,-123,-4,2,0,167,48,68
