timestamp,trackMode,telSeqId,personCount,personConfidence,faceXPx,faceYPx,faceRadiusPx,angle_err,estimatedDistance,estimatedXPos,estimatedYPos,estimatedZPos,Uyaw,Uz,Ux,Uy,pitch,roll,yaw,vx,vy,vz,tof,batt,temp
6473,0,0,0,0,0,0,0,0,0,0,0,0,0,0,0,0,-1,-1,0,0,0,0,10,86,60
6576,0,0,0,0,0,0,0,0,0,0,0,0,0,0,0,0,-1,-1,0,0,0,0,10,86,60
6677,0,0,0,0,0,0,0,0,0,0,0,0,0,0,0,0,-1,-1,0,0,0,0,10,86,60
6778,0,0,0,0,0,0,0,0,0,0,0,0,0,0,0,0,-1,-1,0,0,0,0,10,86,60
6880,0,0,0,0,0,0,0,0,0,0,0,0,0,0,0,0,-1,-1,0,0,0,0,10,86,60
6981,0,0,0,0,0,0,0,0,0,0,0,0,0,0,0,0,-1,-1,0,0,0,0,10,86,60
7083,0,0,0,0,0,0,0,0,0,0,0,0,0,0,0,0,-1,-1,0,0,0,0,10,86,60
7185,0,0,0,0,0,0,0,0,0,0,0,0,0,0,0,0,-1,-1,0,0,0,0,10,86,60
7286,0,0,0,0,0,0,0,0,0,0,0,0,0,0,0,0,-1,-1,0,0,0,0,10,86,60
7390,0,0,0,0,0,0,0,0,0,0,0,0,0,0,0,0,-1,-1,0,0,0,0,10,86,60
7492,0,0,0,0,0,0,0,0,0,0,0,0,0,0,0,0,-1,-1,0,0,0,0,10,86,60
7593,0,0,0,0,0,0,0,0,0,0,0,0,0,0,0,0,-1,-1,0,0,0,0,10,86,60
7695,0,0,0,0,0,0,0,0,0,0,0,0,0,0,0,0,-1,-1,0,0,0,0,10,86,60
7796,0,0,0,0,0,0,0,0,0,0,0,0,0,0,0,0,-1,-1,0,0,0,0,10,86,60
7898,0,0,0,0,0,0,0,0,0,0,0,0,0,0,0,0,-1,-1,0,0,0,0,10,86,60
8003,0,0,0,0,0,0,0,0,0,0,0,0,0,0,0,0,-1,-1,0,0,0,0,10,86,60
8105,0,0,0,0,0,0,0,0,0,0,0,0,0,0,0,0,-1,-1,0,0,0,0,10,86,60
8207,0,0,0,0,0,0,0,0,0,0,0,0,0,0,0,0,-1,-1,0,0,0,0,10,86,60
8308,0,0,0,0,0,0,0,0,0,0,0,0,0,0,0,0,-1,-1,0,0,0,0,10,86,60
8409,0,0,0,0,0,0,0,0,0,0,0,0,0,0,0,0,-1,-1,0,0,0,0,10,86,60
8510,0,0,0,0,0,0,0,0,0,0,0,0,0,0,0,0,-1,-1,0,0,0,0,10,86,60
8611,0,0,0,0,0,0,0,0,0,0,0,0,0,0,0,0,-1,-1,0,0,0,0,10,86,60
8712,0,0,0,0,0,0,0,0,0,0,0,0,0,0,0,0,-1,-1,0,0,0,0,10,86,60
8813,0,0,0,0,0,0,0,0,0,0,0,0,0,0,0,0,-1,-1,0,0,0,0,10,86,61
8914,0,0,0,0,0,0,0,0,0,0,0,0,0,0,0,0,-1,-1,0,0,0,0,10,86,61
9015,0,0,0,0,0,0,0,0,0,0,0,0,0,0,0,0,-1,-1,0,0,0,0,10,86,61
9115,0,0,0,0,0,0,0,0,0,0,0,0,0,0,0,0,-1,-1,0,0,0,0,10,86,61
9216,0,0,0,0,0,0,0,0,0,0,0,0,0,0,0,0,-1,-1,0,0,0,0,10,86,61
9317,0,0,0,0,0,0,0,0,0,0,0,0,0,0,0,0,-1,-1,0,0,0,0,10,86,61
9419,0,0,0,0,0,0,0,0,0,0,0,0,0,0,0,0,-1,-1,0,0,0,0,10,86,61
9520,0,0,0,0,0,0,0,0,0,0,0,0,0,0,0,0,-1,-1,0,0,0,0,10,86,61
9621,0,0,0,0,0,0,0,0,0,0,0,0,0,0,0,0,-1,-1,0,0,0,0,10,86,61
9722,0,0,0,0,0,0,0,0,0,0,0,0,0,0,0,0,-1,-1,0,0,0,0,10,86,61
9823,0,0,0,0,0,0,0,0,0,0,0,0,0,0,0,0,-1,-1,0,0,0,0,10,86,61
9923,0,0,0,0,0,0,0,0,0,0,0,0,0,0,0,0,-1,-1,0,0,0,0,10,86,62
10024,0,0,0,0,0,0,0,0,0,0,0,0,0,0,0,0,-1,-1,0,0,0,0,10,86,62
10126,0,0,0,0,0,0,0,0,0,0,0,0,0,0,0,0,-1,-1,0,0,0,0,10,85,62
10227,0,0,0,0,0,0,0,0,0,0,0,0,0,0,0,0,-1,-1,0,0,0,0,10,85,62
10328,0,0,0,0,0,0,0,0,0,0,0,0,0,0,0,0,-1,-1,0,0,0,0,10,85,62
10429,0,0,0,0,0,0,0,0,0,0,0,0,0,0,0,0,-1,-1,0,0,0,0,10,85,62
10530,0,0,0,0,0,0,0,0,0,0,0,0,0,0,0,0,-1,-1,0,0,0,0,10,85,62
10631,0,0,0,0,0,0,0,0,0,0,0,0,0,0,0,0,-1,-1,0,0,0,0,10,85,62
10732,0,0,0,0,0,0,0,0,0,0,0,0,0,0,0,0,-1,-1,0,0,0,0,10,85,62
10833,0,0,0,0,0,0,0,0,0,0,0,0,0,0,0,0,-1,-1,0,0,0,0,10,85,62
10935,0,0,0,0,0,0,0,0,0,0,0,0,0,0,0,0,-1,-1,0,0,0,0,10,85,61
11035,0,0,0,0,0,0,0,0,0,0,0,0,0,0,0,0,-1,-1,0,0,0,0,10,85,61
11136,0,0,0,0,0,0,0,0,0,0,0,0,0,0,0,0,-1,-1,0,0,0,0,10,85,61
11237,0,0,0,0,0,0,0,0,0,0,0,0,0,0,0,0,-1,-1,0,0,0,0,10,85,61
11338,0,0,0,0,0,0,0,0,0,0,0,0,0,0,0,0,-1,-1,0,0,0,0,10,85,61
11440,0,0,0,0,0,0,0,0,0,0,0,0,0,0,0,0,-1,-1,0,0,0,0,10,85,61
11541,0,0,0,0,0,0,0,0,0,0,0,0,0,0,0,0,-1,-1,0,0,0,0,10,85,61
11642,0,0,0,0,0,0,0,0,0,0,0,0,0,0,0,0,-1,-1,0,0,0,0,10,85,61
11743,0,0,0,0,0,0,0,0,0,0,0,0,0,0,0,0,-1,-1,0,0,0,0,10,85,61
11843,0,0,0,0,0,0,0,0,0,0,0,0,0,0,0,0,-1,-1,0,0,0,0,10,85,62
11944,0,0,0,0,0,0,0,0,0,0,0,0,0,0,0,0,-1,-1,0,0,0,0,10,85,62
12045,0,0,0,0,0,0,0,0,0,0,0,0,0,0,0,0,-1,-1,0,0,0,0,10,85,62
12146,0,0,0,0,0,0,0,0,0,0,0,0,0,0,0,0,-1,-1,0,0,0,0,10,85,62
12247,0,0,0,0,0,0,0,0,0,0,0,0,0,0,0,0,-1,-1,0,0,0,0,10,85,62
12348,0,0,0,0,0,0,0,0,0,0,0,0,0,0,0,0,-1,-1,0,0,0,0,10,85,62
12449,0,0,0,0,0,0,0,0,0,0,0,0,0,0,0,0,-1,-1,0,0,0,0,10,85,62
12550,0,0,0,0,0,0,0,0,0,0,0,0,0,0,0,0,-1,-1,0,0,0,0,10,85,62
12651,0,0,0,0,0,0,0,0,0,0,0,0,0,0,0,0,-1,-1,0,0,0,0,10,85,62
12752,0,0,0,0,0,0,0,0,0,0,0,0,0,0,0,0,-1,-1,0,0,0,0,10,85,62
12855,0,0,0,0,0,0,0,0,0,0,0,0,0,0,0,0,-1,-1,0,0,0,0,10,85,62
12956,0,0,0,0,0,0,0,0,0,0,0,0,0,0,0,0,-1,-1,0,0,0,0,10,85,62
13057,0,0,0,0,0,0,0,0,0,0,0,0,0,0,0,0,-1,-1,0,0,0,0,10,85,62
13158,0,0,0,0,0,0,0,0,0,0,0,0,0,0,0,0,-1,-1,0,0,0,0,10,85,62
13259,0,0,0,0,0,0,0,0,0,0,0,0,0,0,0,0,-1,-1,0,0,0,0,10,85,62
13359,0,0,0,0,0,0,0,0,0,0,0,0,0,0,0,0,-1,-1,0,0,0,0,10,85,62
13460,0,0,0,0,0,0,0,0,0,0,0,0,0,0,0,0,-1,-1,0,0,0,0,10,85,62
13560,0,1,0,0,0,0,0,0,0,0,0,0,0,0,0,0,-1,-1,0,0,0,0,10,85,62
13661,0,1,0,0,0,0,0,0,0,0,0,0,0,0,0,0,-1,-1,0,0,0,0,10,85,62
13762,0,1,0,0,0,0,0,0,0,0,0,0,0,0,0,0,-1,-1,0,0,0,0,10,85,62
13862,0,1,0,0,0,0,0,0,0,0,0,0,0,0,0,0,-1,-1,0,0,0,0,10,85,63
13963,0,1,0,0,0,0,0,0,0,0,0,0,0,0,0,0,-1,-1,0,0,0,0,10,85,63
14064,0,1,0,0,0,0,0,0,0,0,0,0,0,0,0,0,-1,-1,0,0,0,0,10,85,63
14164,0,1,0,0,0,0,0,0,0,0,0,0,0,0,0,0,-1,-1,0,0,0,0,10,85,63
14265,0,1,0,0,0,0,0,0,0,0,0,0,0,0,0,0,-1,-1,0,0,0,0,10,85,63
14366,0,1,0,0,0,0,0,0,0,0,0,0,0,0,0,0,-1,-1,0,0,0,0,10,85,63
14466,0,1,0,0,0,0,0,0,0,0,0,0,0,0,0,0,-1,-1,0,0,0,0,10,85,63
14567,0,1,0,0,0,0,0,0,0,0,0,0,0,0,0,0,-1,-1,0,0,0,0,10,85,63
14668,0,1,0,0,0,0,0,0,0,0,0,0,0,0,0,0,-1,-1,0,0,0,0,10,85,63
14769,0,1,0,0,0,0,0,0,0,0,0,0,0,0,0,0,-1,-1,0,0,0,0,10,85,63
14869,0,1,0,0,0,0,0,0,0,0,0,0,0,0,0,0,-1,-1,0,0,0,0,10,85,63
14970,0,1,0,0,0,0,0,0,0,0,0,0,0,0,0,0,-1,-1,0,0,0,0,10,85,62
15071,0,1,0,0,0,0,0,0,0,0,0,0,0,0,0,0,-1,-1,0,0,0,0,10,85,62
15172,0,1,0,0,0,0,0,0,0,0,0,0,0,0,0,0,-1,-1,0,0,0,0,10,85,62
15274,0,1,0,0,0,0,0,0,0,0,0,0,0,0,0,0,-1,-1,0,0,0,0,10,85,62
15375,0,1,0,0,0,0,0,0,0,0,0,0,0,0,0,0,0,0,1,0,0,0,10,85,62
15476,0,1,0,0,0,0,0,0,0,0,0,0,0,0,0,0,0,0,1,0,0,-1,23,85,62
15576,0,1,0,0,0,0,0,0,0,0,0,0,0,0,0,0,0,0,1,0,0,-4,23,85,62
15677,0,1,0,0,0,0,0,0,0,0,0,0,0,0,0,0,0,0,1,0,0,-6,23,85,62
15778,0,1,0,0,0,0,0,0,0,0,0,0,0,0,0,0,0,-1,1,0,0,-7,23,85,62
15879,0,1,2,63,528,20,22,5,351,29,-54,345,0,0,0,0,0,-1,1,0,0,-7,23,85,62
15980,0,1,0,63,528,20,0,5,351,29,-54,345,0,0,0,0,0,0,1,0,0,-6,31,85,63
16081,0,1,0,63,528,20,0,5,351,29,-54,345,0,0,0,0,0,0,1,0,0,-6,37,85,63
16181,0,1,0,63,528,20,0,5,351,29,-54,345,0,0,0,0,0,0,1,0,0,-6,37,85,63
16282,0,1,1,61,532,34,31,4,246,15,-34,242,0,0,0,35,0,0,1,0,0,-5,43,85,63
16383,0,1,0,61,532,34,0,4,246,15,-34,242,0,0,0,0,0,0,1,0,0,-3,51,85,63
16486,0,1,0,61,532,34,0,4,246,15,-34,242,0,0,0,0,0,0,1,0,0,-2,55,85,63
16589,0,1,1,64,532,47,33,4,234,14,-29,231,0,0,0,0,0,0,1,0,0,-2,58,85,63
16689,0,1,1,71,530,41,32,4,238,14,-31,235,0,0,0,0,0,0,1,0,0,-2,60,85,63
16790,0,1,1,75,540,34,30,4,257,18,-36,253,0,0,0,0,0,0,1,0,0,-1,62,85,63
16891,0,1,1,74,550,37,32,5,237,20,-32,234,0,0,0,0,0,0,1,0,0,-1,65,85,63
16992,0,1,1,74,550,37,32,5,237,20,-32,234,0,0,0,0,0,0,1,0,0,-1,67,85,63
17093,0,1,1,70,553,43,34,5,226,19,-29,223,0,0,0,0,0,0,1,0,0,-1,69,85,63
17193,0,1,1,70,564,39,37,6,206,20,-27,202,0,0,0,0,0,0,1,0,0,-1,71,85,63
17294,0,1,1,70,563,45,37,6,206,20,-26,203,0,0,0,0,0,0,1,0,0,-1,74,85,63
17395,0,1,1,69,569,32,40,6,193,20,-27,190,0,0,0,0,0,0,1,0,0,-1,75,85,63
17495,0,1,1,69,567,28,40,6,193,20,-28,190,0,0,0,0,0,-1,1,0,0,-1,78,85,63
17596,0,1,1,68,567,25,40,6,190,19,-28,187,0,0,0,0,0,-1,1,0,0,-1,80,85,63
17696,0,1,1,70,567,27,39,6,197,20,-28,193,0,0,0,0,0,0,1,0,0,-1,82,85,63
17797,0,1,1,70,567,24,40,6,190,19,-28,187,0,0,0,0,0,0,1,0,0,-1,85,85,63
17898,0,1,1,68,566,28,41,6,187,19,-27,184,0,0,0,0,0,0,1,0,0,-2,87,85,64
17998,0,1,1,69,567,37,40,6,193,20,-26,190,0,0,0,0,0,0,1,0,0,-2,90,85,64
18098,0,1,1,68,559,33,40,6,193,18,-27,190,0,0,0,0,0,0,1,0,0,-2,92,85,64
18199,0,1,1,70,562,40,40,6,190,18,-25,187,0,0,0,0,0,0,1,0,0,-2,95,85,64
18300,0,1,1,70,562,40,40,6,190,18,-25,187,0,0,0,0,0,0,1,0,0,-2,97,85,64
18401,0,1,1,70,562,40,40,6,190,18,-25,187,0,0,0,0,0,0,1,0,0,-2,97,85,64
18502,0,1,1,64,561,36,37,6,206,20,-28,202,0,0,0,0,0,0,1,0,0,-2,102,85,64
18603,0,1,0,64,561,36,0,6,206,20,-28,202,0,0,0,0,0,0,1,0,0,-2,102,85,64
18703,0,1,1,61,558,47,38,5,203,19,-25,200,0,0,0,0,0,0,1,0,0,-2,107,85,64
18804,0,1,1,61,558,47,38,5,203,19,-25,200,0,0,0,0,0,0,1,0,0,-2,107,85,64
18905,0,1,1,70,550,25,36,5,213,17,-31,209,0,0,0,0,0,0,1,0,0,-2,112,85,63
19007,0,1,1,70,550,25,36,5,213,17,-31,209,0,0,0,0,0,0,1,0,0,-2,112,85,63
19108,0,1,1,67,553,19,35,5,219,19,-34,215,0,0,0,0,0,0,1,0,0,-2,117,85,63
19208,0,1,1,67,553,19,35,5,219,19,-34,215,0,0,0,0,0,0,1,0,0,-2,117,85,63
19309,0,1,0,67,553,19,0,5,219,19,-34,215,0,0,0,0,0,0,1,0,0,-2,121,85,63
19410,0,1,0,67,553,19,0,5,219,19,-34,215,0,0,0,0,0,0,1,0,0,-2,124,85,63
19510,0,1,0,67,553,19,0,5,219,19,-34,215,0,0,0,0,0,0,1,0,0,-2,127,85,63
19612,0,1,0,67,553,19,0,5,219,19,-34,215,0,0,0,0,0,0,1,0,0,-2,128,85,63
19713,0,1,0,67,553,19,0,5,219,19,-34,215,0,0,0,0,0,0,1,0,0,-2,131,85,63
19814,0,1,1,66,547,67,35,5,216,17,-22,214,0,0,0,0,0,0,1,0,0,-2,133,85,63
19915,0,1,1,72,538,42,33,4,234,16,-30,231,0,0,0,0,0,0,1,0,0,-2,135,85,63
20015,0,1,1,75,538,44,32,4,237,16,-30,234,0,0,0,0,0,0,1,0,0,-2,138,84,63
20116,0,1,1,75,538,44,32,4,237,16,-30,234,0,0,0,0,0,0,1,0,0,-2,140,84,63
20217,0,1,1,75,538,44,32,4,237,16,-30,234,0,0,0,0,0,0,1,0,0,-2,142,84,63
20317,0,1,1,79,535,88,32,4,241,16,-20,239,0,0,0,0,0,0,1,0,0,-2,144,84,63
20418,0,1,1,77,537,100,32,4,237,16,-16,236,0,0,0,0,0,0,1,0,0,-2,147,84,63
20519,0,1,1,77,538,98,32,4,241,17,-17,239,0,0,0,0,0,0,1,0,0,-2,150,84,63
20620,0,1,1,79,535,111,33,4,234,15,-14,232,0,0,0,0,0,0,1,0,0,-2,151,84,63
20720,0,1,1,79,535,104,32,4,237,15,-15,236,0,0,0,0,0,0,1,0,0,-2,154,84,63
20821,0,1,1,81,537,112,32,4,241,16,-14,240,0,0,0,0,0,0,1,0,0,-2,156,84,63
20926,0,1,1,82,532,110,31,4,249,15,-15,248,0,0,0,0,0,0,1,0,0,-2,157,84,63
21027,0,1,1,82,532,110,31,4,249,15,-15,248,0,0,0,0,0,0,1,0,0,-2,159,84,63
21135,0,1,1,82,532,110,31,4,249,15,-15,248,0,0,0,0,0,0,1,0,0,-2,162,84,63
21235,0,1,1,82,531,117,32,4,241,14,-12,240,0,0,0,0,0,0,1,0,0,-2,165,84,63
21336,0,1,0,82,531,117,0,4,241,14,-12,240,0,0,0,0,0,0,1,0,0,-2,165,84,63
21437,0,1,1,82,529,133,31,3,245,14,-9,244,0,0,0,0,0,0,1,0,0,-2,168,84,63
21537,0,1,1,83,528,164,32,3,241,14,-1,240,0,0,0,0,0,0,1,0,0,-2,171,84,63
21638,0,1,1,83,528,164,32,3,241,14,-1,240,0,0,0,0,-1,0,1,0,0,-1,172,84,63
21739,0,1,0,83,529,169,0,3,237,14,4,237,0,0,0,0,-1,0,1,0,0,-1,172,84,63
21840,0,1,0,83,529,169,0,3,237,14,4,237,0,0,0,0,-1,0,1,0,0,0,173,84,63
21940,0,1,0,83,529,169,0,3,237,14,4,237,0,0,0,0,0,0,1,0,0,0,174,84,63
22041,0,1,0,83,529,169,0,3,237,14,4,237,0,0,0,0,0,0,1,0,0,0,174,83,63
22141,0,1,0,83,529,169,0,3,237,14,4,237,0,0,0,0,0,0,1,0,0,0,174,83,63
22242,0,1,0,83,529,169,0,3,237,14,4,237,0,0,0,0,0,0,1,0,0,0,175,83,63
22343,0,1,0,83,529,169,0,3,237,14,4,237,0,0,0,0,0,0,1,0,0,0,175,83,63
22443,0,1,0,83,529,169,0,3,237,14,4,237,0,0,0,0,0,0,1,0,0,0,175,83,63
22544,0,1,0,83,529,169,0,3,237,14,4,237,0,0,0,0,0,0,1,0,0,0,174,83,63
22644,0,1,0,83,529,169,0,3,237,14,4,237,0,0,0,0,-1,-1,1,0,0,0,174,83,63
22745,0,1,0,83,529,169,0,3,237,14,4,237,0,0,0,0,-1,0,1,0,0,0,173,83,63
22846,0,1,1,83,526,218,31,3,245,13,17,244,0,0,0,0,-1,-1,1,0,0,0,176,83,63
22946,0,1,1,83,525,241,31,3,249,13,23,248,0,0,0,0,0,-1,1,0,0,0,174,83,64
23047,0,1,1,83,523,218,31,3,245,12,12,244,0,0,0,0,0,-1,1,0,0,0,176,83,64
23148,1,1,1,83,523,220,32,3,241,12,13,240,0,0,0,0,0,0,1,0,0,0,176,83,64
23249,1,1,1,83,523,223,31,3,245,12,14,244,8,0,0,0,0,0,1,0,0,0,176,83,64
23350,1,1,1,83,522,218,31,3,249,12,12,248,8,0,0,0,0,0,1,0,0,0,176,83,64
23456,1,1,1,83,520,214,31,3,249,12,11,248,8,0,0,0,0,0,1,0,0,0,176,83,64
23557,1,1,1,83,522,214,31,3,249,12,11,248,8,0,0,0,0,0,1,0,0,0,177,83,64
23658,1,1,1,83,523,218,31,3,245,12,12,244,8,0,0,0,0,0,2,0,0,0,176,83,64
23764,1,1,1,83,523,218,31,3,245,12,12,244,8,0,0,0,0,-1,2,0,0,0,178,83,64
23865,1,1,1,83,520,229,31,3,249,12,15,248,8,0,0,0,0,0,2,0,0,0,178,83,64
23966,1,1,1,83,518,233,31,3,249,11,21,248,8,0,0,0,-1,-1,3,0,0,0,177,83,64
24066,1,1,1,83,515,233,30,2,253,10,21,252,8,0,0,0,-1,-1,3,0,0,0,179,82,64
24168,1,1,1,83,515,232,30,2,257,10,21,256,8,0,0,0,-1,0,3,0,0,0,178,82,64
24269,1,1,1,83,515,232,30,2,257,10,21,256,8,0,0,0,-1,-1,3,0,0,0,178,82,64
24369,1,1,1,83,506,247,30,2,257,8,25,256,7,0,0,0,0,-1,4,0,0,0,177,82,64
24470,1,1,1,83,497,239,30,1,257,5,19,256,6,0,0,0,0,-1,4,0,0,0,177,82,64
24571,1,1,1,82,493,246,30,1,257,4,20,256,6,0,0,0,0,-1,4,0,0,0,179,82,64
24672,1,1,1,82,493,246,30,1,257,4,20,256,6,0,0,0,0,-1,5,0,0,0,178,82,64
24773,1,1,1,75,487,244,31,0,249,2,19,248,6,0,0,0,0,-1,5,0,0,0,179,82,64
24874,1,1,1,77,484,244,31,0,249,1,19,248,6,0,0,0,0,-1,5,0,0,0,178,82,64
24975,1,1,1,74,470,239,30,-1,251,-3,18,250,-5,0,0,0,0,-1,5,0,0,0,177,82,63
25075,1,1,1,75,468,249,31,-1,247,-3,20,245,-5,0,0,0,0,0,5,0,0,0,176,82,63
25176,1,1,1,74,474,248,31,-0,249,-1,20,248,-4,0,0,0,-1,-1,6,0,0,0,178,82,63
25277,1,1,1,76,461,244,30,-1,251,-5,24,249,-6,0,0,0,-1,-1,5,0,0,0,177,82,63
25378,1,1,1,76,473,245,31,-0,245,-2,23,244,-4,0,0,0,-1,-1,5,0,0,0,177,82,63
25479,1,1,1,82,463,239,30,-1,257,-5,23,256,-5,0,0,0,0,-1,5,0,0,0,176,82,63
25581,1,1,1,82,463,239,30,-1,257,-5,23,256,-5,0,0,0,0,-1,5,0,0,0,177,82,63
25681,1,1,1,81,460,232,30,-1,253,-6,16,252,-5,0,0,0,0,-1,5,0,0,0,176,82,63
25783,1,1,1,79,459,226,32,-1,241,-6,14,240,-5,0,0,0,0,0,5,0,0,0,176,82,63
25884,1,1,1,81,459,224,30,-1,253,-6,14,252,-5,0,0,0,0,0,5,0,0,0,176,82,63
25984,1,1,1,83,457,216,30,-2,257,-7,12,256,-6,0,0,0,0,0,5,0,0,0,176,82,64
26085,1,1,1,82,454,213,31,-2,249,-7,11,248,-6,0,0,0,0,-1,5,0,0,0,176,81,64
26186,1,1,1,82,454,218,31,-2,249,-7,12,248,-6,0,0,0,0,0,5,0,0,0,176,81,64
26287,1,1,1,82,451,214,31,-2,245,-8,11,244,-6,0,0,0,0,-1,4,0,0,0,176,81,64
26388,1,1,1,82,451,213,31,-2,249,-8,11,248,-6,0,0,0,0,-1,4,0,0,0,176,81,64
26489,1,1,1,83,442,218,31,-3,249,-11,12,248,-7,0,0,0,0,-1,4,0,0,0,176,81,64
26589,1,1,1,83,438,218,31,-3,245,-12,12,244,-8,0,0,0,0,-1,4,0,0,0,176,81,64
26691,1,1,1,82,433,215,32,-3,241,-13,11,240,-8,0,0,0,0,-1,4,0,0,0,175,81,64
26791,1,1,1,82,430,213,32,-4,238,-14,11,236,-9,0,0,0,0,-1,3,0,0,0,177,81,64
26892,1,1,1,83,416,212,32,-4,241,-18,11,240,-10,0,0,0,0,-1,3,0,0,0,176,81,64
26994,1,1,1,83,410,215,32,-5,241,-20,11,240,-11,0,0,0,0,-1,3,0,0,0,177,81,64
27095,1,1,1,79,401,218,31,-6,245,-23,17,243,-12,0,0,0,-1,-1,2,0,0,0,176,81,64
27196,1,1,1,79,397,218,31,-6,249,-25,17,247,-12,0,0,0,-1,-1,2,0,0,0,176,81,64
27297,1,1,1,76,395,225,31,-6,245,-25,18,243,-13,0,0,0,-1,-1,2,0,0,0,176,81,64
27398,1,1,1,79,400,223,29,-6,261,-25,19,259,-12,0,0,0,-1,-1,1,0,0,0,177,81,64
27498,1,1,1,81,400,224,30,-6,253,-24,19,251,-12,0,0,0,-1,-1,0,0,0,0,177,81,64
27599,1,1,1,82,412,234,32,-5,241,-19,20,239,-11,0,0,0,-1,-1,0,0,0,0,175,81,64
27700,1,1,1,83,415,214,31,-5,245,-19,11,244,-11,0,0,0,0,-1,0,0,0,0,175,81,64
27801,1,1,1,83,424,211,31,-4,245,-16,10,244,-10,0,0,0,0,0,0,0,0,0,176,81,64
27902,1,1,1,83,441,216,33,-3,234,-11,11,233,-9,0,0,0,0,0,-1,0,0,0,175,81,64
28003,1,1,1,83,441,216,33,-3,234,-11,11,233,-9,0,0,0,0,0,-1,0,0,0,176,81,65
28104,1,1,1,82,453,217,34,-2,226,-7,11,226,-8,0,0,0,0,0,-1,0,0,0,174,80,65
28204,1,1,1,81,432,208,31,-3,247,-14,10,246,-11,0,0,0,0,0,-2,0,0,0,175,80,65
28305,1,1,1,81,439,209,31,-3,247,-12,10,246,-10,0,0,0,0,0,-2,0,0,0,174,80,65
28406,1,1,1,81,439,209,31,-3,243,-12,10,242,-11,0,0,0,0,0,-2,0,0,0,174,80,65
28507,1,1,1,79,457,216,36,-2,213,-5,10,212,-8,0,0,0,0,0,-3,0,0,0,174,80,65
28608,1,1,1,79,428,204,35,-4,217,-13,11,216,-13,0,0,0,-1,0,-3,0,0,0,175,80,65
28709,1,1,1,76,438,214,37,-3,209,-10,13,208,-11,0,0,0,-1,-1,-3,0,0,0,175,80,65
28810,1,1,1,75,413,219,38,-5,200,-16,14,198,-15,0,0,0,-1,-1,-4,0,0,0,174,80,65
28911,1,1,1,75,406,224,37,-5,209,-18,12,208,-15,0,0,0,0,0,-4,0,0,0,174,80,65
29012,1,1,1,74,403,223,38,-5,203,-19,11,201,-15,0,0,0,0,-1,-5,0,0,0,175,80,65
29113,1,1,1,71,397,224,38,-6,200,-20,11,198,-16,0,0,0,0,-1,-5,0,0,0,174,80,65
29215,1,1,1,62,381,228,41,-7,184,-22,11,182,-18,0,0,0,0,-1,-6,0,0,0,174,80,65
29316,1,1,1,63,373,231,41,-7,184,-23,12,182,-19,0,0,0,0,-1,-7,0,0,0,175,80,65
29417,1,1,1,62,375,239,41,-7,184,-23,16,182,-18,0,0,0,-1,-1,-7,0,0,0,174,80,65
29518,1,1,1,62,375,239,41,-7,184,-23,13,182,-19,0,0,0,0,-1,-8,0,0,0,174,80,65
29619,1,1,0,62,375,239,0,-7,184,-23,13,182,-45,0,0,0,0,0,-9,0,0,0,174,80,65
29720,1,1,0,62,375,239,0,-7,184,-23,13,182,-45,0,0,0,0,0,-10,0,0,0,174,80,65
29822,1,1,0,62,375,239,0,-7,184,-23,13,182,-45,0,0,0,0,0,-11,0,0,0,175,80,65
29923,1,1,1,63,346,243,50,-9,152,-24,11,149,-15,0,0,0,-1,0,-13,0,0,0,174,80,65
30024,1,1,1,61,349,226,50,-9,152,-24,11,149,-15,0,0,0,-1,0,-16,0,0,0,175,79,65
30125,1,1,1,61,349,226,50,-9,152,-24,11,149,-15,0,0,0,-1,0,-19,0,0,0,175,79,65
30227,1,1,1,69,328,248,48,-11,159,-29,16,155,-18,0,0,0,-1,-1,-20,0,0,0,175,79,65
30328,1,1,1,68,325,250,50,-11,154,-28,13,150,-19,0,0,0,0,0,-21,0,0,0,176,79,65
30429,1,1,1,68,325,250,50,-11,154,-28,13,150,-19,0,0,0,0,0,-22,0,0,0,174,79,65
30529,1,1,0,68,325,250,0,-11,154,-28,13,150,-45,0,0,0,0,0,-23,0,0,0,176,79,65
30630,1,1,0,68,325,250,0,-11,154,-28,13,150,-45,0,0,0,0,-1,-24,0,0,0,175,79,65
30732,1,1,0,68,325,250,0,-11,154,-28,13,150,-45,0,0,0,0,0,-25,0,0,0,174,79,65
30833,1,1,0,68,325,250,0,-11,154,-28,13,150,-45,0,0,0,0,0,-27,0,0,0,175,79,65
30934,1,1,1,64,363,253,55,-8,138,-19,12,136,-13,0,0,0,0,-1,-30,0,0,0,174,79,65
31035,1,1,1,70,346,248,54,-9,140,-22,11,137,-16,0,0,0,0,-1,-33,0,0,0,174,79,65
31136,1,1,1,70,346,248,54,-9,140,-22,11,137,-16,0,0,0,-1,0,-36,0,0,0,172,79,65
31236,1,1,1,69,341,245,59,-10,130,-21,14,127,-17,0,0,0,-2,0,-38,0,0,0,172,79,65
31337,1,1,1,64,349,240,59,-9,130,-20,14,127,-16,0,0,0,-2,0,-38,0,0,0,171,79,65
31438,1,1,1,64,349,240,59,-9,130,-20,14,127,-16,0,0,0,-1,0,-39,0,0,0,169,79,65
31539,1,1,1,64,444,239,58,-3,132,-5,12,131,-8,0,0,0,-1,0,-40,0,0,0,169,79,65
31640,1,1,1,64,444,239,58,-3,132,-5,12,131,-8,0,0,0,0,0,-41,0,-1,0,168,79,65
31741,1,1,1,66,452,249,59,-2,130,-4,10,129,-7,0,0,0,0,0,-42,0,-1,0,169,79,65
31842,1,1,1,67,466,200,66,-1,116,-1,3,115,-6,0,0,0,0,0,-42,0,0,0,167,79,65
31943,1,1,1,67,466,200,66,-1,116,-1,3,115,-6,0,0,0,0,0,-42,0,0,0,168,79,65
32044,1,1,1,69,466,185,66,-1,116,-1,2,115,-7,0,0,0,-1,-1,-43,0,0,0,167,78,65
32145,1,1,1,71,445,190,66,-2,116,-4,4,115,-10,0,0,0,0,0,-43,0,0,0,168,78,65
32246,1,1,1,68,435,192,68,-3,112,-6,2,111,-11,0,0,0,0,0,-43,0,0,0,169,78,65
32346,1,1,1,72,390,182,68,-6,112,-12,1,111,-17,0,0,0,-1,0,-44,0,0,0,171,78,65
32447,1,1,1,63,345,199,82,-9,93,-15,6,91,-21,0,0,0,-2,-1,-44,0,0,0,172,78,65
32548,1,1,1,64,353,191,74,-9,103,-15,7,101,-19,0,0,0,-3,-2,-44,0,0,0,172,78,65
32650,1,1,1,69,345,197,70,-9,109,-17,7,107,-21,0,0,0,-2,-1,-45,0,0,0,174,78,65
32755,1,1,1,72,336,202,68,-10,113,-19,5,111,-22,0,0,0,-1,-1,-46,0,0,0,173,78,65
32856,1,1,1,73,344,203,66,-10,116,-19,4,114,-21,0,0,0,0,0,-47,0,-1,0,174,78,65
32957,1,1,1,73,344,203,66,-10,116,-19,4,114,-21,0,0,0,0,0,-48,0,-1,0,173,78,65
33058,1,1,1,67,357,202,65,-9,118,-17,4,116,-20,0,0,0,0,0,-49,0,-1,0,173,78,66
33161,1,1,1,64,371,236,66,-8,116,-15,8,115,-18,0,0,0,0,0,-50,0,-1,0,173,78,66
33262,1,1,1,62,390,200,66,-6,116,-12,3,114,-17,0,0,0,0,0,-51,0,0,0,171,78,66
33363,1,1,1,63,397,188,64,-6,119,-12,2,118,-17,0,0,0,0,0,-52,0,0,0,170,78,66
33464,1,1,1,68,431,217,63,-3,122,-7,8,121,-13,0,0,0,-1,0,-53,0,0,0,170,78,66
33565,1,1,1,69,451,219,67,-2,115,-4,8,114,-12,0,0,0,-1,0,-54,0,0,0,170,78,66
33666,1,1,1,71,464,230,67,-1,115,-2,9,114,-11,0,0,0,-1,0,-55,0,0,0,169,78,66
33767,1,1,1,73,481,201,68,0,113,0,3,112,0,0,0,0,0,0,-55,0,0,0,170,78,66
33869,1,1,1,74,477,190,66,-0,116,0,2,115,-11,0,0,0,0,0,-56,0,0,0,169,78,66
33971,1,1,1,74,477,190,66,-0,116,0,2,115,-11,0,0,0,0,0,-56,0,0,0,170,78,66
34072,1,1,1,74,477,190,66,-0,116,0,2,115,-11,0,0,0,0,0,-57,0,0,0,171,77,66
34173,1,1,1,73,515,186,66,2,116,4,2,115,2,0,0,0,0,0,-57,0,0,0,171,77,66
34274,1,1,1,73,524,194,66,3,116,6,3,116,2,0,0,0,0,0,-57,0,0,0,171,77,66
34375,1,1,1,72,529,197,67,3,114,6,5,113,2,0,0,0,-1,0,-58,0,0,0,173,77,66
34476,1,1,1,72,538,193,65,4,118,8,5,117,3,0,0,0,-1,0,-58,0,0,0,175,77,66
34578,1,1,1,72,539,191,66,4,116,8,2,115,3,0,0,0,0,0,-58,0,0,0,174,77,66
34679,1,1,1,67,553,202,67,5,114,10,4,113,5,0,0,0,0,0,-58,0,0,0,175,77,66
34780,1,1,1,69,554,226,66,5,116,10,7,115,5,0,0,0,0,0,-58,0,0,0,178,77,66
34881,1,1,1,67,550,220,67,5,115,9,6,114,4,0,0,0,0,0,-58,0,0,0,177,77,66
34982,1,1,1,67,550,220,67,5,115,9,6,114,4,0,0,0,0,0,-58,0,0,0,176,77,66
35083,1,1,1,72,558,237,66,5,116,11,8,115,5,0,0,0,0,0,-58,0,0,0,178,77,66
35185,1,1,1,72,558,237,66,5,116,11,8,115,5,0,0,0,0,0,-58,0,0,0,178,77,66
35285,1,1,1,72,558,237,66,5,116,11,8,115,5,0,0,0,0,0,-58,0,0,0,177,77,66
35387,1,1,1,70,554,246,67,5,115,10,9,113,6,0,0,0,0,0,-58,0,0,0,177,77,66
35487,1,1,1,70,554,246,67,5,115,10,9,113,6,0,0,0,0,0,-58,0,0,0,176,77,66
35588,1,1,1,73,550,249,67,5,115,9,9,113,5,0,0,0,0,0,-58,0,0,0,177,77,66
35690,1,1,1,72,554,250,68,5,113,10,9,111,6,0,0,0,0,0,-58,0,0,0,176,77,66
35791,1,1,1,72,558,246,67,5,115,10,9,113,6,0,0,0,0,0,-58,0,0,0,176,77,66
35892,1,1,1,73,558,247,65,5,118,11,11,117,7,0,0,0,-1,0,-58,0,0,0,176,77,66
35993,1,1,1,72,550,248,69,5,111,9,11,110,6,0,0,0,-1,-1,-58,0,0,0,176,77,66
36094,1,1,1,73,550,249,67,5,115,9,11,113,6,0,0,0,-1,0,-58,0,0,0,175,76,65
36195,1,1,1,72,545,242,67,5,115,9,8,113,6,0,0,0,0,0,-57,0,0,0,176,76,65
36298,1,1,1,72,533,243,69,4,111,7,8,110,5,0,0,0,0,0,-57,0,0,0,176,76,65
36400,1,1,1,73,533,247,69,4,111,7,9,110,5,0,0,0,0,0,-57,0,0,0,176,76,65
36500,1,1,1,73,533,247,69,4,111,7,9,110,5,0,0,0,0,0,-57,0,0,0,176,76,65
36601,1,1,1,67,563,240,66,6,116,11,8,115,9,0,0,0,0,0,-57,0,0,0,176,76,65
36702,1,1,1,67,563,240,66,6,116,11,8,115,9,0,0,0,0,0,-57,0,0,0,175,76,65
36803,1,1,1,75,615,265,66,9,116,18,11,113,16,0,0,0,0,0,-57,0,0,0,176,76,65
36904,1,1,1,75,615,265,66,9,116,18,11,113,16,0,0,0,0,0,-56,0,0,0,177,76,65
37005,1,1,1,75,699,242,66,15,115,30,8,110,24,0,0,0,0,0,-55,0,0,0,174,76,66
37106,1,1,1,75,699,242,66,15,115,30,8,110,24,0,0,0,0,0,-55,0,0,0,176,76,66
37207,1,1,1,73,747,250,63,19,121,38,10,114,27,0,0,0,0,0,-53,0,0,0,175,76,66
37308,1,1,1,73,747,250,63,19,121,38,10,114,27,0,0,0,0,0,-52,0,0,0,176,76,66
37409,1,1,1,71,779,250,54,21,142,50,12,131,31,0,0,0,0,0,-52,0,0,0,176,76,66
37510,1,1,1,71,779,250,54,21,142,50,12,131,31,0,0,0,0,0,-51,0,0,0,176,76,66
37611,1,1,1,71,779,250,54,21,142,50,12,131,31,0,0,0,0,0,-49,0,0,0,175,76,66
37712,1,1,1,71,771,236,55,20,140,48,9,130,30,0,0,0,0,0,-48,0,0,0,176,76,66
37813,1,1,1,72,764,250,55,20,138,46,14,129,30,0,0,0,-1,0,-46,0,0,0,175,76,66
37914,1,1,1,72,764,250,55,20,138,46,14,129,31,0,0,0,0,0,-44,0,0,0,176,76,66
38015,1,1,1,74,747,275,61,19,125,39,13,117,30,0,0,0,0,0,-42,0,0,0,176,76,66
38115,1,1,1,71,742,235,59,18,130,40,9,123,30,0,0,0,0,0,-40,0,0,0,176,75,66
38216,1,1,1,73,714,251,60,16,128,35,11,121,28,0,0,0,0,0,-39,0,0,0,177,75,66
38318,1,1,1,73,685,244,66,14,116,28,9,111,26,0,0,0,0,0,-37,0,0,0,177,75,66
38419,1,1,1,73,685,244,66,14,116,28,9,111,26,0,0,0,0,0,-35,0,0,0,177,75,66
38520,1,1,1,74,631,265,63,11,122,22,12,118,22,0,0,0,0,0,-33,0,0,0,175,75,66
38621,1,1,1,70,613,291,67,9,115,18,14,112,21,0,0,0,0,0,-32,0,0,0,177,75,66
38722,1,1,1,71,600,302,69,8,111,16,15,108,21,0,0,0,0,0,-30,0,0,0,177,75,66
38822,1,1,1,63,582,311,80,7,95,11,14,92,20,0,0,0,0,0,-29,0,0,0,177,75,66
38923,1,1,0,63,582,311,0,7,95,11,14,92,45,0,0,0,0,0,-28,0,0,0,176,75,66
39024,1,1,0,63,582,311,0,7,95,11,14,92,45,0,0,0,0,0,-27,0,0,0,176,75,66
39125,1,1,1,70,595,290,71,8,108,14,13,105,11,0,0,0,0,0,-26,0,0,0,177,75,67
39227,1,1,1,70,595,290,71,8,108,14,13,105,11,0,0,0,0,0,-23,0,0,0,176,75,67
39328,1,1,0,70,595,290,0,8,108,14,13,105,11,0,0,0,0,0,-20,0,0,0,176,75,67
39428,1,1,1,73,625,238,68,10,113,19,8,110,15,0,0,0,0,0,-20,0,0,0,176,75,67
39529,1,1,1,73,625,238,68,10,113,19,8,110,15,0,0,0,0,0,-18,0,0,0,176,75,67
39631,1,1,1,70,647,240,70,12,109,22,8,106,18,0,0,0,0,0,-18,0,0,0,176,75,67
39732,1,1,1,68,613,252,70,9,109,17,9,107,14,0,0,0,0,0,-18,0,0,0,176,75,67
39832,1,1,0,68,613,252,0,9,109,17,9,107,45,0,0,0,0,0,-17,0,0,0,176,75,67
39934,1,1,1,68,617,254,67,10,114,18,10,112,14,0,0,0,0,0,-15,0,0,0,176,75,67
40036,1,1,1,68,617,254,67,10,114,18,10,112,14,0,0,0,0,0,-15,0,0,0,176,75,67
40141,1,1,1,68,617,254,67,10,114,18,10,112,14,0,0,0,0,0,-12,0,0,0,177,74,66
40242,1,1,1,71,684,259,69,14,110,27,10,106,21,0,0,0,0,0,-11,0,0,0,175,74,66
40343,1,1,1,64,686,260,77,14,99,24,9,95,21,0,0,0,0,0,-11,0,0,0,176,74,66
40444,1,1,0,64,686,260,0,14,99,24,9,95,45,0,0,0,0,0,-10,0,0,0,175,74,66
40546,1,1,0,64,686,260,0,14,99,24,9,95,45,0,0,0,0,0,-9,0,0,0,175,74,66
40647,1,1,1,68,736,240,63,18,121,37,9,115,25,0,0,0,0,0,-6,0,0,0,174,74,66
40749,1,1,1,64,743,225,62,18,123,38,7,116,26,0,0,0,0,0,-3,0,0,0,175,74,66
40852,1,1,1,69,753,231,59,19,129,42,8,121,28,0,0,0,0,0,-1,0,0,0,175,74,66
40954,1,1,1,69,753,231,59,19,129,42,8,121,28,0,0,0,0,0,0,0,0,0,175,74,66
41055,1,1,1,69,759,223,57,20,133,44,7,125,29,0,0,0,0,0,1,0,0,0,175,74,67
41156,1,1,1,68,765,210,56,20,137,46,5,128,30,0,0,0,0,-1,2,0,0,0,175,74,67
41257,1,1,1,67,764,224,56,20,136,46,7,127,31,0,0,0,0,-1,4,0,0,0,176,74,67
41358,1,1,1,61,776,244,53,21,144,50,11,134,33,0,0,0,0,-1,6,0,0,0,175,74,67
41459,1,1,0,61,776,244,0,21,144,50,11,134,45,0,0,0,0,-1,7,0,0,0,176,74,67
41560,1,1,0,61,776,244,0,21,144,50,11,134,45,0,0,0,0,0,9,0,0,0,175,74,67
41661,1,1,1,63,776,240,53,21,144,50,10,134,27,0,0,0,0,0,12,0,0,0,174,74,67
41761,1,1,1,64,778,221,54,21,142,50,7,132,28,0,0,0,0,0,12,0,0,0,174,74,67
41862,1,1,1,64,764,228,56,20,136,45,8,127,27,0,0,0,0,0,15,0,0,0,175,74,67
41963,1,1,1,69,757,221,58,19,131,43,7,123,28,0,0,0,0,0,19,0,0,0,175,74,67
42064,1,1,1,70,753,222,59,19,129,42,7,121,28,0,0,0,0,0,20,0,0,0,175,73,66
42165,1,1,1,71,737,233,67,18,115,35,7,108,27,0,0,0,0,0,20,0,0,0,175,73,66
42266,1,1,1,74,694,244,70,15,109,28,8,105,23,0,0,0,0,0,21,0,0,0,177,73,66
42368,1,1,1,73,656,254,69,12,111,23,9,108,21,0,0,0,0,0,24,0,0,0,177,73,66
42470,1,1,1,73,625,227,66,10,116,20,7,113,18,0,0,0,0,0,25,0,0,0,179,73,66
42572,1,1,1,70,599,229,67,8,114,16,7,112,17,0,0,0,0,0,26,0,0,0,178,73,66
42673,1,1,1,70,588,230,65,8,118,15,7,116,17,0,0,0,0,0,26,0,0,0,178,73,66
42774,1,1,1,69,565,238,61,6,126,13,9,125,16,0,0,0,0,-1,28,0,0,0,179,73,66
42875,1,1,1,69,565,229,60,6,128,13,8,127,17,0,0,0,0,-1,29,0,0,0,180,73,66
42977,1,1,1,69,565,229,60,6,128,13,8,127,17,0,0,0,0,-1,29,0,0,0,180,73,66
43078,1,1,1,69,565,229,60,6,128,13,8,127,17,0,0,0,0,-1,29,0,0,0,180,73,66
43179,1,1,1,75,599,245,63,8,122,17,9,119,21,0,0,0,0,0,30,0,0,0,180,73,67
43279,1,1,1,79,631,261,63,11,122,22,11,118,26,0,0,0,0,0,30,0,0,0,180,73,67
43381,1,1,1,79,664,284,64,13,120,26,14,116,30,0,0,0,0,0,31,0,0,0,179,73,67
43483,1,1,1,76,699,292,68,15,113,29,14,107,34,0,0,0,0,0,33,0,0,0,179,73,67
43585,1,1,1,75,737,267,64,18,120,36,12,113,38,0,0,0,0,0,34,0,0,0,179,73,67
43685,1,1,1,70,750,273,63,19,122,39,13,114,40,0,0,0,0,0,36,0,0,0,176,73,67
43787,1,1,1,70,750,273,63,19,122,39,13,114,40,0,0,0,0,0,38,0,0,0,177,73,67
43888,1,1,1,70,750,273,63,19,122,39,13,114,40,0,0,0,0,0,38,0,0,0,177,73,67
43989,1,1,1,71,753,265,60,19,127,41,12,119,40,0,0,0,0,0,42,0,0,0,177,72,67
44089,1,1,1,73,747,271,61,19,125,39,13,117,40,0,0,0,0,0,45,0,0,0,176,72,67
44191,1,1,1,72,737,251,60,18,128,39,11,121,39,0,0,0,0,0,47,0,0,0,176,72,67
44291,1,1,1,75,674,245,58,14,132,30,10,127,31,0,0,0,0,0,50,0,0,0,176,72,67
44394,1,1,1,74,634,242,55,11,138,25,10,135,29,0,0,0,0,0,52,0,0,0,175,72,67
44496,1,1,1,74,634,242,55,11,138,25,10,135,29,0,0,0,0,0,54,0,0,0,177,72,67
44597,1,1,1,73,607,227,58,9,132,20,8,129,28,0,0,0,0,0,56,0,0,0,176,72,67
44698,1,1,1,73,607,227,58,9,132,20,8,129,28,0,0,0,0,0,58,0,0,0,176,72,67
44799,1,1,1,74,474,238,59,-0,129,0,9,128,7,0,0,0,0,0,59,0,0,0,176,72,67
44900,1,1,1,79,436,216,54,-3,140,-7,6,139,4,0,0,0,0,0,61,0,0,0,176,72,67
45001,1,1,1,70,423,222,56,-4,136,-9,7,135,4,0,0,0,0,0,61,0,0,0,176,72,67
45102,1,1,0,70,423,222,0,-4,136,-9,7,135,-45,0,0,0,0,0,62,0,0,0,176,72,68
45208,1,1,1,73,353,224,59,-9,130,-20,7,128,-19,0,0,0,0,0,62,0,0,0,176,72,68
45310,1,1,1,76,330,227,58,-11,132,-23,8,129,-20,0,0,0,0,0,62,0,0,0,177,72,68
45411,1,1,1,76,330,227,58,-11,132,-23,8,129,-20,0,0,0,0,0,60,0,0,0,176,72,68
45512,1,1,1,74,273,231,61,-14,125,-31,8,120,-25,0,0,0,0,0,59,0,0,0,175,72,68
45615,1,1,1,76,276,228,63,-14,122,-30,7,118,-24,0,0,0,0,0,59,0,0,0,175,72,68
45716,1,1,1,74,274,228,63,-14,122,-30,5,117,-25,0,0,0,1,0,57,0,0,0,176,72,68
45828,1,1,1,73,272,235,62,-15,124,-31,8,119,-25,0,0,0,0,0,56,0,0,0,175,72,68
45929,1,1,1,74,284,235,62,-14,124,-29,8,120,-23,0,0,0,0,0,56,0,0,0,175,72,68
46030,1,2,1,77,290,224,63,-13,122,-27,7,118,-24,0,0,0,0,0,53,0,0,0,176,71,68
46131,1,2,1,77,290,224,63,-13,122,-27,7,118,-24,0,0,0,0,0,53,0,0,0,176,71,68
46231,1,2,1,73,338,240,59,-10,130,-22,9,127,-19,0,0,0,0,-1,51,0,0,0,176,71,68
46332,1,2,1,73,338,240,59,-10,130,-22,9,127,-19,0,0,0,0,0,49,0,0,0,176,71,68
46434,1,2,1,68,371,251,60,-8,128,-16,11,126,-17,0,0,0,0,0,48,0,0,0,176,71,68
46535,1,2,1,66,390,246,61,-6,126,-13,10,124,-16,0,0,0,0,0,47,0,0,0,176,71,68
46635,1,2,1,69,407,228,59,-5,130,-11,8,128,-15,0,0,0,0,0,46,0,0,0,176,71,68
46736,1,2,1,79,450,228,54,-2,140,-5,8,139,-10,0,0,0,0,0,46,0,0,0,175,71,68
46837,1,2,1,79,460,229,56,-1,136,-3,8,135,-11,0,0,0,0,0,45,0,0,0,176,71,68
46938,1,2,1,76,468,232,59,-1,130,-1,8,129,-10,0,0,0,0,0,44,0,0,0,175,71,68
47038,1,2,1,76,487,226,57,0,134,1,8,133,0,0,0,0,0,0,44,0,0,0,175,71,68
47139,1,2,1,76,487,226,57,0,134,1,8,133,0,0,0,0,0,0,43,0,0,0,174,71,68
47240,1,2,1,76,493,208,56,1,136,2,5,135,0,0,0,0,0,0,43,0,0,0,175,71,68
47341,1,2,1,76,512,224,55,2,138,5,8,137,2,0,0,0,0,0,43,0,0,0,175,71,68
47441,1,2,1,76,522,229,56,3,136,6,8,135,2,0,0,0,0,0,43,0,0,0,176,71,68
47542,1,2,1,76,520,232,55,3,138,6,9,137,1,0,0,0,0,-1,43,0,0,0,177,71,68
47643,1,2,1,76,525,233,56,3,136,7,9,135,2,0,0,0,0,-1,43,0,0,0,175,71,68
47744,1,2,1,75,517,236,59,3,130,5,9,129,1,0,0,0,0,-1,43,0,0,0,177,71,68
47845,1,2,1,76,501,247,61,1,125,3,10,124,0,0,0,0,0,0,43,0,0,0,178,71,68
47946,1,2,1,79,485,248,64,0,120,0,10,119,-2,0,0,0,0,0,43,0,0,0,178,71,68
48047,1,2,1,79,438,241,65,-3,118,-6,8,117,-18,0,0,0,0,0,43,0,0,0,178,70,68
48148,1,2,1,78,433,252,64,-3,120,-6,10,119,-17,0,0,0,0,0,43,0,0,0,178,70,68
48250,1,2,1,70,395,255,67,-6,115,-11,10,113,-22,0,0,0,0,0,43,0,0,0,179,70,68
48351,1,2,1,74,371,259,70,-8,109,-14,10,107,-23,0,0,0,0,0,42,0,0,0,178,70,68
48452,1,2,1,75,332,265,71,-10,108,-19,10,105,-28,0,0,0,0,-1,42,0,0,0,178,70,68
48553,1,2,1,79,302,288,76,-12,101,-21,14,97,-30,0,0,0,-1,-1,41,0,0,0,178,70,68
48654,1,2,1,79,284,294,74,-14,103,-24,13,98,-32,0,0,0,0,-1,39,0,0,0,180,70,68
48754,1,2,1,79,259,295,76,-15,101,-26,13,96,-35,0,0,0,0,0,38,0,0,0,180,70,68
48856,1,2,1,79,246,296,73,-16,104,-29,13,99,-36,0,0,0,0,0,37,0,0,0,178,70,68
48957,1,2,1,76,224,302,72,-18,106,-32,14,99,-38,0,0,0,0,-1,35,0,0,0,179,70,68
49057,1,2,1,73,224,293,71,-18,108,-32,14,101,-38,0,0,0,0,-1,33,0,0,0,179,70,68
49158,1,2,1,73,224,293,71,-18,108,-32,14,101,-38,0,0,0,0,-1,31,0,0,0,178,70,67
49260,1,2,1,73,224,293,71,-18,108,-32,14,101,-39,0,0,0,0,-1,29,0,0,0,177,70,67
49361,1,2,1,73,224,293,71,-18,108,-32,14,101,-39,0,0,0,0,-1,27,0,0,0,177,70,67
49462,1,2,1,68,233,267,70,-17,109,-32,11,103,-38,0,0,0,0,-1,25,0,0,0,175,70,67
49564,1,2,1,70,233,290,69,-17,111,-32,14,105,-39,0,0,0,0,-1,22,0,0,0,175,70,67
49665,1,2,1,63,250,271,73,-16,104,-28,11,99,-37,0,0,0,0,0,20,0,0,0,176,70,67
49766,1,2,1,67,237,283,69,-17,111,-32,13,105,-41,0,0,0,0,0,18,0,0,0,174,70,67
49875,1,2,1,67,237,283,69,-17,111,-32,13,105,-41,0,0,0,0,0,16,0,0,0,176,70,67
49976,1,2,1,63,224,251,59,-18,130,-39,11,123,-42,0,0,0,0,-1,14,0,0,0,175,70,67
50077,1,2,1,72,259,242,70,-15,109,-29,8,105,-37,0,0,0,0,-1,11,0,0,0,174,69,67
50178,1,2,1,64,186,221,51,-21,149,-52,8,138,-49,0,0,0,0,-1,9,0,0,0,176,69,67
50279,1,2,1,67,178,213,48,-21,158,-57,7,147,-48,0,0,0,0,-1,7,0,0,0,176,69,67
50385,1,2,1,67,178,213,48,-21,158,-57,7,147,-48,0,0,0,0,0,4,0,0,0,175,69,67
50486,1,2,1,67,178,211,47,-21,163,-58,7,152,-50,0,0,0,0,0,2,0,0,0,174,69,67
50587,1,2,0,67,178,211,0,-21,163,-58,7,152,-45,0,0,0,0,0,0,0,0,0,175,69,67
50688,1,2,1,67,186,233,47,-21,161,-56,10,150,-27,0,0,0,0,0,-3,0,0,0,175,69,67
50790,1,2,1,61,178,217,49,-21,156,-56,7,145,-29,0,0,0,0,0,-6,0,0,0,173,69,67
50891,1,2,1,61,180,234,48,-21,158,-56,10,147,-29,0,0,0,0,0,-9,0,0,0,175,69,67
50992,1,2,0,61,180,234,0,-21,158,-56,10,147,-45,0,0,0,-1,0,-12,0,0,0,175,69,67
51093,1,2,1,63,192,253,51,-20,149,-50,15,138,-26,0,0,0,-1,0,-13,0,0,0,176,69,67
51194,1,2,0,63,192,253,0,-20,149,-50,15,138,-45,0,0,0,0,0,-16,0,0,0,176,69,68
51295,1,2,1,63,239,247,54,-17,142,-41,11,135,-21,0,0,0,0,0,-19,0,0,0,175,69,68
51396,1,2,0,63,239,247,0,-17,142,-41,11,135,-45,0,0,0,0,0,-20,0,0,0,175,69,68
51497,1,2,0,63,239,247,0,-17,142,-41,11,135,-45,0,0,0,0,0,-22,0,0,0,175,69,68
51598,1,2,1,67,252,252,44,-16,172,-47,18,165,-21,0,0,0,-1,0,-24,0,0,0,176,69,68
51698,1,2,1,73,258,238,43,-16,178,-47,16,170,-21,0,0,0,-1,0,-26,0,0,0,174,69,68
51799,1,2,1,72,265,246,41,-15,186,-48,18,178,-21,0,0,0,-1,0,-28,0,0,0,175,69,68
51900,1,2,1,81,280,237,37,-14,204,-49,18,197,-20,0,0,0,-1,0,-29,0,0,0,174,69,68
52001,1,2,1,80,287,239,36,-14,214,-49,15,207,-21,0,0,0,0,0,-30,0,0,0,176,69,68
52102,1,2,1,75,313,218,36,-12,214,-43,11,209,-18,0,0,0,0,0,-31,0,0,0,176,68,68
52203,1,2,1,78,351,209,34,-9,223,-34,13,220,-15,0,0,0,-1,0,-32,0,0,0,176,68,67
52305,1,2,1,78,346,218,35,-9,219,-35,15,216,-18,0,0,0,-1,0,-32,0,0,0,176,68,67
52407,1,2,1,77,340,221,34,-10,223,-37,16,219,-19,0,0,0,-1,0,-33,0,0,0,176,68,67
52508,1,2,1,77,340,221,34,-10,223,-37,12,219,-20,0,0,0,0,0,-34,0,0,0,178,68,67
52610,1,2,1,76,319,219,33,-11,234,-45,16,228,-23,0,0,0,-1,0,-35,0,0,0,177,68,67
52711,1,2,1,79,322,204,31,-11,245,-46,13,240,-23,0,0,0,-1,0,-35,0,0,0,176,68,67
52812,1,2,1,79,323,208,30,-11,253,-48,14,248,-23,0,0,0,-1,0,-36,0,0,0,176,68,67
52913,1,2,1,78,317,203,32,-11,241,-47,8,236,-25,0,0,0,0,0,-37,0,0,0,176,68,67
53015,1,2,1,79,309,216,31,-12,247,-51,12,241,-26,0,0,0,0,0,-39,0,0,0,177,68,67
53116,1,2,1,79,304,235,36,-12,211,-44,14,205,-27,0,0,0,0,0,-40,0,0,0,176,68,67
53217,1,2,1,78,293,229,39,-13,198,-44,12,192,-29,0,0,0,0,0,-41,0,0,0,176,68,68
53318,1,2,1,80,304,239,42,-12,180,-38,13,175,-28,0,0,0,0,0,-43,0,0,0,176,68,68
53419,1,2,1,76,329,211,34,-11,223,-40,9,218,-25,0,0,0,0,0,-44,0,0,0,177,68,68
53520,1,2,1,76,329,211,34,-11,223,-40,9,218,-27,0,0,0,0,0,-46,0,0,0,176,68,68
53621,1,2,1,80,342,218,34,-10,226,-37,11,222,-25,0,0,0,0,0,-48,0,0,0,176,68,68
53723,1,2,1,80,343,225,37,-10,206,-34,12,202,-26,0,0,0,0,0,-50,0,0,0,176,68,68
53824,1,2,1,78,352,228,37,-9,209,-32,13,206,-26,0,0,0,0,0,-51,0,0,0,175,68,68
53925,1,2,1,78,352,228,37,-9,209,-32,13,206,-26,0,0,0,0,0,-52,0,0,0,175,68,68
54026,1,2,1,68,391,239,35,-6,216,-23,15,214,-22,0,0,0,0,0,-54,0,0,0,177,67,68
54127,1,2,1,77,416,228,37,-4,209,-16,13,208,-20,0,0,0,0,0,-55,0,0,0,176,67,69
54227,1,2,1,80,430,225,36,-4,213,-12,12,211,-20,0,0,0,0,0,-56,0,0,0,176,67,69
54328,1,2,1,78,465,228,36,-1,213,-3,13,212,-16,0,0,0,0,0,-57,0,0,0,176,67,69
54429,1,2,1,78,465,228,36,-1,213,-3,13,212,-18,0,0,0,0,0,-58,0,0,0,176,67,69
54530,1,2,1,76,494,232,31,1,243,4,16,242,-4,0,0,0,0,0,-59,0,0,0,176,67,69
54631,1,2,1,75,506,219,36,2,213,6,11,212,-4,0,0,0,0,0,-59,0,0,0,176,67,69
54738,1,2,1,80,525,219,35,3,219,12,15,218,-2,0,0,0,-1,0,-60,0,0,0,176,67,69
54839,1,2,1,72,549,224,35,5,216,18,16,214,0,0,0,0,0,0,-60,0,0,0,176,67,69
54940,1,2,1,69,561,227,37,6,206,20,12,204,0,0,0,0,0,0,-60,0,0,0,176,67,69
55041,1,2,1,66,587,226,35,7,216,28,13,213,2,0,0,0,0,0,-60,0,0,0,176,67,69
55149,1,2,1,77,602,217,36,9,213,31,10,209,3,0,0,0,0,0,-60,0,0,0,175,67,69
55251,1,2,1,75,607,222,37,9,206,31,11,203,4,0,0,0,0,0,-60,0,0,0,175,67,69
55351,1,2,1,78,612,214,37,9,206,33,9,203,4,0,0,0,-1,0,-60,0,0,0,176,67,69
55452,1,2,1,76,616,223,37,10,206,33,15,202,5,0,0,0,-1,0,-60,0,0,0,176,67,69
55553,1,2,1,76,616,223,37,10,206,33,15,202,5,0,0,0,-1,0,-60,0,0,0,174,67,69
55654,1,2,1,76,612,221,37,9,206,33,14,202,4,0,0,0,-1,0,-59,0,0,0,174,67,69
55756,1,2,1,79,612,216,37,9,206,33,13,203,5,0,0,0,0,0,-59,0,0,0,175,67,69
55857,1,2,1,79,616,214,36,10,213,35,10,209,5,0,0,0,0,0,-59,0,0,0,173,67,69
55958,1,3,1,79,613,223,37,9,206,33,11,202,5,0,0,0,0,0,-59,0,0,0,173,67,69
56059,1,3,1,79,610,225,37,9,206,32,12,202,5,0,0,0,0,0,-59,0,0,0,174,67,69
56159,1,3,1,79,610,222,37,9,206,32,11,203,6,0,0,0,0,0,-58,0,0,0,174,66,69
56260,1,3,1,79,610,218,38,9,203,32,10,199,6,0,0,0,0,0,-58,0,0,0,175,66,68
56361,1,3,1,77,610,225,38,9,200,31,11,196,7,0,0,0,0,0,-58,0,0,0,173,66,68
56462,1,3,1,76,610,218,38,9,203,32,10,199,7,0,0,0,0,0,-58,0,0,0,174,66,68
56564,1,3,1,79,612,218,38,9,203,32,10,199,8,0,0,0,0,0,-57,0,0,0,175,66,68
56665,1,3,1,76,608,219,38,9,200,31,14,196,8,0,0,0,-1,0,-57,0,0,0,176,66,68
56765,1,3,1,76,608,218,38,9,200,31,13,196,8,0,0,0,-1,0,-57,0,0,0,175,66,68
56866,1,3,1,75,612,218,38,9,200,31,10,196,9,0,0,0,0,0,-57,0,0,0,175,66,68
56967,1,3,1,78,613,212,37,9,209,33,9,206,10,0,0,0,0,0,-57,0,0,0,176,66,68
57068,1,3,1,78,608,222,37,9,206,32,11,203,9,0,0,0,0,0,-56,0,0,0,176,66,68
57169,1,3,1,77,607,220,37,9,209,32,11,206,10,0,0,0,0,0,-56,0,0,0,176,66,68
57270,1,3,1,77,604,221,36,9,213,32,11,209,10,0,0,0,0,0,-56,0,0,0,176,66,68
57371,1,3,1,76,607,224,35,9,219,33,12,216,11,0,0,0,0,0,-55,0,0,0,178,66,68
57472,1,3,1,78,607,225,35,9,216,33,12,212,11,0,0,0,0,0,-55,0,0,0,176,66,68
57573,1,3,1,82,610,217,36,9,213,33,10,209,12,0,0,0,0,0,-55,0,0,0,178,66,68
57674,1,3,1,78,610,226,37,9,206,32,12,202,12,0,0,0,0,0,-54,0,0,0,178,66,68
57775,1,3,1,77,607,212,37,9,209,32,9,206,13,0,0,0,0,0,-54,0,0,0,178,66,68
57876,1,3,1,77,607,212,37,9,209,32,9,206,13,0,0,0,0,0,-54,0,0,0,177,66,68
57977,1,3,1,78,605,226,38,9,203,30,12,199,13,0,0,0,0,0,-53,0,0,0,177,65,68
58079,1,3,1,80,605,213,37,9,209,31,9,206,14,0,0,0,0,0,-53,0,0,0,178,65,68
58180,1,3,1,79,605,212,37,9,209,31,9,206,14,0,0,0,0,0,-53,0,0,0,178,65,69
58281,1,3,1,79,605,212,37,9,209,31,9,206,14,0,0,0,-1,0,-53,0,0,0,176,65,69
58382,1,3,1,77,633,234,36,11,213,39,18,208,17,0,0,0,-1,0,-52,0,0,0,176,65,69
58484,1,3,1,79,646,237,35,12,216,43,19,210,19,0,0,0,-1,0,-52,0,0,0,176,65,69
58585,1,3,1,79,646,237,35,12,216,43,19,210,19,0,0,0,0,0,-52,0,0,0,174,65,69
58695,1,3,1,79,642,252,34,11,228,44,19,222,19,0,0,0,0,0,-51,0,0,0,174,65,69
58796,1,3,1,79,642,252,34,11,228,44,19,222,19,0,0,0,0,0,-50,0,0,0,174,65,69
58898,1,3,1,79,675,244,38,14,201,47,15,194,23,0,0,0,0,0,-49,0,0,0,173,65,69
58999,1,3,1,79,693,264,37,15,207,53,20,199,25,0,0,0,0,0,-49,0,0,0,172,65,69
59100,1,3,1,79,693,264,37,15,207,53,20,199,25,0,0,0,0,0,-48,0,0,0,173,65,69
59205,1,3,1,79,693,264,37,15,207,53,20,199,25,0,0,0,0,0,-47,0,0,0,172,65,68
59305,1,3,1,72,725,220,42,17,184,54,9,175,28,0,0,0,0,0,-45,0,0,0,172,65,68
59407,1,3,1,72,725,220,42,17,184,54,9,175,28,0,0,0,0,0,-44,0,0,0,172,65,68
59508,1,3,1,72,725,220,42,17,184,54,9,175,28,0,0,0,0,0,-43,0,0,0,172,65,68
59609,1,3,1,64,793,226,43,22,178,66,10,164,35,0,0,0,0,0,-41,0,0,0,173,65,68
59715,1,3,1,64,793,226,43,22,178,66,10,164,35,0,0,0,0,0,-40,0,0,0,171,65,68
59817,1,3,1,72,825,202,38,24,201,82,7,183,38,0,0,0,0,0,-39,0,0,0,173,65,68
59918,1,3,1,72,825,202,38,24,201,82,7,183,38,0,0,0,0,0,-37,0,0,0,174,65,68
60020,1,3,1,72,825,202,38,24,201,82,7,183,38,0,0,0,0,0,-35,0,0,0,174,64,68
60121,1,3,1,74,828,193,37,24,208,85,5,189,41,0,0,0,0,0,-32,0,0,0,174,64,68
60223,1,3,1,71,825,210,37,24,207,84,9,189,41,0,0,0,0,0,-30,0,0,0,171,64,69
60323,1,3,1,71,825,210,37,24,207,84,9,189,41,0,0,0,0,0,-28,0,0,0,174,64,69
60424,1,3,1,70,832,209,35,25,219,91,9,199,44,0,0,0,0,0,-25,0,0,0,175,64,69
60525,1,3,1,70,832,209,35,25,219,91,9,199,44,0,0,0,0,0,-23,0,0,0,175,64,69
60626,1,3,1,77,817,214,37,24,206,82,9,188,45,0,0,0,0,0,-20,0,0,0,174,64,69
60727,1,3,1,68,809,214,43,23,178,69,8,163,45,0,0,0,0,0,-17,0,0,0,175,64,69
60828,1,3,1,68,809,214,43,23,178,69,8,163,45,0,0,0,0,0,-15,0,0,0,173,64,69
60928,1,3,1,64,807,219,44,23,175,67,9,161,46,0,0,0,0,0,-12,0,0,0,173,64,69
61029,1,3,1,64,784,232,46,21,166,60,11,154,45,0,0,0,0,0,-9,0,0,0,174,64,69
61130,1,3,1,74,758,222,40,19,190,63,10,179,42,0,0,0,0,-1,-6,0,0,0,174,64,69
61231,1,3,1,75,742,225,40,18,190,59,11,180,43,0,0,0,0,-1,-3,0,0,0,174,64,70
61331,1,3,1,77,691,232,41,15,189,47,12,182,38,0,0,0,0,0,0,0,0,0,174,64,70
61432,1,3,1,80,642,210,36,11,214,42,9,209,34,0,0,0,0,0,2,0,0,0,173,64,70
61533,1,3,1,79,636,208,35,11,216,40,8,211,36,0,0,0,0,0,5,0,0,0,173,64,70
61634,1,3,1,77,601,208,37,8,209,30,8,206,32,0,0,0,0,0,7,0,0,0,174,64,70
61735,1,3,1,62,593,223,38,8,203,27,11,200,34,0,0,0,0,0,9,0,0,0,174,64,70
61837,1,3,1,73,546,216,32,5,237,19,11,236,29,0,0,0,0,0,12,0,0,0,173,64,70
61938,1,3,1,75,514,219,33,2,234,9,12,233,27,0,0,0,0,0,12,0,0,0,173,64,70
62040,1,3,1,75,515,213,34,2,223,9,10,222,29,0,0,0,0,0,15,0,0,0,175,63,70
62140,1,3,1,71,499,207,35,1,217,5,8,217,28,0,0,0,0,0,17,0,0,0,174,63,70
62242,1,3,1,79,444,210,29,-3,265,-11,11,264,13,0,0,0,0,0,19,0,0,0,175,63,70
62343,1,3,1,82,439,207,28,-3,269,-13,10,268,14,0,0,0,0,0,19,0,0,0,175,63,70
62443,1,3,1,82,439,207,28,-3,269,-13,10,268,14,0,0,0,0,0,22,0,0,0,176,63,70
62545,1,3,1,82,339,211,27,-10,287,-49,12,282,4,0,0,0,0,0,23,0,0,0,175,63,70
62645,1,3,1,82,339,211,27,-10,287,-49,12,282,4,0,0,0,0,-1,23,0,0,0,175,63,70
62746,1,3,1,83,326,202,26,-11,292,-54,10,286,3,0,0,0,0,0,24,0,0,0,176,63,70
62848,1,3,1,73,298,208,28,-13,269,-59,11,262,1,0,0,0,0,-1,24,0,0,0,176,63,70
62949,1,3,1,73,298,208,28,-13,269,-59,11,262,1,0,0,0,0,-1,24,0,0,0,177,63,70
63050,1,3,1,83,252,220,32,-16,241,-66,13,231,-3,0,0,0,0,0,24,0,0,0,176,63,70
63151,1,3,1,83,252,220,32,-16,241,-66,13,231,-3,0,0,0,0,-1,24,0,0,0,177,63,70
63252,1,3,1,83,220,196,28,-18,269,-84,7,255,-7,0,0,0,0,0,24,0,0,0,177,63,69
63353,1,3,1,83,211,199,28,-19,270,-86,8,255,-7,0,0,0,0,-1,24,0,0,0,177,63,69
63453,1,3,1,83,211,199,28,-19,270,-86,8,255,-7,0,0,0,0,-1,24,0,0,0,177,63,69
63554,1,3,1,82,214,220,30,-19,257,-81,13,243,-7,0,0,0,0,0,24,0,0,0,178,63,69
63655,1,3,1,73,203,214,29,-19,261,-86,12,246,-9,0,0,0,0,0,24,0,0,0,176,63,69
63756,1,3,1,73,203,214,29,-19,261,-86,12,246,-9,0,0,0,0,0,24,0,0,0,177,63,69
63857,1,3,1,63,183,210,30,-21,257,-91,11,240,-11,0,0,0,0,0,24,0,0,0,177,63,69
63958,1,3,1,63,183,210,30,-21,257,-91,11,240,-12,0,0,0,0,0,24,0,0,0,176,63,69
64059,1,3,1,73,174,198,29,-21,261,-95,8,242,-14,0,0,0,0,0,24,0,0,0,176,63,69
64160,1,3,1,74,172,194,29,-22,261,-95,7,242,-14,0,0,0,0,0,23,0,0,0,176,62,69
64261,1,3,1,72,174,193,28,-21,274,-99,7,254,-15,0,0,0,0,0,23,0,0,0,175,62,69
64362,1,3,1,72,177,189,28,-21,274,-98,5,255,-16,0,0,0,0,0,22,0,0,0,175,62,69
64463,1,3,1,72,175,188,27,-21,278,-101,5,259,-17,0,0,0,0,0,22,0,0,0,176,62,69
64565,1,3,1,71,175,192,28,-21,274,-99,6,254,-18,0,0,0,0,0,21,0,0,0,174,62,69
64665,1,3,1,70,177,196,27,-21,278,-100,8,259,-18,0,0,0,0,-1,21,0,0,0,175,62,69
64766,1,3,1,69,177,196,27,-21,278,-100,8,259,-19,0,0,0,0,-1,20,0,0,0,174,62,69
64867,1,3,1,69,177,196,27,-21,278,-100,8,259,-19,0,0,0,0,0,19,0,0,0,174,62,69
64967,1,3,1,79,205,204,27,-19,287,-94,10,270,-17,0,0,0,0,-1,18,0,0,0,174,62,69
65069,1,3,1,83,220,194,26,-18,292,-91,7,277,-18,0,0,0,0,-1,18,0,0,0,174,62,69
65170,1,3,1,83,227,201,27,-18,287,-87,9,273,-18,0,0,0,0,0,17,0,0,0,174,62,69
65271,1,3,1,83,250,209,27,-16,287,-79,12,275,-17,0,0,0,0,0,15,0,0,0,173,62,69
65371,1,3,1,83,250,209,27,-16,287,-79,12,275,-17,0,0,0,0,0,15,0,0,0,173,62,69
65472,1,3,1,83,267,208,26,-15,296,-76,12,286,-18,0,0,0,0,0,13,0,0,0,174,62,69
65573,1,3,1,83,267,208,26,-15,296,-76,12,286,-18,0,0,0,0,0,13,0,0,0,173,62,69
65674,1,3,1,83,267,208,26,-15,296,-76,12,286,-18,0,0,0,0,0,13,0,0,0,173,62,69
65776,1,3,1,76,299,204,26,-13,292,-63,10,284,-17,0,0,0,0,-1,11,0,0,0,173,62,69
65876,1,3,1,83,331,198,26,-10,296,-53,9,291,-13,0,0,0,0,0,10,0,0,0,172,62,69
65977,1,3,1,83,340,198,25,-10,301,-51,9,296,-14,0,0,0,0,0,10,0,0,0,172,62,69
66078,1,3,1,83,340,198,25,-10,301,-51,9,296,-14,0,0,0,0,0,9,0,0,0,173,61,69
66179,1,3,1,69,395,205,26,-6,296,-30,11,294,-8,0,0,0,0,0,8,0,0,0,173,61,69
66280,1,3,1,69,395,205,26,-6,296,-30,11,294,-8,0,0,0,0,0,8,0,0,0,173,61,69
66380,1,3,1,75,401,199,25,-6,311,-29,9,309,-11,0,0,0,0,0,8,0,0,0,174,61,71
66481,1,3,1,75,401,199,25,-6,311,-29,9,309,-11,0,0,0,0,0,7,0,0,0,174,61,71
66582,1,3,1,83,419,186,24,-4,321,-23,5,319,-10,0,0,0,0,0,6,0,0,0,174,61,71
66683,1,3,1,83,419,186,24,-4,321,-23,5,319,-10,0,0,0,0,0,6,0,0,0,177,61,71
66787,1,3,1,83,419,186,24,-4,321,-23,5,319,-11,0,0,0,0,0,5,0,0,0,175,61,71
66888,1,3,1,83,444,198,25,-3,311,-13,9,310,-8,0,0,0,0,-1,5,0,0,0,174,61,71
66989,1,3,1,83,454,199,24,-2,321,-10,10,320,-9,0,0,0,0,-1,5,0,0,0,174,61,71
67090,1,3,1,83,462,198,25,-1,306,-6,9,305,-8,0,0,0,0,-1,4,0,0,0,176,61,71
67191,1,3,1,83,462,198,25,-1,306,-6,9,305,-8,0,0,0,0,-1,4,0,0,0,176,61,71
67292,1,3,1,83,462,198,25,-1,306,-6,9,305,-8,0,0,0,0,-1,4,0,0,0,176,61,71
67393,1,3,1,79,470,205,23,-1,331,-4,12,330,-8,0,0,0,0,-1,3,0,0,0,175,61,70
67494,1,3,1,70,487,218,24,0,321,2,16,320,3,0,0,0,0,-1,3,0,0,0,177,61,70
67595,1,4,1,75,490,226,24,1,321,3,19,320,2,0,0,0,0,-1,3,0,0,0,177,61,70
67696,1,4,0,75,490,226,0,1,321,3,19,320,2,0,0,0,0,0,3,0,0,0,177,61,70
67796,1,4,1,75,490,226,24,1,321,3,19,320,2,0,0,0,0,0,3,0,0,0,176,61,70
67898,1,4,1,78,496,224,23,1,326,6,18,325,2,0,0,0,0,0,3,0,0,0,176,61,70
67998,1,4,1,78,496,224,23,1,326,6,18,325,2,0,0,0,0,0,3,0,0,0,177,61,70
68099,1,4,1,79,491,218,24,1,321,4,16,320,1,0,0,0,0,0,3,0,0,0,176,60,70
68200,1,4,1,82,502,217,24,2,316,8,16,315,3,0,0,0,0,0,3,0,0,0,176,60,70
68301,1,4,1,83,502,215,25,2,311,8,15,310,3,0,0,0,0,0,3,0,0,0,176,60,70
68403,1,4,1,83,502,215,25,2,311,8,15,310,3,0,0,0,0,0,3,0,0,0,175,60,69
68504,1,4,1,82,500,206,24,1,321,7,12,320,2,0,0,0,0,0,3,0,0,0,176,60,69
68606,1,4,1,82,500,206,24,1,321,7,12,320,2,0,0,0,0,0,3,0,0,0,176,60,69
68708,1,4,1,83,500,206,24,1,321,7,12,320,2,0,0,0,0,0,3,0,0,0,175,60,69
68809,1,4,1,82,494,204,24,1,321,5,11,320,1,0,0,0,0,0,3,0,0,0,177,60,69
68910,1,4,1,83,502,205,23,2,326,8,12,325,3,0,0,0,0,0,3,0,0,0,177,60,69
69011,1,4,1,83,502,205,23,2,326,8,12,325,3,0,0,0,0,0,3,0,0,0,177,60,69
69112,1,4,1,83,502,210,24,2,321,8,13,320,3,0,0,0,0,0,3,0,0,0,177,60,69
69213,1,4,1,83,503,213,23,2,326,9,15,325,3,0,0,0,0,0,3,0,0,0,177,60,69
69314,1,4,1,83,503,213,23,2,326,9,15,325,3,0,0,0,0,0,3,0,0,0,176,60,70
69415,1,4,1,83,503,213,23,2,326,9,15,325,3,0,0,0,0,0,3,0,0,0,177,60,70
69516,1,4,1,83,503,213,23,2,326,9,15,325,3,0,0,0,0,0,3,0,0,0,177,60,70
69617,1,4,1,83,503,210,24,2,316,8,13,315,3,0,0,0,0,0,3,0,0,0,177,60,70
69718,1,4,1,83,497,195,24,1,321,6,8,320,2,0,0,0,0,0,3,0,0,0,177,60,70
69820,1,4,1,83,503,211,25,2,311,8,13,310,3,0,0,0,0,0,3,0,0,0,177,60,70
69921,1,4,1,82,502,210,24,2,316,8,13,315,3,0,0,0,0,0,3,0,0,0,176,60,70
70021,1,4,1,82,502,210,24,2,316,8,13,315,3,0,0,0,0,0,3,0,0,0,176,60,70
70122,1,4,1,83,499,202,23,1,326,7,11,325,3,0,0,0,0,-1,3,0,0,0,176,59,70
70223,1,4,1,82,499,205,24,1,321,7,12,320,3,0,0,0,0,-1,3,0,0,0,175,59,70
70324,1,4,1,82,497,205,23,1,326,6,12,325,3,0,0,0,0,-1,3,0,0,0,176,59,70
70426,1,4,1,80,496,201,23,1,326,6,11,325,3,0,0,0,0,0,3,0,0,0,175,59,70
70527,1,4,1,79,496,198,24,1,321,6,9,320,3,0,0,0,0,-1,3,0,0,0,174,59,70
70628,1,4,1,78,491,201,23,1,326,4,11,325,2,0,0,0,0,0,3,0,0,0,175,59,70
70729,1,4,1,74,488,209,23,1,331,3,14,330,2,0,0,0,0,0,3,0,0,0,174,59,70
70830,1,4,1,71,485,207,24,0,316,1,12,315,2,0,0,0,0,0,3,0,0,0,174,59,70
70931,1,4,1,67,482,211,25,0,306,0,13,305,2,0,0,0,0,0,3,0,0,0,173,59,70
71035,1,4,1,67,482,211,25,0,306,0,13,305,2,0,0,0,0,0,3,0,0,0,173,59,70
71136,1,4,1,67,482,211,25,0,306,0,13,305,2,0,0,0,0,0,3,0,0,0,173,59,70
71237,1,4,1,72,474,209,25,-0,311,-2,13,310,-8,0,0,0,0,0,3,0,0,0,173,59,70
71339,1,4,1,72,474,209,25,-0,311,-2,13,310,-8,0,0,0,0,0,3,0,0,0,172,59,70
71440,1,4,1,78,468,210,26,-1,292,-4,12,291,-9,0,0,0,0,0,3,0,0,0,172,59,70
71541,1,4,1,79,467,204,28,-1,274,-4,10,273,-9,0,0,0,0,-1,3,0,0,0,172,59,70
71642,1,4,1,79,463,195,28,-1,270,-4,10,273,-9,0,0,0,0,-1,2,0,0,0,172,59,70
71743,1,4,1,79,463,195,28,-1,270,-5,7,269,-9,0,0,0,0,-1,2,0,0,0,172,59,70
71844,1,4,1,83,456,204,29,-2,261,-7,9,260,-10,0,0,0,0,-1,1,0,0,0,173,59,70
71947,1,4,1,83,456,204,29,-2,261,-7,9,260,-10,0,0,0,0,0,1,0,0,0,173,59,70
72048,1,4,1,83,454,196,30,-2,257,-8,7,256,-10,0,0,0,0,0,1,0,0,0,171,59,70
72148,1,4,1,83,454,196,31,-2,249,-7,7,248,-10,0,0,0,0,-1,0,0,0,0,172,59,70
72249,1,4,1,83,454,197,31,-2,249,-7,7,248,-10,0,0,0,0,-1,0,0,0,0,173,59,70
72350,1,4,1,83,454,205,31,-2,245,-7,9,244,-10,0,0,0,0,-1,0,0,0,0,172,59,71
72454,1,4,1,83,451,205,31,-2,249,-8,9,248,-10,0,0,0,0,-1,0,0,0,0,173,59,71
72555,1,4,1,83,448,210,31,-2,245,-9,10,244,-11,0,0,0,0,-1,-1,0,0,0,174,59,71
72657,1,4,1,82,441,195,33,-3,234,-11,6,233,-11,0,0,0,0,-1,-1,0,0,0,174,59,71
72758,1,4,1,83,435,189,33,-3,234,-12,5,233,-12,0,0,0,0,0,-2,0,0,0,174,59,71
72859,1,4,1,82,436,190,34,-3,226,-12,5,226,-12,0,0,0,0,0,-2,0,0,0,175,59,71
72960,1,4,1,82,436,190,34,-3,226,-12,5,226,-12,0,0,0,0,0,-2,0,0,0,175,59,71
73061,1,4,1,82,436,190,34,-3,226,-12,5,226,-12,0,0,0,0,0,-3,0,0,0,175,59,71
73163,1,4,1,82,436,190,34,-3,226,-12,5,226,-12,0,0,0,0,0,-3,0,0,0,177,59,71
73264,1,4,1,79,445,208,35,-2,216,-9,8,215,-11,0,0,0,0,0,-4,0,0,0,174,59,71
73365,1,4,1,80,441,212,34,-3,224,-10,10,223,-12,0,0,0,0,0,-4,0,0,0,176,59,71
73466,1,4,1,80,441,212,34,-3,224,-10,10,223,-12,0,0,0,0,0,-4,0,0,0,175,59,71
73567,1,4,1,80,463,226,42,-1,180,-3,10,179,-9,0,0,0,0,0,-5,0,0,0,175,59,71
73668,1,4,1,80,463,212,42,-1,181,-3,8,180,-10,0,0,0,0,0,-5,0,0,0,177,59,71
73773,1,4,1,80,468,234,42,-1,180,-2,12,179,-9,0,0,0,0,0,-5,0,0,0,178,59,71
73874,1,4,1,79,472,220,42,-1,183,-1,9,182,-9,0,0,0,0,0,-6,0,0,0,177,59,71
73976,1,4,1,79,479,229,46,-0,167,0,10,166,-8,0,0,0,0,0,-6,0,0,0,176,59,71
74077,1,4,1,76,487,230,46,0,164,1,10,163,2,0,0,0,0,0,-6,0,0,0,177,58,71
74178,1,4,1,77,487,230,46,0,164,1,10,163,1,0,0,0,0,0,-7,0,0,0,177,58,71
74279,1,4,1,76,495,229,49,1,157,2,9,156,2,0,0,0,0,0,-7,0,0,0,177,58,71
74380,1,4,1,76,495,229,49,1,157,2,9,156,2,0,0,0,0,0,-7,0,0,0,176,58,71
74482,1,4,1,71,521,230,51,3,151,7,9,150,4,0,0,0,0,0,-7,0,0,0,176,58,71
74583,1,4,1,71,521,230,51,3,151,7,9,150,4,0,0,0,0,0,-7,0,0,0,175,58,71
74685,1,4,1,63,587,238,64,7,120,15,8,118,10,0,0,0,0,0,-7,0,0,0,176,58,71
74785,1,4,1,68,604,243,54,9,142,21,11,140,13,0,0,0,0,0,-7,0,0,0,176,58,71
74886,1,4,1,75,647,240,51,12,149,30,11,145,17,0,0,0,0,0,-7,0,0,0,175,58,71
74987,1,4,1,76,663,248,50,13,152,33,12,147,19,0,0,0,0,0,-7,0,0,0,175,58,71
75090,1,4,1,76,663,248,50,13,152,33,12,147,19,0,0,0,0,0,-6,0,0,0,175,58,71
75194,1,4,1,76,663,248,50,13,152,33,12,147,19,0,0,0,0,0,-6,0,0,0,174,58,71
75295,1,4,1,76,663,248,50,13,152,33,12,147,19,0,0,0,0,0,-5,0,0,0,175,58,71
75396,1,4,1,66,807,234,46,23,164,63,11,151,32,0,0,0,0,0,-4,0,0,0,174,58,71
75497,1,4,1,66,807,234,46,23,164,63,11,151,32,0,0,0,0,0,-3,0,0,0,172,58,71
75598,1,4,1,67,807,232,44,23,172,66,11,158,32,0,0,0,0,0,-3,0,0,0,173,58,71
75699,1,4,0,61,845,215,0,26,213,91,10,191,45,0,0,0,0,0,-1,0,0,0,175,58,71
75800,1,4,0,61,845,215,0,26,213,91,10,191,45,0,0,0,0,0,0,0,0,0,173,58,71
75900,1,4,0,61,845,215,0,26,213,91,10,191,45,0,0,0,0,-1,2,0,0,0,174,58,71
76002,1,4,0,61,845,215,0,26,213,91,10,191,45,0,0,0,0,0,4,0,0,0,173,58,71
76103,1,4,0,61,845,215,0,26,213,91,10,191,45,0,0,0,0,0,7,0,0,0,173,58,71
76204,1,4,0,61,845,215,0,26,213,91,10,191,45,0,0,0,0,0,10,0,0,0,174,58,71
76306,1,4,0,61,845,215,0,26,213,91,10,191,45,0,0,0,-1,0,13,0,0,0,175,58,71
76407,1,4,0,61,845,215,0,26,213,91,10,191,45,0,0,0,-1,0,16,0,0,0,172,58,71
76508,1,4,0,61,845,215,0,26,213,91,10,191,45,0,0,0,0,0,19,0,0,0,174,58,71
76608,1,4,0,61,845,215,0,26,213,91,10,191,45,0,0,0,0,0,22,0,0,0,173,58,71
76709,1,4,0,61,845,215,0,26,213,91,10,191,45,0,0,0,0,0,25,0,0,0,172,58,71
76811,1,4,0,61,845,215,0,26,213,91,10,191,45,0,0,0,0,0,28,0,0,0,173,58,71
76911,1,4,0,61,845,215,0,26,213,91,10,191,45,0,0,0,0,0,32,0,0,0,172,58,71
77012,1,4,0,61,845,215,0,26,213,91,10,191,45,0,0,0,0,0,32,0,0,0,172,58,71
77113,1,4,0,61,845,215,0,26,213,91,10,191,45,0,0,0,0,0,38,0,0,0,173,58,71
77215,1,4,0,61,845,215,0,26,213,91,10,191,45,0,0,0,0,0,38,0,0,0,173,58,71
77315,1,4,0,61,845,215,0,26,213,91,10,191,45,0,0,0,0,0,41,0,0,0,172,58,71
77416,1,4,0,61,845,215,0,26,213,91,10,191,45,0,0,0,0,0,47,0,0,0,171,58,71
77519,1,4,0,61,845,215,0,26,213,91,10,191,45,0,0,0,0,0,50,0,0,0,171,58,71
77620,1,4,1,61,799,166,45,22,169,64,0,156,30,0,0,0,0,0,53,0,0,0,171,58,71
77721,1,4,1,69,771,187,55,20,140,48,2,131,28,0,0,0,0,0,57,0,0,0,172,58,71
77821,1,4,1,69,757,206,58,19,131,43,5,123,27,0,0,0,0,-1,60,0,0,0,171,58,71
77923,1,4,1,69,757,206,58,19,131,43,5,123,27,0,0,0,0,0,62,0,0,0,172,58,71
78023,1,4,1,75,712,222,69,16,111,30,6,106,24,0,0,0,0,0,62,0,0,0,172,58,71
78124,1,4,1,75,669,216,69,13,111,25,5,107,19,0,0,0,0,0,63,0,0,0,172,58,71
78225,1,4,1,73,638,213,68,11,113,21,5,110,17,0,0,0,0,0,65,0,0,0,171,58,71
78326,1,4,1,68,561,203,63,6,121,11,4,120,10,0,0,0,0,0,68,0,0,0,172,58,70
78427,1,4,1,69,536,224,65,4,118,8,6,117,9,0,0,0,0,0,68,0,0,0,172,58,70
78528,1,4,1,74,502,212,66,2,116,3,5,116,6,0,0,0,0,0,69,0,0,0,173,58,70
78629,1,4,1,74,471,213,63,-1,122,-1,5,121,-4,0,0,0,0,0,71,0,0,0,175,58,70
78730,1,4,1,72,446,213,64,-2,120,-4,5,119,-6,0,0,0,0,0,71,0,0,0,174,58,70
78831,1,4,1,72,429,221,64,-4,120,-7,6,119,-7,0,0,0,0,0,72,0,0,0,174,58,70
78932,1,4,1,68,416,240,69,-4,111,-8,8,110,-8,0,0,0,0,0,72,0,0,0,175,58,70
79035,1,4,1,68,416,240,69,-4,111,-8,8,110,-8,0,0,0,0,0,72,0,0,0,174,57,70
79136,1,4,1,68,416,240,69,-4,111,-8,8,110,-8,0,0,0,0,0,72,0,0,0,175,57,70
79237,1,4,1,61,371,231,70,-8,109,-14,7,108,-12,0,0,0,0,0,72,0,0,0,174,57,70
79338,1,4,1,61,372,230,74,-8,104,-13,6,102,-10,0,0,0,0,0,72,0,0,0,175,57,71
79444,1,4,1,68,362,266,76,-8,101,-14,10,99,-12,0,0,0,0,0,72,0,0,0,175,57,71
79546,1,4,1,69,358,256,77,-9,99,-14,9,97,-12,0,0,0,0,0,71,0,0,0,177,57,71
79647,1,4,1,68,358,248,78,-9,98,-14,8,96,-12,0,0,0,0,-1,71,0,0,0,174,57,71
79748,1,4,1,70,349,274,86,-9,89,-14,9,87,-13,0,0,0,0,-1,71,0,0,0,176,57,71
79849,1,4,1,70,345,274,86,-9,89,-14,9,87,-13,0,0,0,0,0,70,0,0,0,176,57,71
79950,1,4,1,72,340,286,93,-10,82,-13,10,80,-14,0,0,0,0,-1,70,0,0,0,176,57,71
80055,1,4,1,72,345,279,90,-9,85,-13,9,83,-14,0,0,0,0,0,70,0,0,0,175,57,71
80157,1,4,1,73,345,284,91,-9,83,-13,10,81,-14,0,0,0,0,0,69,0,0,0,173,57,71
80258,1,4,1,73,345,284,91,-9,83,-13,10,81,-14,0,0,0,0,0,69,0,0,0,176,57,71
80359,1,4,1,69,372,263,92,-8,83,-10,8,81,-11,0,0,0,0,0,68,0,0,0,174,57,70
80460,1,4,1,69,372,263,92,-8,83,-10,8,81,-11,0,0,0,0,0,67,0,0,0,175,57,70
80560,1,4,1,76,437,267,94,-3,81,-4,8,80,-4,0,0,0,0,0,67,0,0,0,175,57,70
80661,1,4,1,76,506,260,95,2,80,2,7,79,11,0,0,0,0,0,67,0,0,0,175,57,70
80762,1,4,1,76,506,260,95,2,80,2,7,79,11,0,0,0,0,0,66,0,0,0,174,57,70
80863,1,4,1,75,526,242,94,3,81,4,6,80,11,0,0,0,0,0,67,0,0,0,174,57,70
80964,1,4,1,78,548,250,95,5,80,6,6,79,13,0,0,0,0,0,67,0,0,0,174,57,70
81065,1,4,1,74,570,256,93,6,82,8,7,80,15,0,0,0,0,0,67,0,0,0,174,57,70
81166,1,4,1,74,570,256,93,6,82,8,7,80,15,0,0,0,0,0,68,0,0,0,173,57,70
81267,1,4,1,71,597,258,102,8,74,10,6,73,17,0,0,0,0,0,69,0,0,0,172,57,70
81368,1,4,1,70,613,244,103,9,74,11,5,72,18,0,0,0,0,0,69,0,0,0,174,57,71
81469,1,4,1,70,613,244,103,9,74,11,5,72,18,0,0,0,0,0,70,0,0,0,174,57,71
81570,1,4,1,70,606,244,103,9,74,11,5,72,17,0,0,0,0,0,71,0,0,0,174,57,71
81671,1,4,1,75,597,244,109,8,70,9,5,68,16,0,0,0,0,0,72,0,0,0,173,57,71
81772,1,4,1,76,581,244,113,7,68,8,5,66,14,0,0,0,0,0,72,0,0,0,173,57,71
81873,1,4,1,76,581,251,114,7,66,8,5,65,14,0,0,0,0,0,73,0,0,0,173,57,71
81974,1,4,1,76,581,251,114,7,66,8,5,65,14,0,0,0,0,0,74,0,0,0,174,57,71
82075,1,4,1,76,537,250,122,4,62,4,5,61,10,0,0,0,0,0,74,0,0,0,174,57,71
82176,1,4,1,74,498,258,128,1,59,1,5,59,6,0,0,0,0,0,75,0,0,0,173,57,71
82276,1,4,1,74,477,258,128,-0,59,0,5,59,-5,0,0,0,0,0,76,0,0,0,176,57,71
82381,1,4,1,74,460,268,126,-1,60,-1,6,60,-6,0,0,0,0,0,76,0,0,0,174,57,71
82482,1,4,1,73,438,238,126,-3,60,-3,4,60,-8,0,0,0,0,0,76,0,0,0,176,57,71
82584,1,4,1,72,422,233,126,-4,60,-4,4,60,-9,0,0,0,0,0,76,0,0,0,175,57,71
82685,1,4,1,74,411,238,126,-5,60,-5,4,60,-10,0,0,0,0,0,76,0,0,0,175,57,71
82786,1,4,1,72,405,248,124,-5,61,-5,5,60,-10,0,0,0,0,0,76,0,0,0,176,57,71
82887,1,4,1,72,405,261,124,-5,61,-5,5,60,-10,0,0,0,0,0,75,0,0,0,176,57,71
82988,1,4,1,74,405,261,124,-5,61,-5,5,60,-10,0,0,0,0,0,75,0,0,0,176,57,71
83089,1,4,1,74,411,279,124,-5,61,-5,7,60,-9,0,0,0,0,-1,75,0,0,0,177,57,71
83190,1,4,1,72,405,270,124,-5,61,-5,6,60,-10,0,0,0,0,-1,75,0,0,0,176,57,71
83292,1,4,1,70,390,284,117,-6,65,-7,7,64,-12,0,0,0,0,0,74,0,0,0,179,57,71
83394,1,5,1,70,412,289,120,-5,63,-5,7,62,-9,0,0,0,0,0,74,0,0,0,178,57,71
83495,1,5,1,69,397,291,118,-6,64,-6,8,63,-12,0,0,0,0,0,74,0,0,0,177,57,71
83597,1,5,1,69,397,291,118,-6,64,-6,8,63,-12,0,0,0,0,0,73,0,0,0,177,57,71
83698,1,5,1,69,397,291,118,-6,64,-6,8,63,-12,0,0,0,0,0,73,0,0,0,178,57,71
83799,1,5,1,67,380,304,111,-7,69,-8,9,67,-14,0,0,0,0,0,73,0,0,0,176,57,71
83900,1,5,1,67,373,297,109,-7,70,-9,9,68,-14,0,0,0,0,0,72,0,0,0,176,57,71
84001,1,5,1,66,397,297,115,-6,66,-6,8,65,-11,0,0,0,0,0,72,0,0,0,176,57,71
84103,1,5,1,69,411,325,116,-5,65,-5,10,64,-10,0,0,0,0,0,71,0,0,0,176,57,71
84204,1,5,1,72,400,311,118,-6,64,-6,9,63,-12,0,0,0,0,0,71,0,0,0,175,57,71
84308,1,5,1,72,427,315,122,-4,62,-3,9,61,-9,0,0,0,0,0,70,0,0,0,176,57,71
84410,1,5,1,75,427,323,111,-4,69,-4,11,67,-10,0,0,0,0,0,70,0,0,0,176,57,71
84511,1,5,1,76,438,303,107,-3,71,-3,9,70,-9,0,0,0,0,0,69,0,0,0,176,57,71
84613,1,5,1,75,486,292,102,0,75,0,9,74,6,0,0,0,0,0,69,0,0,0,175,57,71
84713,1,5,1,76,520,278,104,3,73,3,8,72,9,0,0,0,0,0,69,0,0,0,174,57,71
84815,1,5,1,76,520,278,104,3,73,3,8,72,9,0,0,0,0,0,68,0,0,0,175,57,71
84925,1,5,1,76,553,274,101,5,76,6,8,74,12,0,0,0,0,-1,69,0,0,0,175,57,71
85026,1,5,1,73,559,278,101,6,76,7,8,74,11,0,0,0,0,0,69,0,0,0,175,57,71
85127,1,5,1,72,570,273,96,6,79,8,8,78,12,0,0,0,0,0,69,0,0,0,175,57,71
85228,1,5,1,72,564,274,93,6,82,8,9,80,11,0,0,0,0,0,69,0,0,0,175,57,71
85329,1,5,1,73,559,267,95,6,80,7,8,79,10,0,0,0,0,0,70,0,0,0,175,57,71
85430,1,5,1,75,546,271,87,5,88,7,9,87,9,0,0,0,0,0,70,0,0,0,176,57,71
85531,1,5,1,76,521,283,87,3,88,4,10,87,6,0,0,0,0,0,71,0,0,0,175,57,71
85632,1,5,1,76,521,283,87,3,88,4,10,87,6,0,0,0,0,0,71,0,0,0,175,57,71
85733,1,5,1,76,477,273,87,-0,87,0,9,86,-8,0,0,0,0,0,72,0,0,0,175,57,71
85834,1,5,1,76,477,273,87,-0,87,0,9,86,-8,0,0,0,0,0,72,0,0,0,176,57,71
85935,1,5,1,75,429,273,82,-4,93,-5,10,92,-12,0,0,0,0,0,72,0,0,0,174,57,71
86036,1,5,1,73,421,267,79,-4,96,-6,9,95,-12,0,0,0,0,0,72,0,0,0,175,57,71
86137,1,5,1,73,421,267,79,-4,96,-6,9,95,-12,0,0,0,0,-1,71,0,0,0,174,57,71
86237,1,5,1,72,403,267,79,-5,96,-8,9,95,-14,0,0,0,0,-1,71,0,0,0,174,57,71
86338,1,5,1,71,375,254,79,-7,96,-12,8,95,-17,0,0,0,0,-1,71,0,0,0,174,57,71
86439,1,5,1,79,340,254,77,-10,99,-16,8,97,-20,0,0,0,0,0,70,0,0,0,175,57,71
86540,1,5,1,80,328,254,73,-11,104,-19,9,101,-21,0,0,0,0,0,70,0,0,0,175,57,71
86641,1,5,1,81,288,239,68,-13,112,-25,8,108,-27,0,0,0,0,0,69,0,0,0,175,57,71
86742,1,5,1,78,241,250,68,-17,113,-32,9,107,-30,0,0,0,0,0,68,0,0,0,177,57,71
86843,1,5,1,71,241,234,61,-17,126,-36,8,119,-29,0,0,0,0,0,67,0,0,0,176,57,71
86955,1,5,1,69,209,239,57,-19,133,-43,9,125,-33,0,0,0,0,0,64,0,0,0,176,57,71
87056,1,5,1,69,209,239,57,-19,133,-43,9,125,-33,0,0,0,0,0,64,0,0,0,176,57,71
87157,1,5,1,74,183,241,54,-21,142,-50,10,132,-35,0,0,0,0,0,60,0,0,0,175,57,71
87259,1,5,1,74,183,241,54,-21,142,-50,10,132,-35,0,0,0,0,0,60,0,0,0,175,57,71
87360,1,5,1,72,166,214,49,-22,156,-58,7,144,-37,0,0,0,0,0,56,0,0,0,176,57,71
87461,1,5,1,67,166,229,47,-22,161,-60,10,148,-38,0,0,0,0,0,56,0,0,0,176,57,71
87561,1,5,1,68,149,228,44,-23,172,-67,10,158,-40,0,0,0,0,0,54,0,0,0,177,57,71
87663,1,5,1,67,133,231,40,-24,189,-77,12,172,-43,0,0,0,0,0,51,0,0,0,176,57,71
87763,1,5,1,67,113,214,34,-26,223,-96,10,200,-46,0,0,0,0,0,49,0,0,0,177,57,71
87864,1,5,1,64,117,221,35,-25,221,-94,12,199,-45,0,0,0,0,-1,47,0,0,0,177,57,71
87965,1,5,1,62,119,221,35,-25,217,-92,11,196,-46,0,0,0,0,0,44,0,0,0,177,57,71
88066,1,5,0,62,119,221,0,-25,217,-92,11,196,-45,0,0,0,0,0,41,0,0,0,176,57,71
88166,1,5,0,62,119,221,0,-25,217,-92,11,196,-45,0,0,0,0,0,38,0,0,0,177,57,71
88268,1,5,1,62,115,212,37,-26,209,-90,9,188,-32,0,0,0,0,0,35,0,0,0,176,57,71
88375,1,5,0,62,115,212,0,-26,209,-90,9,188,-45,0,0,0,0,0,31,0,0,0,176,57,71
88476,1,5,0,62,115,212,0,-26,209,-90,9,188,-45,0,0,0,0,0,28,0,0,0,176,57,71
88576,1,5,1,62,128,219,37,-25,204,-84,10,185,-31,0,0,0,0,0,26,0,0,0,176,57,71
88685,1,5,1,66,130,212,39,-25,195,-80,8,176,-32,0,0,0,0,0,23,0,0,0,175,57,71
88786,1,5,1,67,138,220,42,-24,184,-74,9,167,-32,0,0,0,0,0,20,0,0,0,175,57,71
88887,1,5,1,67,138,220,42,-24,184,-74,9,167,-32,0,0,0,0,0,17,0,0,0,174,57,71
88988,1,5,1,67,163,228,47,-22,163,-61,10,150,-31,0,0,0,0,0,16,0,0,0,173,57,71
89090,1,5,1,67,163,228,47,-22,163,-61,10,150,-32,0,0,0,0,0,14,0,0,0,172,56,71
