timestamp,trackMode,telSeqId,personCount,personConfidence,faceXPx,faceYPx,faceRadiusPx,angle_err,estimatedDistance,estimatedXPos,estimatedYPos,estimatedZPos,Uyaw,Uz,Ux,Uy,pitch,roll,yaw,vx,vy,vz,tof,batt,temp
12637,0,0,0,0,0,0,0,0,0,0,0,0,0,0,0,0,0,0,10,0,0,0,10,54,71
12753,0,0,0,0,0,0,0,0,0,0,0,0,0,0,0,0,0,0,10,0,0,0,10,54,71
12855,0,0,0,0,0,0,0,0,0,0,0,0,0,0,0,0,0,0,10,0,0,0,10,54,71
12957,0,0,0,0,0,0,0,0,0,0,0,0,0,0,0,0,0,0,10,0,0,0,10,54,71
13058,0,0,0,0,0,0,0,0,0,0,0,0,0,0,0,0,0,0,10,0,0,0,10,54,71
13160,0,0,0,0,0,0,0,0,0,0,0,0,0,0,0,0,0,0,10,0,0,0,10,54,71
13261,0,0,0,0,0,0,0,0,0,0,0,0,0,0,0,0,0,0,10,0,0,0,10,54,70
13363,0,0,0,0,0,0,0,0,0,0,0,0,0,0,0,0,0,0,10,0,0,0,10,54,70
13464,0,0,0,0,0,0,0,0,0,0,0,0,0,0,0,0,0,0,10,0,0,0,10,54,70
13566,0,0,0,0,0,0,0,0,0,0,0,0,0,0,0,0,0,0,10,0,0,0,10,54,70
13668,0,0,0,0,0,0,0,0,0,0,0,0,0,0,0,0,0,0,10,0,0,0,10,54,70
13769,0,0,0,0,0,0,0,0,0,0,0,0,0,0,0,0,0,0,10,0,0,0,10,54,70
13872,0,0,0,0,0,0,0,0,0,0,0,0,0,0,0,0,0,0,10,0,0,0,10,54,70
13975,0,0,0,0,0,0,0,0,0,0,0,0,0,0,0,0,0,0,10,0,0,0,10,54,70
14078,0,0,0,0,0,0,0,0,0,0,0,0,0,0,0,0,0,0,10,0,0,0,10,54,70
14180,0,0,0,0,0,0,0,0,0,0,0,0,0,0,0,0,0,0,10,0,0,0,10,54,70
14281,0,0,0,0,0,0,0,0,0,0,0,0,0,0,0,0,0,0,10,0,0,0,10,54,70
14382,0,0,0,0,0,0,0,0,0,0,0,0,0,0,0,0,0,0,10,0,0,0,10,54,70
14484,0,0,0,0,0,0,0,0,0,0,0,0,0,0,0,0,0,0,10,0,0,0,10,54,70
14587,0,0,0,0,0,0,0,0,0,0,0,0,0,0,0,0,0,0,10,0,0,0,10,54,70
14690,0,0,0,0,0,0,0,0,0,0,0,0,0,0,0,0,0,0,10,0,0,0,10,54,70
14791,0,0,0,0,0,0,0,0,0,0,0,0,0,0,0,0,0,0,10,0,0,0,10,54,70
14893,0,0,0,0,0,0,0,0,0,0,0,0,0,0,0,0,0,0,10,0,0,0,10,54,70
14994,0,0,0,0,0,0,0,0,0,0,0,0,0,0,0,0,0,0,10,0,0,0,10,54,70
15096,0,0,0,0,0,0,0,0,0,0,0,0,0,0,0,0,0,0,10,0,0,0,10,54,70
15197,0,0,0,0,0,0,0,0,0,0,0,0,0,0,0,0,0,0,10,0,0,0,10,54,70
15299,0,0,0,0,0,0,0,0,0,0,0,0,0,0,0,0,0,0,10,0,0,0,10,54,70
15400,0,0,0,0,0,0,0,0,0,0,0,0,0,0,0,0,0,0,10,0,0,0,10,54,70
15502,0,0,0,0,0,0,0,0,0,0,0,0,0,0,0,0,0,0,10,0,0,0,10,54,70
15603,0,0,0,0,0,0,0,0,0,0,0,0,0,0,0,0,0,0,10,0,0,0,10,54,70
15704,0,0,0,0,0,0,0,0,0,0,0,0,0,0,0,0,0,0,10,0,0,0,10,54,70
15805,0,0,0,0,0,0,0,0,0,0,0,0,0,0,0,0,0,0,10,0,0,0,10,54,70
15907,0,0,0,0,0,0,0,0,0,0,0,0,0,0,0,0,0,0,10,0,0,0,10,54,70
16008,0,0,0,0,0,0,0,0,0,0,0,0,0,0,0,0,0,0,10,0,0,0,10,54,70
16109,0,0,0,0,0,0,0,0,0,0,0,0,0,0,0,0,0,0,10,0,0,0,10,54,70
16210,0,0,0,0,0,0,0,0,0,0,0,0,0,0,0,0,0,0,10,0,0,0,10,54,71
16311,0,0,0,0,0,0,0,0,0,0,0,0,0,0,0,0,0,0,10,0,0,0,10,54,71
16412,0,0,0,0,0,0,0,0,0,0,0,0,0,0,0,0,0,0,10,0,0,0,10,54,71
16513,0,0,0,0,0,0,0,0,0,0,0,0,0,0,0,0,0,0,10,0,0,0,10,54,71
16615,0,0,0,0,0,0,0,0,0,0,0,0,0,0,0,0,0,0,10,0,0,0,10,54,71
16716,0,0,0,0,0,0,0,0,0,0,0,0,0,0,0,0,0,0,10,0,0,0,10,54,71
16817,0,0,0,0,0,0,0,0,0,0,0,0,0,0,0,0,0,0,10,0,0,0,10,54,71
16918,0,0,0,0,0,0,0,0,0,0,0,0,0,0,0,0,0,0,10,0,0,0,10,54,71
17020,0,0,0,0,0,0,0,0,0,0,0,0,0,0,0,0,0,0,10,0,0,0,10,54,71
17122,0,0,0,0,0,0,0,0,0,0,0,0,0,0,0,0,0,0,10,0,0,0,10,54,71
17223,0,0,0,0,0,0,0,0,0,0,0,0,0,0,0,0,0,0,10,0,0,0,10,54,71
17324,0,0,0,0,0,0,0,0,0,0,0,0,0,0,0,0,0,0,10,0,0,0,10,54,71
17425,0,0,0,0,0,0,0,0,0,0,0,0,0,0,0,0,0,0,10,0,0,0,10,54,71
17526,0,0,0,0,0,0,0,0,0,0,0,0,0,0,0,0,0,0,10,0,0,0,10,54,71
17627,0,0,0,0,0,0,0,0,0,0,0,0,0,0,0,0,0,0,10,0,0,0,10,54,71
17728,0,0,0,0,0,0,0,0,0,0,0,0,0,0,0,0,0,0,10,0,0,0,10,54,71
17833,0,0,0,0,0,0,0,0,0,0,0,0,0,0,0,0,0,0,10,0,0,0,10,54,71
17935,0,0,0,0,0,0,0,0,0,0,0,0,0,0,0,0,0,0,10,0,0,0,10,54,71
18037,0,0,0,0,0,0,0,0,0,0,0,0,0,0,0,0,0,0,10,0,0,0,10,54,71
18144,0,0,0,0,0,0,0,0,0,0,0,0,0,0,0,0,0,0,10,0,0,0,10,54,71
18245,0,0,0,0,0,0,0,0,0,0,0,0,0,0,0,0,0,0,10,0,0,0,10,54,71
18347,0,0,0,0,0,0,0,0,0,0,0,0,0,0,0,0,0,0,10,0,0,0,10,54,71
18449,0,0,0,0,0,0,0,0,0,0,0,0,0,0,0,0,0,0,10,0,0,0,10,54,71
18550,0,0,0,0,0,0,0,0,0,0,0,0,0,0,0,0,0,0,10,0,0,0,10,54,71
18651,0,0,0,0,0,0,0,0,0,0,0,0,0,0,0,0,0,0,10,0,0,0,10,54,71
18752,0,0,0,0,0,0,0,0,0,0,0,0,0,0,0,0,0,0,10,0,0,0,10,54,71
18852,0,0,0,0,0,0,0,0,0,0,0,0,0,0,0,0,0,0,10,0,0,0,10,54,71
18953,0,0,0,0,0,0,0,0,0,0,0,0,0,0,0,0,0,0,10,0,0,0,10,54,71
19054,0,0,0,0,0,0,0,0,0,0,0,0,0,0,0,0,0,0,10,0,0,0,10,54,71
19155,0,0,0,0,0,0,0,0,0,0,0,0,0,0,0,0,0,0,10,0,0,0,10,54,71
19256,0,0,0,0,0,0,0,0,0,0,0,0,0,0,0,0,0,0,10,0,0,0,10,54,71
19356,0,0,0,0,0,0,0,0,0,0,0,0,0,0,0,0,0,0,10,0,0,0,10,54,71
19458,0,0,0,0,0,0,0,0,0,0,0,0,0,0,0,0,0,0,10,0,0,0,10,54,71
19558,0,0,0,0,0,0,0,0,0,0,0,0,0,0,0,0,0,0,10,0,0,0,10,54,71
19660,0,0,0,0,0,0,0,0,0,0,0,0,0,0,0,0,0,0,10,0,0,0,10,54,71
19760,0,0,0,0,0,0,0,0,0,0,0,0,0,0,0,0,0,0,10,0,0,0,10,54,71
19862,0,0,0,0,0,0,0,0,0,0,0,0,0,0,0,0,0,0,10,0,0,0,10,54,71
19963,0,0,0,0,0,0,0,0,0,0,0,0,0,0,0,0,0,0,10,0,0,0,10,54,71
20064,0,0,0,0,0,0,0,0,0,0,0,0,0,0,0,0,0,0,10,0,0,0,10,54,71
20165,0,0,0,0,0,0,0,0,0,0,0,0,0,0,0,0,0,0,10,0,0,0,10,54,71
20265,0,0,0,0,0,0,0,0,0,0,0,0,0,0,0,0,0,0,10,0,0,0,10,54,72
20366,0,0,0,0,0,0,0,0,0,0,0,0,0,0,0,0,0,0,10,0,0,0,10,54,72
20467,0,0,0,0,0,0,0,0,0,0,0,0,0,0,0,0,0,0,10,0,0,0,10,54,72
20568,0,0,0,0,0,0,0,0,0,0,0,0,0,0,0,0,0,0,10,0,0,0,10,54,72
20669,0,0,0,0,0,0,0,0,0,0,0,0,0,0,0,0,0,0,10,0,0,0,10,54,72
20773,0,0,0,0,0,0,0,0,0,0,0,0,0,0,0,0,0,0,10,0,0,0,10,54,72
20874,0,0,0,0,0,0,0,0,0,0,0,0,0,0,0,0,0,0,10,0,0,0,10,54,72
20974,0,0,0,0,0,0,0,0,0,0,0,0,0,0,0,0,0,0,10,0,0,0,10,54,72
21075,0,0,0,0,0,0,0,0,0,0,0,0,0,0,0,0,0,0,10,0,0,0,10,54,72
21176,0,0,0,0,0,0,0,0,0,0,0,0,0,0,0,0,0,0,10,0,0,0,10,54,72
21279,0,0,0,0,0,0,0,0,0,0,0,0,0,0,0,0,0,0,10,0,0,0,10,54,72
21381,0,0,0,0,0,0,0,0,0,0,0,0,0,0,0,0,0,0,10,0,0,0,10,54,72
21483,0,0,0,0,0,0,0,0,0,0,0,0,0,0,0,0,0,0,10,0,0,0,10,54,72
21584,0,0,0,0,0,0,0,0,0,0,0,0,0,0,0,0,0,0,10,0,0,0,10,54,72
21684,0,0,0,0,0,0,0,0,0,0,0,0,0,0,0,0,0,0,10,0,0,0,10,54,72
21786,0,0,0,0,0,0,0,0,0,0,0,0,0,0,0,0,0,0,10,0,0,0,10,54,72
21887,0,0,0,0,0,0,0,0,0,0,0,0,0,0,0,0,0,0,10,0,0,0,10,54,72
21987,0,0,0,0,0,0,0,0,0,0,0,0,0,0,0,0,0,0,10,0,0,0,10,54,72
22088,0,0,0,0,0,0,0,0,0,0,0,0,0,0,0,0,0,0,10,0,0,0,10,54,72
22188,0,0,0,0,0,0,0,0,0,0,0,0,0,0,0,0,0,0,10,0,0,0,10,54,72
22289,0,0,0,0,0,0,0,0,0,0,0,0,0,0,0,0,0,0,10,0,0,0,10,54,72
22390,0,0,0,0,0,0,0,0,0,0,0,0,0,0,0,0,0,0,10,0,0,0,10,54,73
22492,0,0,0,0,0,0,0,0,0,0,0,0,0,0,0,0,0,0,10,0,0,0,10,54,73
22595,0,0,0,0,0,0,0,0,0,0,0,0,0,0,0,0,0,0,10,0,0,0,10,54,73
22697,0,0,0,0,0,0,0,0,0,0,0,0,0,0,0,0,0,0,10,0,0,0,10,54,73
22797,0,0,0,0,0,0,0,0,0,0,0,0,0,0,0,0,0,0,10,0,0,0,10,54,73
22898,0,0,0,0,0,0,0,0,0,0,0,0,0,0,0,0,0,0,10,0,0,0,10,54,73
22999,0,0,0,0,0,0,0,0,0,0,0,0,0,0,0,0,0,0,10,0,0,0,10,54,73
23099,0,0,0,0,0,0,0,0,0,0,0,0,0,0,0,0,0,0,10,0,0,0,10,54,73
23200,0,0,0,0,0,0,0,0,0,0,0,0,0,0,0,0,0,0,10,0,0,0,10,54,73
23301,0,0,0,0,0,0,0,0,0,0,0,0,0,0,0,0,0,0,10,0,0,0,10,54,72
23402,0,0,0,0,0,0,0,0,0,0,0,0,0,0,0,0,0,0,10,0,0,0,10,54,72
23504,0,0,0,0,0,0,0,0,0,0,0,0,0,0,0,0,0,0,10,0,0,0,10,54,72
23605,0,0,0,0,0,0,0,0,0,0,0,0,0,0,0,0,0,0,10,0,0,0,10,54,72
23707,0,0,0,0,0,0,0,0,0,0,0,0,0,0,0,0,0,0,10,0,0,0,10,54,72
23808,0,0,0,0,0,0,0,0,0,0,0,0,0,0,0,0,0,0,10,0,0,0,10,54,72
23908,0,0,0,0,0,0,0,0,0,0,0,0,0,0,0,0,0,0,10,0,0,0,10,54,72
24009,0,0,0,0,0,0,0,0,0,0,0,0,0,0,0,0,0,0,10,0,0,0,10,54,72
24110,0,0,0,0,0,0,0,0,0,0,0,0,0,0,0,0,0,0,10,0,0,0,10,54,72
24211,0,0,0,0,0,0,0,0,0,0,0,0,0,0,0,0,0,0,10,0,0,0,10,54,72
24312,0,0,0,0,0,0,0,0,0,0,0,0,0,0,0,0,0,0,10,0,0,0,10,54,72
24413,0,0,0,0,0,0,0,0,0,0,0,0,0,0,0,0,0,0,10,0,0,0,10,54,72
24514,0,0,0,0,0,0,0,0,0,0,0,0,0,0,0,0,0,0,10,0,0,0,10,54,72
24615,0,0,0,0,0,0,0,0,0,0,0,0,0,0,0,0,0,0,10,0,0,0,10,54,72
24715,0,0,0,0,0,0,0,0,0,0,0,0,0,0,0,0,0,0,10,0,0,0,10,54,72
24816,0,0,0,0,0,0,0,0,0,0,0,0,0,0,0,0,0,0,10,0,0,0,10,54,72
24918,0,0,0,0,0,0,0,0,0,0,0,0,0,0,0,0,0,0,10,0,0,0,10,54,72
25019,0,0,0,0,0,0,0,0,0,0,0,0,0,0,0,0,0,0,10,0,0,0,10,54,72
25120,0,0,0,0,0,0,0,0,0,0,0,0,0,0,0,0,0,0,10,0,0,0,10,54,72
25221,0,0,0,0,0,0,0,0,0,0,0,0,0,0,0,0,0,0,10,0,0,0,10,54,72
25321,0,0,0,0,0,0,0,0,0,0,0,0,0,0,0,0,0,0,10,0,0,0,10,54,72
25423,0,0,0,0,0,0,0,0,0,0,0,0,0,0,0,0,0,0,10,0,0,0,10,54,72
25523,0,0,0,0,0,0,0,0,0,0,0,0,0,0,0,0,0,0,10,0,0,0,10,54,72
25624,0,0,0,0,0,0,0,0,0,0,0,0,0,0,0,0,0,0,10,0,0,0,10,54,72
25725,0,0,0,0,0,0,0,0,0,0,0,0,0,0,0,0,0,0,10,0,0,0,10,54,72
25825,0,0,0,0,0,0,0,0,0,0,0,0,0,0,0,0,0,0,10,0,0,0,10,54,72
25926,0,0,0,0,0,0,0,0,0,0,0,0,0,0,0,0,0,0,10,0,0,0,10,54,72
26027,0,0,0,0,0,0,0,0,0,0,0,0,0,0,0,0,0,0,10,0,0,0,10,54,72
26128,0,0,0,0,0,0,0,0,0,0,0,0,0,0,0,0,0,0,10,0,0,0,10,54,72
26228,0,0,0,0,0,0,0,0,0,0,0,0,0,0,0,0,0,0,10,0,0,0,10,54,72
26329,0,0,0,0,0,0,0,0,0,0,0,0,0,0,0,0,0,0,10,0,0,0,10,54,72
26430,0,0,0,0,0,0,0,0,0,0,0,0,0,0,0,0,0,0,10,0,0,0,10,54,72
26530,0,0,0,0,0,0,0,0,0,0,0,0,0,0,0,0,0,0,10,0,0,0,10,54,72
26631,0,0,0,0,0,0,0,0,0,0,0,0,0,0,0,0,0,0,10,0,0,0,10,54,72
26732,0,0,0,0,0,0,0,0,0,0,0,0,0,0,0,0,0,0,10,0,0,0,10,54,72
26832,0,0,0,0,0,0,0,0,0,0,0,0,0,0,0,0,0,0,10,0,0,0,10,54,72
26933,0,0,0,0,0,0,0,0,0,0,0,0,0,0,0,0,0,0,10,0,0,0,10,54,72
27034,0,0,0,0,0,0,0,0,0,0,0,0,0,0,0,0,0,0,10,0,0,0,10,54,72
27134,0,0,0,0,0,0,0,0,0,0,0,0,0,0,0,0,0,0,10,0,0,0,10,54,72
27235,0,0,0,0,0,0,0,0,0,0,0,0,0,0,0,0,0,0,10,0,0,0,10,54,72
27336,0,0,0,0,0,0,0,0,0,0,0,0,0,0,0,0,0,0,11,0,0,0,10,54,72
27438,0,0,0,0,0,0,0,0,0,0,0,0,0,0,0,0,0,0,13,0,0,0,10,54,72
27541,0,0,0,0,0,0,0,0,0,0,0,0,0,0,0,0,0,0,13,0,0,0,10,54,72
27642,0,0,0,0,0,0,0,0,0,0,0,0,0,0,0,0,0,0,13,0,0,-2,15,54,72
27743,0,0,0,0,0,0,0,0,0,0,0,0,0,0,0,0,0,-1,13,0,0,-5,12,54,72
27844,0,0,0,0,0,0,0,0,0,0,0,0,0,0,0,0,0,-1,13,0,0,-7,12,54,72
27944,0,0,0,0,0,0,0,0,0,0,0,0,0,0,0,0,0,0,13,0,0,-7,20,54,72
28045,0,0,0,0,0,0,0,0,0,0,0,0,0,0,0,0,0,0,13,0,0,-7,27,54,72
28150,0,0,0,0,0,0,0,0,0,0,0,0,0,0,0,0,0,0,13,0,0,-7,33,54,72
28251,0,0,0,0,0,0,0,0,0,0,0,0,0,0,0,0,0,0,13,0,0,-6,39,54,72
28351,0,0,0,0,0,0,0,0,0,0,0,0,0,0,0,0,0,0,13,0,0,-5,44,54,73
28454,0,0,0,0,0,0,0,0,0,0,0,0,0,0,0,0,0,0,13,0,0,-4,49,54,73
28555,0,0,0,0,0,0,0,0,0,0,0,0,0,0,0,0,0,0,13,0,0,-4,52,54,73
28656,0,0,0,0,0,0,0,0,0,0,0,0,0,0,0,35,0,0,13,0,0,-3,55,54,73
28758,0,0,0,0,0,0,0,0,0,0,0,0,0,0,0,35,1,0,13,0,0,-2,58,54,73
28859,0,0,0,0,0,0,0,0,0,0,0,0,0,0,0,0,0,0,13,0,0,-2,60,54,73
28961,0,0,0,0,0,0,0,0,0,0,0,0,0,0,0,0,0,0,13,0,0,-1,62,54,73
29062,0,0,0,0,0,0,0,0,0,0,0,0,0,0,0,0,0,0,13,0,0,-1,63,53,73
29166,0,0,0,0,0,0,0,0,0,0,0,0,0,0,0,0,0,0,13,0,0,-1,64,53,73
29267,0,0,0,0,0,0,0,0,0,0,0,0,0,0,0,0,0,0,13,0,0,-1,65,53,73
29369,0,0,0,0,0,0,0,0,0,0,0,0,0,0,0,0,0,0,13,0,0,-1,67,53,73
29470,0,0,0,0,0,0,0,0,0,0,0,0,0,0,0,0,0,0,13,0,0,-1,68,53,73
29572,0,0,0,0,0,0,0,0,0,0,0,0,0,0,0,0,0,0,13,0,0,-1,69,53,73
29673,0,0,0,0,0,0,0,0,0,0,0,0,0,0,0,0,0,0,13,0,0,-1,70,53,73
29774,0,0,0,0,0,0,0,0,0,0,0,0,0,0,0,0,0,0,13,0,0,-1,71,53,73
29875,0,0,0,0,0,0,0,0,0,0,0,0,0,0,0,0,0,0,13,0,0,-1,72,53,73
29976,0,0,0,0,0,0,0,0,0,0,0,0,0,0,0,0,0,0,13,0,0,-1,73,53,73
30076,0,0,0,0,0,0,0,0,0,0,0,0,0,0,0,0,0,0,13,0,0,-1,73,53,73
30177,0,0,0,0,0,0,0,0,0,0,0,0,0,0,0,0,0,0,13,0,0,0,74,53,73
30278,0,0,0,0,0,0,0,0,0,0,0,0,0,0,0,0,0,0,13,0,0,-1,75,53,73
30378,0,0,0,0,0,0,0,0,0,0,0,0,0,0,0,0,1,0,13,0,0,0,76,53,73
30480,0,0,0,0,0,0,0,0,0,0,0,0,0,0,0,0,0,0,13,0,0,-1,77,53,73
30580,0,0,0,0,0,0,0,0,0,0,0,0,0,0,0,0,0,0,13,0,0,-1,78,53,73
30681,0,0,0,0,0,0,0,0,0,0,0,0,0,0,0,0,0,0,13,0,0,-1,80,53,73
30782,0,0,1,67,328,26,29,-11,265,-48,-39,257,0,0,0,0,0,0,13,0,0,-1,81,53,73
30883,0,0,1,67,328,26,29,-11,265,-48,-39,257,0,0,0,0,0,0,13,0,0,-1,83,53,73
30984,0,0,0,67,328,26,0,-11,265,-48,-39,257,0,0,0,0,0,0,13,0,0,-1,85,53,73
31085,0,0,0,67,328,26,0,-11,265,-48,-39,257,0,0,0,0,0,0,13,0,0,-1,88,53,73
31187,0,0,0,67,328,26,0,-11,265,-48,-39,257,0,0,0,0,0,0,13,0,0,-1,90,53,73
31288,0,0,1,62,323,32,30,-11,253,-47,-35,245,0,0,0,0,0,0,13,0,0,-1,90,53,73
31389,0,0,1,62,323,32,30,-11,253,-47,-35,245,0,0,0,0,0,0,13,0,0,-1,92,53,72
31490,0,0,1,62,323,32,30,-11,253,-47,-35,245,0,0,0,0,0,0,13,0,0,-1,94,53,72
31591,0,0,1,82,328,29,25,-11,301,-54,-43,292,0,0,0,0,0,0,13,0,0,-1,98,53,72
31691,0,0,1,76,328,34,26,-11,292,-53,-40,283,0,0,0,0,0,0,13,0,0,-2,100,53,72
31792,0,0,1,82,325,33,25,-11,301,-56,-42,292,0,0,0,0,1,0,13,0,0,-2,102,53,72
31893,0,0,1,73,337,30,26,-10,296,-50,-47,288,0,0,0,0,1,0,13,0,0,-2,105,53,72
31995,0,0,1,75,337,37,27,-10,278,-47,-42,271,0,0,0,0,1,0,13,0,0,-2,107,52,72
32095,0,0,1,79,336,39,28,-10,274,-47,-41,267,0,0,0,0,1,0,13,0,0,-2,109,52,72
32196,0,0,1,77,337,38,27,-10,278,-47,-42,271,0,0,0,0,1,0,13,0,0,-2,111,52,72
32305,0,0,1,79,346,44,29,-9,261,-42,-38,255,0,0,0,0,1,0,13,0,0,-2,114,52,73
32406,0,0,1,80,343,38,28,-10,274,-45,-41,267,0,0,0,0,0,0,13,0,0,-2,116,52,73
32507,0,0,1,83,349,39,27,-9,287,-45,-38,280,0,0,0,0,0,0,13,0,0,-2,118,52,73
32607,0,0,1,79,348,42,25,-9,301,-47,-39,294,0,0,0,0,0,0,13,0,0,-2,120,52,73
32708,0,0,1,79,348,42,25,-9,301,-47,-39,294,0,0,0,0,0,0,13,0,0,-2,123,52,73
32808,0,0,1,83,349,31,27,-9,283,-44,-40,276,0,0,0,0,0,0,13,0,0,-2,125,52,73
32909,0,0,1,83,342,30,26,-10,296,-49,-42,289,0,0,0,0,0,0,13,0,0,-2,125,52,73
33010,0,0,1,83,342,30,26,-10,296,-49,-42,289,0,0,0,0,0,0,13,0,0,-2,129,52,73
33111,0,0,1,83,342,30,26,-10,296,-49,-42,289,0,0,0,0,0,0,13,0,0,-2,132,52,73
33214,0,0,1,83,342,30,26,-10,296,-49,-42,289,0,0,0,0,0,0,13,0,0,-2,133,52,73
33315,0,0,1,82,339,77,25,-10,301,-51,-28,295,0,0,0,0,0,0,13,0,0,-2,136,52,72
33415,0,0,1,83,329,38,25,-11,301,-54,-40,293,0,0,0,0,0,0,13,0,0,-2,138,52,72
33516,0,0,1,83,329,38,25,-11,301,-54,-40,293,0,0,0,0,0,0,13,0,0,-2,138,52,72
33617,0,0,2,83,328,42,27,4,283,19,-37,279,0,0,0,0,0,0,13,0,0,-2,143,52,72
33718,0,0,2,83,328,42,27,4,283,19,-37,279,0,0,0,0,0,0,13,0,0,-2,143,52,72
33826,0,0,2,83,328,42,27,4,283,19,-37,279,0,0,0,0,0,0,13,0,0,-2,145,52,72
33927,0,0,1,83,340,57,27,-10,283,-47,-32,276,0,0,0,0,0,0,13,0,0,-2,150,52,72
34029,0,0,1,83,340,57,27,-10,283,-47,-32,276,0,0,0,0,0,0,13,0,0,-2,152,51,72
34130,0,0,1,83,331,72,25,-10,301,-54,-30,294,0,0,0,0,0,0,13,0,0,-1,154,51,72
34233,0,0,1,83,331,72,25,-10,301,-54,-30,294,0,0,0,0,0,0,13,0,0,-1,155,51,72
34339,0,0,1,83,331,72,25,-10,301,-54,-30,294,0,0,0,0,0,0,13,0,0,0,156,51,73
34441,0,0,1,83,340,76,26,-10,292,-49,-28,286,0,0,0,0,0,0,13,0,0,0,156,51,73
34541,0,0,1,83,334,79,27,-10,278,-49,-25,272,0,0,0,0,0,0,13,0,0,0,156,51,73
34642,0,0,1,83,334,79,27,-10,278,-49,-25,272,0,0,0,0,0,0,13,0,0,0,157,51,73
34744,0,0,1,83,334,79,27,-10,278,-49,-25,272,0,0,0,0,0,0,13,0,0,0,157,51,73
34844,0,0,1,83,337,129,27,-10,287,-49,-11,282,0,0,0,0,0,0,13,0,0,0,156,51,73
34945,0,0,1,83,336,112,26,-10,292,-50,-17,286,0,0,0,0,1,0,13,0,0,0,157,51,73
35045,0,0,1,83,336,90,28,-10,274,-47,-27,268,0,0,0,0,1,0,13,0,0,0,156,51,73
35146,0,0,1,83,334,100,26,-10,292,-51,-25,286,0,0,0,0,1,0,13,0,0,0,157,51,73
35247,0,0,1,83,334,134,25,-10,301,-53,-16,296,0,0,0,0,1,0,13,0,0,0,156,51,73
35347,0,0,1,83,334,134,25,-10,301,-53,-16,296,0,0,0,0,0,-1,13,0,0,0,156,51,72
35448,0,0,1,83,337,112,26,-10,292,-50,-17,286,0,0,0,0,0,-1,13,0,0,0,156,51,72
35548,0,0,1,83,334,123,25,-10,301,-53,-14,296,0,0,0,0,1,0,13,0,0,0,156,51,72
35649,0,0,1,83,337,106,28,-10,274,-47,-22,269,0,0,0,0,1,0,13,0,0,0,156,51,72
35750,0,0,1,83,334,151,26,-10,292,-51,-10,286,0,0,0,0,1,0,13,0,0,0,156,51,72
35850,0,0,1,82,331,81,26,-10,296,-53,-32,290,0,0,0,0,1,0,13,0,0,0,156,51,72
35951,0,0,1,83,336,86,27,-10,278,-48,-28,272,0,0,0,0,0,0,13,0,0,0,156,51,72
36053,0,0,1,82,334,101,27,-10,278,-49,-19,273,0,0,0,0,0,0,13,0,0,0,156,50,72
36154,0,0,1,82,334,101,27,-10,278,-49,-19,273,0,0,0,0,0,0,13,0,0,0,157,50,72
36255,0,0,1,83,329,117,25,-11,311,-56,-16,304,0,0,0,0,0,0,13,0,0,0,157,50,72
36355,0,0,1,83,328,148,23,-11,326,-60,-6,320,0,0,0,0,0,0,13,0,0,0,157,50,73
36457,0,0,1,82,328,125,24,-11,321,-59,-14,314,0,0,0,0,0,0,13,0,0,0,158,50,73
36558,0,0,1,83,323,127,24,-11,321,-61,-13,314,0,0,0,0,0,-1,13,0,0,0,159,50,73
36659,0,0,1,83,323,127,24,-11,321,-61,-13,314,0,0,0,0,1,-1,13,0,0,0,158,50,73
36760,0,0,1,83,316,116,24,-11,316,-62,-22,309,0,0,0,0,0,0,13,0,0,0,159,50,73
36860,0,0,1,83,316,116,24,-11,316,-62,-22,309,0,0,0,0,0,0,13,0,0,0,159,50,73
36962,0,0,1,83,322,135,24,-11,316,-60,-11,309,0,0,0,0,1,0,13,0,0,0,159,50,73
37062,0,0,1,83,322,135,24,-11,316,-60,-11,309,0,0,0,0,1,-1,13,0,0,0,160,50,73
37166,0,0,1,83,322,135,24,-11,316,-60,-11,309,0,0,0,0,1,-1,13,0,0,0,160,50,73
37267,0,0,1,83,323,118,26,-11,292,-55,-20,286,0,0,0,0,1,-1,13,0,0,0,160,50,73
37368,0,0,1,83,323,118,26,-11,292,-55,-20,286,0,0,0,0,1,-1,13,0,0,0,159,50,73
37469,0,0,1,82,320,135,27,-11,283,-54,-14,277,0,0,0,0,1,-1,13,0,0,0,159,50,73
37570,0,0,1,82,320,135,27,-11,283,-54,-14,277,0,0,0,0,1,0,13,0,0,0,159,50,73
37671,0,0,1,82,316,104,26,-11,292,-57,-24,285,0,0,0,0,1,0,13,0,0,0,160,50,73
37773,0,1,1,83,316,117,25,-11,301,-59,-21,294,0,0,0,0,1,0,13,0,0,0,159,50,73
37874,0,1,1,83,316,117,25,-11,301,-59,-21,294,0,0,0,0,1,0,13,0,0,0,159,50,73
37975,0,1,1,83,322,135,27,-11,278,-53,-14,272,0,0,0,0,1,0,13,0,0,0,159,50,73
38077,0,1,1,83,322,135,27,-11,278,-53,-14,272,0,0,0,0,1,0,13,-1,0,0,159,49,73
38177,0,1,1,83,319,135,27,-11,287,-56,-15,281,0,0,0,0,0,0,13,0,0,0,159,49,73
38278,0,1,1,83,319,135,27,-11,287,-56,-15,281,0,0,0,0,1,0,13,0,0,0,159,49,73
38379,0,1,1,83,320,119,26,-11,292,-56,-20,285,0,0,0,0,1,0,13,0,0,0,159,49,73
38480,0,1,1,83,320,119,26,-11,292,-56,-20,285,0,0,0,0,1,0,13,0,0,0,159,49,73
38581,0,1,1,81,323,130,26,-11,296,-56,-17,290,0,0,0,0,1,0,13,0,0,0,159,49,73
38682,0,1,1,81,323,130,26,-11,296,-56,-17,290,0,0,0,0,2,0,13,0,0,0,158,49,73
38783,0,1,2,61,739,130,30,4,257,16,-19,256,0,0,0,0,1,0,13,0,0,0,158,49,73
38884,0,1,2,63,744,133,27,4,287,19,-15,286,0,0,0,0,1,0,13,-1,0,0,158,49,73
38984,0,1,2,63,745,130,30,4,257,18,-14,256,0,0,0,0,0,0,13,-1,0,0,157,49,73
39085,0,1,1,83,333,116,27,-10,283,-50,-15,277,0,0,0,0,0,0,13,-1,0,0,157,49,73
39186,0,1,1,83,331,128,28,-10,274,-49,-11,269,0,0,0,0,1,0,13,0,0,0,157,49,73
39286,0,1,1,83,326,98,27,-11,287,-53,-26,281,0,0,0,0,1,0,13,-1,0,0,157,49,73
39388,0,1,1,83,331,104,27,-10,278,-50,-23,272,0,0,0,0,1,0,13,-1,0,0,157,49,72
39489,0,1,1,83,331,104,27,-10,278,-50,-23,272,0,0,0,0,0,-1,13,-1,0,0,157,49,72
39590,0,1,1,83,328,119,27,-11,283,-52,-14,277,0,0,0,0,1,-1,13,-1,0,0,157,49,72
39690,0,1,1,83,328,104,28,-11,274,-50,-23,268,0,0,0,0,1,0,13,0,0,0,157,49,72
39792,0,1,1,82,328,117,28,-11,274,-50,-19,268,0,0,0,0,1,0,13,0,0,0,157,49,72
39892,0,1,1,83,326,117,27,-11,287,-53,-20,281,0,0,0,0,1,0,13,0,0,0,157,49,72
39993,0,1,1,83,326,117,27,-11,287,-53,-20,281,0,0,0,0,1,0,13,0,0,0,157,49,72
40094,0,1,1,83,322,99,26,-11,292,-55,-26,285,0,0,0,0,1,0,13,0,0,0,157,48,72
40195,0,1,1,83,322,99,26,-11,292,-55,-26,285,0,0,0,0,2,0,13,0,0,0,157,48,72
40296,0,1,1,83,311,131,24,-12,321,-65,-23,313,0,0,0,0,2,0,13,0,0,0,158,48,72
40397,0,1,1,82,305,104,27,-12,287,-60,-29,279,0,0,0,0,1,0,13,0,0,0,158,48,73
40497,0,1,1,78,276,102,27,-14,280,-68,-24,270,0,0,0,0,1,0,13,-1,0,0,158,48,73
40598,0,1,1,70,278,110,26,-14,289,-70,-22,279,0,0,0,0,1,0,13,-1,0,0,158,48,73
40698,0,1,1,72,270,79,25,-15,306,-77,-33,294,0,0,0,0,1,0,13,-1,0,0,158,48,73
40799,0,1,1,75,271,110,24,-15,321,-80,-25,309,0,0,0,0,1,0,13,-1,0,0,158,48,73
40900,0,1,1,74,274,128,23,-14,331,-82,-19,320,0,0,0,0,1,0,13,0,0,0,158,48,73
41000,0,1,1,72,273,99,23,-14,336,-83,-30,324,0,0,0,0,1,0,13,0,0,0,158,48,73
41101,0,1,2,62,747,125,29,3,265,13,-16,264,0,0,0,0,1,0,13,0,0,0,159,48,73
41201,0,1,2,69,745,123,30,2,257,9,-16,256,0,0,0,0,1,0,13,0,0,0,158,48,73
41302,0,1,2,63,747,136,29,3,265,12,-13,264,0,0,0,0,1,0,13,0,0,0,158,48,73
41403,0,1,1,70,278,127,22,-14,342,-83,-20,330,0,0,0,0,1,0,13,0,0,0,158,48,73
41506,0,1,2,66,739,132,26,2,296,9,-16,295,0,0,0,0,1,0,13,0,0,0,157,48,73
41606,0,1,2,62,744,142,28,2,274,9,-12,273,0,0,0,0,1,0,13,0,0,0,157,48,73
41707,0,1,1,70,274,118,23,-14,331,-82,-23,320,0,0,0,0,1,0,13,0,0,0,157,48,73
41808,0,1,1,70,274,95,25,-14,301,-74,-28,290,0,0,0,0,1,0,13,0,0,0,157,48,73
41908,0,1,1,67,276,90,26,-14,298,-73,-29,288,0,0,0,0,1,0,13,0,0,0,156,48,73
42011,0,1,1,62,273,95,26,-14,298,-74,-28,287,0,0,0,0,1,0,13,0,0,0,156,47,73
42112,0,1,1,66,269,90,26,-15,298,-75,-29,287,0,0,0,0,1,0,13,0,0,0,156,47,73
42212,0,1,1,71,273,94,24,-14,316,-78,-30,304,0,0,0,0,1,0,13,0,0,0,156,47,73
42313,0,1,1,71,273,94,24,-14,316,-78,-30,304,0,0,0,0,1,0,13,0,0,0,156,47,73
42414,0,1,1,66,269,100,26,-15,298,-75,-26,287,0,0,0,0,1,0,13,0,0,0,156,47,73
42515,0,1,1,66,269,100,26,-15,298,-75,-26,287,0,0,0,0,1,0,13,0,0,0,156,47,73
42615,0,1,1,69,274,122,24,-14,321,-79,-21,310,0,0,0,0,1,0,13,0,0,0,156,47,73
42716,0,1,1,69,274,122,24,-14,321,-79,-21,310,0,0,0,0,1,0,13,0,0,0,156,47,73
42817,0,1,1,64,273,76,26,-14,294,-73,-33,282,0,0,0,0,1,0,13,0,0,0,155,47,73
42917,0,1,1,68,276,108,24,-14,316,-77,-25,305,0,0,0,0,1,0,13,0,0,0,155,47,73
43018,0,1,1,66,298,130,25,-13,311,-68,-17,302,0,0,0,0,1,0,13,0,0,0,155,47,73
43119,0,1,1,66,298,130,25,-13,311,-68,-17,302,0,0,0,0,1,0,13,0,0,0,155,47,73
43220,0,1,1,70,271,115,21,-15,370,-93,-27,357,0,0,0,0,1,0,13,0,0,0,154,47,73
43321,0,1,1,63,273,101,25,-14,311,-77,-27,300,0,0,0,0,1,0,13,0,0,0,154,47,73
43421,0,1,1,66,278,98,23,-14,326,-79,-29,315,0,0,0,0,1,0,13,0,0,0,154,47,73
43522,0,1,1,68,273,89,25,-14,308,-76,-30,297,0,0,0,0,1,0,13,0,0,0,153,47,73
43623,6,1,1,68,274,92,24,-14,316,-78,-30,304,0,40,0,0,1,0,13,0,0,0,153,47,73
43725,6,1,1,68,274,92,24,-14,316,-78,-30,304,0,40,0,0,1,0,13,-1,0,0,153,47,73
43828,6,1,1,66,274,101,25,-14,311,-77,-21,300,0,40,0,0,0,0,13,-1,0,0,152,47,73
43929,6,1,1,66,274,101,25,-14,311,-77,-21,300,0,40,0,0,-2,0,13,0,0,0,152,47,73
44030,6,1,1,64,295,112,23,-13,331,-74,-7,322,0,40,0,0,-3,0,13,0,0,0,151,46,73
44132,6,1,1,66,274,88,22,-14,342,-84,-4,329,0,40,0,0,-4,0,13,1,0,0,152,46,73
44234,6,1,1,66,274,88,22,-14,342,-84,-4,329,0,40,0,0,-3,0,13,2,0,0,150,46,73
44335,6,1,1,69,273,101,22,-14,342,-85,-6,329,0,40,0,0,-3,0,13,2,0,0,150,46,73
44436,6,1,1,69,273,101,22,-14,342,-85,-6,329,0,40,0,0,-3,0,13,3,0,0,149,46,73
44538,6,1,1,71,271,90,26,-15,294,-73,-8,283,0,0,0,0,-3,0,13,3,0,0,149,46,73
44639,6,1,1,71,271,90,26,-15,294,-73,-8,283,0,38,35,0,-3,0,13,4,0,0,148,46,73
44740,6,1,1,73,261,86,25,-15,311,-81,-10,298,0,40,0,0,-3,0,13,4,0,0,148,46,73
44841,6,1,1,74,264,114,29,-15,265,-69,-10,255,0,0,0,0,-1,0,13,4,0,0,149,46,73
44943,6,1,1,74,264,114,29,-15,265,-69,-10,255,0,34,35,0,0,0,13,4,1,0,149,46,73
45044,6,1,1,74,264,114,29,-15,265,-69,-10,255,0,34,35,0,-1,1,13,4,1,0,150,46,73
45145,6,1,2,61,745,109,32,1,238,5,-10,237,0,30,-35,0,-1,1,13,4,1,0,151,46,73
45246,6,1,2,61,745,109,32,1,238,5,-10,237,0,30,-35,0,0,0,13,4,1,0,152,46,73
45348,6,1,1,72,234,85,30,-17,259,-76,-22,246,0,33,35,0,0,2,13,4,1,0,152,46,73
45449,6,1,1,72,234,85,30,-17,259,-76,-22,246,0,33,35,0,0,1,13,3,1,0,153,46,73
45550,6,1,1,74,226,69,32,-18,241,-73,-25,228,0,31,35,0,-1,-1,13,3,2,0,153,46,73
45656,6,1,1,74,226,69,32,-18,241,-73,-25,228,0,31,35,0,-1,-2,13,3,1,0,153,46,73
45757,6,1,0,74,226,69,0,-18,241,-73,-25,228,0,40,0,0,-2,0,13,4,1,0,154,46,73
45858,6,1,0,74,226,69,0,-18,241,-73,-25,228,0,40,0,0,-2,2,13,4,1,0,155,46,73
45959,6,1,1,68,157,100,35,-23,221,-84,-11,203,0,0,0,0,-1,3,13,4,2,0,156,46,73
46061,6,1,1,68,157,100,35,-23,221,-84,-11,203,0,28,35,0,-1,3,13,4,2,0,156,45,73
46167,6,1,1,68,157,100,35,-23,221,-84,-11,203,0,28,35,0,-2,1,13,4,3,0,155,45,73
46268,6,1,1,67,152,95,41,-23,188,-73,-7,173,0,23,35,0,-2,0,13,4,3,0,156,45,73
46370,6,1,1,71,123,76,36,-25,211,-88,-20,190,0,0,0,0,0,0,13,4,2,0,156,45,73
46476,6,1,1,71,123,76,36,-25,211,-88,-20,190,0,26,35,0,0,1,13,4,2,0,157,45,73
46578,6,1,1,71,123,76,36,-25,211,-88,-20,190,0,26,35,0,0,2,13,3,2,0,157,45,73
46679,6,1,1,64,106,68,33,-26,232,-101,-24,207,0,29,35,0,0,2,13,3,3,0,157,45,73
46786,6,1,1,64,106,68,33,-26,232,-101,-24,207,0,29,35,0,0,0,13,3,3,0,157,45,73
46887,6,1,0,64,106,68,0,-26,232,-101,-24,207,0,40,0,0,0,1,13,2,3,0,158,45,73
46988,6,1,0,64,106,68,0,-26,232,-101,-24,207,0,40,0,0,0,1,13,2,3,0,158,45,73
47089,6,1,0,64,106,68,0,-26,232,-101,-24,207,0,40,0,0,-1,2,13,2,3,0,159,45,73
47190,6,1,0,64,106,68,0,-26,232,-101,-24,207,0,40,0,0,-2,1,13,2,4,0,158,45,73
47291,6,1,0,64,106,68,0,-26,232,-101,-24,207,0,40,0,0,-2,1,13,2,4,0,158,45,73
47392,6,1,0,64,106,68,0,-26,232,-101,-24,207,0,40,0,0,-3,0,13,3,4,0,158,45,73
47494,6,1,0,64,106,68,0,-26,232,-101,-24,207,0,40,0,0,-3,-1,13,3,4,0,158,45,73
47596,6,1,0,64,106,68,0,-26,232,-101,-24,207,0,40,0,0,-3,-1,13,3,4,0,159,45,73
47697,6,1,0,64,106,68,0,-26,232,-101,-24,207,0,40,0,0,-3,-1,13,4,3,0,158,45,73
47798,6,1,0,64,106,68,0,-26,232,-101,-24,207,0,40,0,0,-3,-1,13,4,3,0,158,45,73
47899,6,1,0,64,106,68,0,-26,232,-101,-24,207,0,40,0,0,-3,-1,13,5,3,0,159,45,73
48000,6,1,0,64,106,68,0,-26,232,-101,-24,207,0,40,0,0,-3,-1,13,5,3,0,159,45,73
48101,6,1,0,64,106,68,0,-26,232,-101,-24,207,0,40,0,0,-3,-1,13,5,2,0,158,44,73
48203,0,1,0,64,106,68,0,-26,232,-101,-24,207,0,0,0,0,-3,-1,13,5,2,0,159,44,73
48304,0,1,0,64,106,68,0,-26,232,-101,-24,207,0,0,0,0,-3,-1,13,6,2,0,158,44,73
48404,0,1,0,64,106,68,0,-26,232,-101,-24,207,0,0,0,0,-3,-1,13,6,2,0,159,44,73
48505,0,1,0,64,106,68,0,-26,232,-101,-24,207,0,0,0,0,-2,-1,13,6,2,0,158,44,73
48606,0,1,0,64,106,68,0,-26,232,-101,-24,207,0,0,0,0,0,-1,13,6,2,0,159,44,73
48708,0,1,0,64,106,68,0,-26,232,-101,-24,207,0,0,0,0,0,-1,13,5,1,0,159,44,73
48809,0,1,0,64,106,68,0,-26,232,-101,-24,207,0,0,0,0,1,0,13,5,1,0,159,44,73
48910,0,1,0,64,106,68,0,-26,232,-101,-24,207,0,0,0,0,1,0,13,4,1,0,159,44,73
49010,0,1,0,64,106,68,0,-26,232,-101,-24,207,0,0,0,0,1,0,13,4,1,0,158,44,73
49114,0,1,0,64,106,68,0,-26,232,-101,-24,207,0,0,0,0,1,0,13,3,0,0,158,44,73
49215,0,1,0,64,106,68,0,-26,232,-101,-24,207,0,0,0,0,1,0,13,3,0,0,157,44,73
49316,0,1,0,64,106,68,0,-26,232,-101,-24,207,0,0,0,0,1,0,13,2,0,0,156,44,73
49418,0,1,0,64,106,68,0,-26,232,-101,-24,207,0,0,0,0,1,0,13,2,0,0,156,44,73
49518,0,1,1,61,410,76,70,-5,109,-9,-10,107,0,0,0,0,0,0,13,2,0,0,153,44,72
49619,0,1,1,61,410,76,70,-5,109,-9,-10,107,0,0,0,0,0,0,13,1,0,0,149,44,72
49720,0,1,0,61,410,76,0,-5,109,-9,-10,107,0,0,0,0,2,0,13,1,0,0,124,44,72
49820,0,1,0,61,410,76,0,-5,109,-9,-10,107,0,0,0,0,3,0,13,0,0,0,70,44,72
49921,0,1,0,61,410,76,0,-5,109,-9,-10,107,0,0,0,0,3,-1,14,0,0,0,69,44,72
50022,0,1,0,61,410,76,0,-5,109,-9,-10,107,0,0,0,0,-1,1,13,0,0,0,96,43,72
50122,0,1,0,61,410,76,0,-5,109,-9,-10,107,0,0,0,0,-2,0,13,0,0,0,142,43,72
50223,0,1,0,61,410,76,0,-5,109,-9,-10,107,0,0,0,0,0,0,13,0,0,0,130,43,72
50324,0,1,0,61,410,76,0,-5,109,-9,-10,107,0,0,0,0,0,0,13,0,0,0,113,43,72
50425,0,1,0,61,410,76,0,-5,109,-9,-10,107,0,0,0,0,0,-1,13,0,0,0,112,43,73
50525,0,1,0,61,410,76,0,-5,109,-9,-10,107,0,0,0,0,1,-1,13,0,0,0,109,43,73
50626,0,1,0,61,410,76,0,-5,109,-9,-10,107,0,0,0,0,0,0,13,0,0,0,112,43,73
50727,0,1,0,61,410,76,0,-5,109,-9,-10,107,0,0,0,0,0,0,13,0,0,0,122,43,73
50828,0,1,1,61,390,120,109,-6,70,-7,-3,68,0,0,0,0,0,0,13,0,0,0,132,43,73
50931,0,1,1,61,390,120,109,-6,70,-7,-3,68,0,0,0,0,0,0,13,0,0,0,132,43,73
51031,0,1,0,61,390,120,0,-6,70,-7,-3,68,0,0,0,0,0,0,13,0,0,0,132,43,73
51132,0,1,0,61,390,120,0,-6,70,-7,-3,68,0,0,0,0,0,0,13,0,0,0,135,43,73
51233,0,1,0,61,390,120,0,-6,70,-7,-3,68,0,0,0,0,0,0,13,0,0,0,138,43,73
51334,0,1,0,61,390,120,0,-6,70,-7,-3,68,0,0,0,0,0,0,13,0,0,0,141,43,73
51434,0,1,0,61,390,120,0,-6,70,-7,-3,68,0,0,0,0,0,0,13,0,0,0,142,43,73
51535,0,1,1,61,369,118,103,-8,74,-9,-3,73,0,0,0,0,0,0,13,0,0,0,142,43,73
51635,0,1,1,61,369,118,103,-8,74,-9,-3,73,0,0,0,0,0,0,13,0,0,0,142,43,73
51736,0,1,0,61,369,118,0,-8,74,-9,-3,73,0,0,0,0,0,0,13,0,0,0,145,43,73
51837,0,1,0,61,369,118,0,-8,74,-9,-3,73,0,0,0,0,0,0,13,0,0,0,147,43,73
51937,0,1,0,61,369,118,0,-8,74,-9,-3,73,0,0,0,0,0,0,13,0,0,0,147,43,73
52039,0,1,0,61,369,118,0,-8,74,-9,-3,73,0,0,0,0,0,0,13,0,0,0,143,42,73
52139,0,1,0,61,369,118,0,-8,74,-9,-3,73,0,0,0,0,0,0,13,0,0,0,141,42,73
52240,0,1,0,61,369,118,0,-8,74,-9,-3,73,0,0,0,0,0,0,13,0,0,0,141,42,73
52341,0,1,0,61,369,118,0,-8,74,-9,-3,73,0,0,0,0,0,0,13,0,0,0,144,42,73
52442,0,1,0,61,369,118,0,-8,74,-9,-3,73,0,0,0,0,0,0,13,0,0,0,144,42,73
52543,0,1,0,61,369,118,0,-8,74,-9,-3,73,0,0,0,0,0,0,13,0,0,0,144,42,73
52643,0,1,0,61,369,118,0,-8,74,-9,-3,73,0,0,0,0,0,0,13,0,0,0,147,42,73
52744,0,1,0,61,369,118,0,-8,74,-9,-3,73,0,0,0,0,0,0,13,0,0,0,152,42,73
52845,0,1,0,61,369,118,0,-8,74,-9,-3,73,0,0,0,0,0,0,13,0,0,0,153,42,73
52946,0,1,0,61,369,118,0,-8,74,-9,-3,73,0,0,0,0,0,0,13,0,0,0,154,42,73
53046,0,1,0,61,369,118,0,-8,74,-9,-3,73,0,0,0,0,0,0,13,0,0,0,153,42,73
53147,0,2,0,61,369,118,0,-8,74,-9,-3,73,0,0,0,0,0,0,13,0,0,0,153,42,73
53249,0,2,0,61,369,118,0,-8,74,-9,-3,73,0,0,0,0,0,0,13,0,0,0,154,42,73
53350,0,2,0,61,369,118,0,-8,74,-9,-3,73,0,0,0,0,0,0,13,0,0,0,154,42,73
53452,0,2,0,61,369,118,0,-8,74,-9,-3,73,0,0,0,0,0,0,13,0,0,0,154,42,73
53553,0,2,0,61,369,118,0,-8,74,-9,-3,73,0,0,0,0,0,0,13,0,0,0,153,42,73
53656,0,2,0,61,369,118,0,-8,74,-9,-3,73,0,0,0,0,0,0,13,0,0,0,153,42,73
53757,0,2,0,61,369,118,0,-8,74,-9,-3,73,0,0,0,0,0,0,13,0,0,0,152,42,73
53858,0,2,0,61,369,118,0,-8,74,-9,-3,73,0,0,0,0,0,0,13,0,0,0,152,42,73
53958,0,2,1,61,390,116,101,-6,75,-8,-4,74,0,0,0,0,0,0,13,0,0,0,151,42,73
54059,0,2,0,61,390,116,0,-6,75,-8,-4,74,0,0,0,0,0,0,13,0,0,0,150,41,73
54160,0,2,0,61,390,116,0,-6,75,-8,-4,74,0,0,0,0,0,0,13,0,0,0,148,41,73
54262,0,2,0,61,390,116,0,-6,75,-8,-4,74,0,0,0,0,0,0,13,0,0,0,148,41,73
54363,0,2,0,61,390,116,0,-6,75,-8,-4,74,0,0,0,0,0,0,13,0,0,0,147,41,73
54464,0,2,0,61,390,116,0,-6,75,-8,-4,74,0,0,0,0,0,0,13,0,0,1,146,41,73
54565,0,2,0,61,390,116,0,-6,75,-8,-4,74,0,0,0,0,0,0,13,0,0,2,143,41,73
54665,0,2,0,61,390,116,0,-6,75,-8,-4,74,0,0,0,0,0,0,13,0,0,3,141,41,73
54766,0,2,0,61,390,116,0,-6,75,-8,-4,74,0,0,0,0,0,0,13,0,0,4,137,41,73
54867,0,2,0,61,390,116,0,-6,75,-8,-4,74,0,0,0,0,0,1,13,1,0,5,130,41,73
54967,0,2,0,61,390,116,0,-6,75,-8,-4,74,0,0,0,0,2,1,13,0,0,6,120,41,73
55068,0,2,0,61,390,116,0,-6,75,-8,-4,74,0,0,0,0,1,0,13,0,0,7,119,41,73
55169,0,2,0,61,390,116,0,-6,75,-8,-4,74,0,0,0,0,0,0,13,0,0,7,114,41,73
55269,0,2,0,61,390,116,0,-6,75,-8,-4,74,0,0,0,0,0,0,13,0,0,8,107,41,73
55370,0,2,0,61,390,116,0,-6,75,-8,-4,74,0,0,0,0,-1,0,13,0,0,8,99,41,73
55471,0,2,0,61,390,116,0,-6,75,-8,-4,74,0,0,0,0,0,0,13,0,0,8,92,41,73
55571,0,2,0,61,390,116,0,-6,75,-8,-4,74,0,0,0,0,0,0,13,0,0,7,85,41,73
55672,0,2,0,61,390,116,0,-6,75,-8,-4,74,0,0,0,0,0,-1,13,0,1,7,78,41,73
55772,0,2,0,61,390,116,0,-6,75,-8,-4,74,0,0,0,0,1,-2,13,0,0,6,72,41,73
55873,0,2,0,61,390,116,0,-6,75,-8,-4,74,0,0,0,0,1,-1,13,0,0,5,67,41,73
55974,0,2,0,61,390,116,0,-6,75,-8,-4,74,0,0,0,0,3,0,13,0,0,5,63,40,73
56074,0,2,0,61,390,116,0,-6,75,-8,-4,74,0,0,0,0,2,0,13,0,0,4,59,40,73
56175,0,2,0,61,390,116,0,-6,75,-8,-4,74,0,0,0,0,0,-1,13,0,0,3,55,40,73
56276,0,2,0,61,390,116,0,-6,75,-8,-4,74,0,0,0,0,-1,-1,14,0,0,3,50,40,73
56386,0,2,0,61,390,116,0,-6,75,-8,-4,74,0,0,0,0,1,0,13,0,0,3,46,40,73
56487,0,2,0,61,390,116,0,-6,75,-8,-4,74,0,0,0,0,0,-1,13,0,0,4,42,40,73
56588,0,2,0,61,390,116,0,-6,75,-8,-4,74,0,0,0,0,-1,-2,13,0,0,4,37,40,73
56688,0,2,0,61,390,116,0,-6,75,-8,-4,74,0,0,0,0,0,-1,13,0,0,4,32,40,73
56789,0,2,0,61,390,116,0,-6,75,-8,-4,74,0,0,0,0,1,-1,13,0,0,4,30,40,73
56889,0,2,0,61,390,116,0,-6,75,-8,-4,74,0,0,0,0,0,-1,13,0,0,4,25,40,73
56992,0,2,0,61,390,116,0,-6,75,-8,-4,74,0,0,0,0,0,0,13,0,0,4,19,40,73
57093,0,2,0,61,390,116,0,-6,75,-8,-4,74,0,0,0,0,0,0,13,0,0,4,14,40,73
57193,0,2,0,61,390,116,0,-6,75,-8,-4,74,0,0,0,0,0,0,13,0,0,4,11,40,73
57294,0,2,0,61,390,116,0,-6,75,-8,-4,74,0,0,0,0,0,0,13,0,0,4,14,40,73
57395,0,2,0,61,390,116,0,-6,75,-8,-4,74,0,0,0,0,0,0,13,0,0,3,14,40,73
57496,0,2,0,61,390,116,0,-6,75,-8,-4,74,0,0,0,0,3,1,13,0,0,-1,10,40,73
57597,0,2,0,61,390,116,0,-6,75,-8,-4,74,0,0,0,0,0,0,14,0,0,0,10,40,73
57698,0,2,0,61,390,116,0,-6,75,-8,-4,74,0,0,0,0,0,0,14,0,0,-1,10,40,73
57799,0,2,0,61,390,116,0,-6,75,-8,-4,74,0,0,0,0,0,0,14,0,0,0,10,40,73
57900,0,2,0,61,390,116,0,-6,75,-8,-4,74,0,0,0,0,0,0,14,0,0,0,10,40,73
58001,0,2,0,61,390,116,0,-6,75,-8,-4,74,0,0,0,0,0,0,14,0,0,0,10,39,73
58101,0,2,0,61,390,116,0,-6,75,-8,-4,74,0,0,0,0,0,0,14,0,0,0,10,39,73
58202,0,2,0,61,390,116,0,-6,75,-8,-4,74,0,0,0,0,0,0,14,0,0,0,10,39,73
58303,0,2,0,61,390,116,0,-6,75,-8,-4,74,0,0,0,0,0,0,14,0,0,0,10,39,73
58404,0,2,0,61,390,116,0,-6,75,-8,-4,74,0,0,0,0,0,0,14,0,0,0,10,39,73
58505,0,2,0,61,390,116,0,-6,75,-8,-4,74,0,0,0,0,0,0,14,0,0,0,10,39,73
58606,0,2,0,61,390,116,0,-6,75,-8,-4,74,0,0,0,0,0,0,14,0,0,0,10,39,73
58706,0,2,0,61,390,116,0,-6,75,-8,-4,74,0,0,0,0,0,0,14,0,0,0,10,39,73
58807,0,2,0,61,390,116,0,-6,75,-8,-4,74,0,0,0,0,0,0,14,0,0,0,10,39,73
58908,0,2,0,61,390,116,0,-6,75,-8,-4,74,0,0,0,0,0,0,14,0,0,0,10,39,73
59009,0,2,0,61,390,116,0,-6,75,-8,-4,74,0,0,0,0,0,0,14,0,0,0,10,39,73
59110,0,2,0,61,390,116,0,-6,75,-8,-4,74,0,0,0,0,0,0,14,0,0,0,10,39,73
59211,0,2,0,61,390,116,0,-6,75,-8,-4,74,0,0,0,0,0,0,14,0,0,0,10,39,73
59311,0,2,0,61,390,116,0,-6,75,-8,-4,74,0,0,0,0,0,0,14,0,0,0,10,39,73
59412,0,2,0,61,390,116,0,-6,75,-8,-4,74,0,0,0,0,0,0,14,0,0,0,10,39,73
59513,0,2,0,61,390,116,0,-6,75,-8,-4,74,0,0,0,0,0,0,14,0,0,0,10,39,73
59614,0,2,0,61,390,116,0,-6,75,-8,-4,74,0,0,0,0,0,0,14,0,0,0,10,39,73
59715,0,2,0,61,390,116,0,-6,75,-8,-4,74,0,0,0,0,0,0,14,0,0,0,10,39,73
59815,0,2,0,61,390,116,0,-6,75,-8,-4,74,0,0,0,0,0,0,14,0,0,0,10,39,73
59916,0,2,0,61,390,116,0,-6,75,-8,-4,74,0,0,0,0,0,0,14,0,0,0,10,39,73
60017,0,2,0,61,390,116,0,-6,75,-8,-4,74,0,0,0,0,0,0,14,0,0,0,10,38,73
60117,0,2,0,61,390,116,0,-6,75,-8,-4,74,0,0,0,0,0,0,14,0,0,0,10,38,73
60220,0,2,0,61,390,116,0,-6,75,-8,-4,74,0,0,0,0,0,0,14,0,0,0,10,38,73
60321,0,2,0,61,390,116,0,-6,75,-8,-4,74,0,0,0,0,0,0,14,0,0,0,10,38,73
60423,0,2,0,61,390,116,0,-6,75,-8,-4,74,0,0,0,0,0,0,14,0,0,0,10,38,73
60524,0,2,0,61,390,116,0,-6,75,-8,-4,74,0,0,0,0,0,0,14,0,0,0,10,38,73
60625,0,2,0,61,390,116,0,-6,75,-8,-4,74,0,0,0,0,0,0,14,0,0,0,10,38,73
60731,0,2,0,61,390,116,0,-6,75,-8,-4,74,0,0,0,0,0,0,14,0,0,0,10,38,73
60832,0,2,0,61,390,116,0,-6,75,-8,-4,74,0,0,0,0,0,0,14,0,0,0,10,38,73
60933,0,2,0,61,390,116,0,-6,75,-8,-4,74,0,0,0,0,0,0,14,0,0,0,10,38,73
61034,0,2,0,61,390,116,0,-6,75,-8,-4,74,0,0,0,0,0,0,14,0,0,0,10,38,73
61134,0,2,0,61,390,116,0,-6,75,-8,-4,74,0,0,0,0,0,0,14,0,0,0,10,38,73
61235,0,2,0,61,390,116,0,-6,75,-8,-4,74,0,0,0,0,0,0,14,0,0,0,10,38,73
61336,0,2,0,61,390,116,0,-6,75,-8,-4,74,0,0,0,0,0,0,14,0,0,0,10,38,73
61437,0,2,0,61,390,116,0,-6,75,-8,-4,74,0,0,0,0,0,0,14,0,0,0,10,38,73
61537,0,2,0,61,390,116,0,-6,75,-8,-4,74,0,0,0,0,0,0,14,0,0,0,10,38,73
61638,0,2,0,61,390,116,0,-6,75,-8,-4,74,0,0,0,0,0,0,14,0,0,0,10,38,73
61738,0,2,0,61,390,116,0,-6,75,-8,-4,74,0,0,0,0,0,0,14,0,0,0,10,38,73
61839,0,2,0,61,390,116,0,-6,75,-8,-4,74,0,0,0,0,0,0,14,0,0,0,10,38,73
61940,0,2,0,61,390,116,0,-6,75,-8,-4,74,0,0,0,0,0,0,14,0,0,0,10,38,73
62041,0,2,0,61,390,116,0,-6,75,-8,-4,74,0,0,0,0,0,0,14,0,0,0,10,37,73
62142,0,2,0,61,390,116,0,-6,75,-8,-4,74,0,0,0,0,0,0,14,0,0,0,10,37,73
62243,0,2,0,61,390,116,0,-6,75,-8,-4,74,0,0,0,0,0,0,14,0,0,0,10,37,73
62343,0,2,0,61,390,116,0,-6,75,-8,-4,74,0,0,0,0,0,0,14,0,0,0,10,37,73
62444,0,2,0,61,390,116,0,-6,75,-8,-4,74,0,0,0,0,0,0,14,0,0,0,10,37,73
62544,0,2,0,61,390,116,0,-6,75,-8,-4,74,0,0,0,0,0,0,14,0,0,0,10,37,73
62645,0,2,0,61,390,116,0,-6,75,-8,-4,74,0,0,0,0,0,0,14,0,0,0,10,37,73
62746,0,2,0,61,390,116,0,-6,75,-8,-4,74,0,0,0,0,0,0,14,0,0,0,10,37,73
62847,0,2,0,61,390,116,0,-6,75,-8,-4,74,0,0,0,0,0,0,14,0,0,0,10,37,73
62947,0,2,0,61,390,116,0,-6,75,-8,-4,74,0,0,0,0,0,0,14,0,0,0,10,37,73
63048,0,2,0,61,390,116,0,-6,75,-8,-4,74,0,0,0,0,0,0,14,0,0,0,10,37,73
63156,0,2,0,61,390,116,0,-6,75,-8,-4,74,0,0,0,0,0,0,14,0,0,0,10,37,73
63257,0,2,0,61,390,116,0,-6,75,-8,-4,74,0,0,0,0,0,0,14,0,0,0,10,37,73
63358,0,2,0,61,390,116,0,-6,75,-8,-4,74,0,0,0,0,0,0,14,0,0,0,10,37,73
63461,0,2,0,61,390,116,0,-6,75,-8,-4,74,0,0,0,0,0,0,14,0,0,0,10,37,73
63561,0,2,0,61,390,116,0,-6,75,-8,-4,74,0,0,0,0,0,0,14,0,0,0,10,37,75
63662,0,2,0,61,390,116,0,-6,75,-8,-4,74,0,0,0,0,0,0,14,0,0,0,10,37,75
63763,0,2,0,61,390,116,0,-6,75,-8,-4,74,0,0,0,0,0,0,14,0,0,0,10,37,75
63863,0,2,0,61,390,116,0,-6,75,-8,-4,74,0,0,0,0,0,0,14,0,0,0,10,37,75
63964,0,2,0,61,390,116,0,-6,75,-8,-4,74,0,0,0,0,0,0,14,0,0,0,10,37,75
64066,0,2,0,61,390,116,0,-6,75,-8,-4,74,0,0,0,0,0,0,14,0,0,0,10,36,75
64167,0,2,0,61,390,116,0,-6,75,-8,-4,74,0,0,0,0,0,0,14,0,0,0,10,36,75
64268,0,2,0,61,390,116,0,-6,75,-8,-4,74,0,0,0,0,0,0,14,0,0,0,10,36,75
64369,0,2,0,61,390,116,0,-6,75,-8,-4,74,0,0,0,0,0,0,14,0,0,0,10,36,75
64470,0,2,0,61,390,116,0,-6,75,-8,-4,74,0,0,0,0,0,0,14,0,0,0,10,36,75
64570,0,2,0,61,390,116,0,-6,75,-8,-4,74,0,0,0,0,0,0,14,0,0,0,10,36,74
64671,0,2,0,61,390,116,0,-6,75,-8,-4,74,0,0,0,0,0,0,14,0,0,0,10,36,74
64772,0,2,0,61,390,116,0,-6,75,-8,-4,74,0,0,0,0,0,0,14,0,0,0,10,36,74
64873,0,2,0,61,390,116,0,-6,75,-8,-4,74,0,0,0,0,0,0,14,0,0,0,10,36,74
64974,0,2,0,61,390,116,0,-6,75,-8,-4,74,0,0,0,0,0,0,14,0,0,0,10,36,74
65075,0,2,0,61,390,116,0,-6,75,-8,-4,74,0,0,0,0,0,0,14,0,0,0,10,36,74
65176,0,2,0,61,390,116,0,-6,75,-8,-4,74,0,0,0,0,0,0,14,0,0,0,10,36,74
65277,0,2,0,61,390,116,0,-6,75,-8,-4,74,0,0,0,0,0,0,14,0,0,0,10,36,74
65380,0,2,0,61,390,116,0,-6,75,-8,-4,74,0,0,0,0,0,0,14,0,0,0,10,36,74
65483,0,2,0,61,390,116,0,-6,75,-8,-4,74,0,0,0,0,0,0,14,0,0,0,10,36,74
65584,0,2,0,61,390,116,0,-6,75,-8,-4,74,0,0,0,0,0,0,14,0,0,0,10,36,74
65685,0,2,0,61,390,116,0,-6,75,-8,-4,74,0,0,0,0,0,0,14,0,0,0,10,36,74
65785,0,2,0,61,390,116,0,-6,75,-8,-4,74,0,0,0,0,0,0,14,0,0,0,10,36,74
65886,0,2,0,61,390,116,0,-6,75,-8,-4,74,0,0,0,0,0,0,14,0,0,0,10,36,74
65987,0,2,0,61,390,116,0,-6,75,-8,-4,74,0,0,0,0,0,0,14,0,0,0,10,36,74
66088,0,2,0,61,390,116,0,-6,75,-8,-4,74,0,0,0,0,0,0,14,0,0,0,10,35,74
66189,0,2,0,61,390,116,0,-6,75,-8,-4,74,0,0,0,0,0,0,14,0,0,0,10,35,74
66290,0,2,0,61,390,116,0,-6,75,-8,-4,74,0,0,0,0,0,0,14,0,0,0,10,35,74
66391,0,2,0,61,390,116,0,-6,75,-8,-4,74,0,0,0,0,0,0,14,0,0,0,10,35,74
66492,0,2,0,61,390,116,0,-6,75,-8,-4,74,0,0,0,0,0,0,14,0,0,0,10,35,74
66594,0,2,0,61,390,116,0,-6,75,-8,-4,74,0,0,0,0,0,0,14,0,0,0,10,35,73
66696,0,2,0,61,390,116,0,-6,75,-8,-4,74,0,0,0,0,0,0,14,0,0,0,10,35,73
66797,0,2,0,61,390,116,0,-6,75,-8,-4,74,0,0,0,0,0,0,14,0,0,0,10,35,73
66898,0,2,0,61,390,116,0,-6,75,-8,-4,74,0,0,0,0,0,0,14,0,0,0,10,35,73
66999,0,2,0,61,390,116,0,-6,75,-8,-4,74,0,0,0,0,0,0,14,0,0,0,10,35,73
67099,0,2,0,61,390,116,0,-6,75,-8,-4,74,0,0,0,0,0,0,14,0,0,0,10,35,73
67200,0,2,0,61,390,116,0,-6,75,-8,-4,74,0,0,0,0,0,0,14,0,0,0,10,35,73
67301,0,2,0,61,390,116,0,-6,75,-8,-4,74,0,0,0,0,0,0,14,0,0,0,10,35,73
67402,0,2,0,61,390,116,0,-6,75,-8,-4,74,0,0,0,0,0,0,14,0,0,0,10,35,73
67503,0,2,0,61,390,116,0,-6,75,-8,-4,74,0,0,0,0,0,0,14,0,0,0,10,35,74
67606,0,2,0,61,390,116,0,-6,75,-8,-4,74,0,0,0,0,0,0,14,0,0,0,10,35,74
67707,0,2,0,61,390,116,0,-6,75,-8,-4,74,0,0,0,0,0,0,14,0,0,0,10,35,74
67808,0,2,0,61,390,116,0,-6,75,-8,-4,74,0,0,0,0,0,0,14,0,0,0,10,35,74
67909,0,2,0,61,390,116,0,-6,75,-8,-4,74,0,0,0,0,0,0,14,0,0,0,10,35,74
68010,0,2,0,61,390,116,0,-6,75,-8,-4,74,0,0,0,0,0,0,14,0,0,0,10,34,74
68111,0,2,0,61,390,116,0,-6,75,-8,-4,74,0,0,0,0,0,0,14,0,0,0,10,34,74
68211,0,2,0,61,390,116,0,-6,75,-8,-4,74,0,0,0,0,0,0,14,0,0,0,10,34,74
68312,0,2,0,61,390,116,0,-6,75,-8,-4,74,0,0,0,0,0,0,14,0,0,0,10,34,74
68412,0,2,0,61,390,116,0,-6,75,-8,-4,74,0,0,0,0,0,0,14,0,0,0,10,34,74
68513,0,2,0,61,390,116,0,-6,75,-8,-4,74,0,0,0,0,0,0,14,0,0,0,10,34,74
68614,0,2,0,61,390,116,0,-6,75,-8,-4,74,0,0,0,0,0,0,14,0,0,0,10,34,74
68716,0,2,0,61,390,116,0,-6,75,-8,-4,74,0,0,0,0,0,0,14,0,0,0,10,34,74
68817,0,2,0,61,390,116,0,-6,75,-8,-4,74,0,0,0,0,0,0,14,0,0,0,10,34,74
68918,0,2,0,61,390,116,0,-6,75,-8,-4,74,0,0,0,0,0,0,14,0,0,0,10,34,74
69019,0,2,0,61,390,116,0,-6,75,-8,-4,74,0,0,0,0,0,0,14,0,0,0,10,34,74
69120,0,2,0,61,390,116,0,-6,75,-8,-4,74,0,0,0,0,0,0,14,0,0,0,10,34,74
69222,0,2,0,61,390,116,0,-6,75,-8,-4,74,0,0,0,0,0,0,14,0,0,0,10,34,74
69323,0,2,0,61,390,116,0,-6,75,-8,-4,74,0,0,0,0,0,0,14,0,0,0,10,34,74
69423,0,2,0,61,390,116,0,-6,75,-8,-4,74,0,0,0,0,0,0,14,0,0,0,10,34,74
69527,0,2,0,61,390,116,0,-6,75,-8,-4,74,0,0,0,0,0,0,14,0,0,0,10,34,74
69627,0,2,0,61,390,116,0,-6,75,-8,-4,74,0,0,0,0,0,0,14,0,0,0,10,34,74
69728,0,2,0,61,390,116,0,-6,75,-8,-4,74,0,0,0,0,0,0,14,0,0,0,10,34,74
69829,0,2,0,61,390,116,0,-6,75,-8,-4,74,0,0,0,0,0,0,14,0,0,0,10,34,74
69929,0,2,0,61,390,116,0,-6,75,-8,-4,74,0,0,0,0,0,0,14,0,0,0,10,34,74
70030,0,2,0,61,390,116,0,-6,75,-8,-4,74,0,0,0,0,0,0,14,0,0,0,10,34,74
70131,0,2,0,61,390,116,0,-6,75,-8,-4,74,0,0,0,0,0,0,14,0,0,0,10,33,74
70232,0,2,0,61,390,116,0,-6,75,-8,-4,74,0,0,0,0,0,0,14,0,0,0,10,33,74
70333,0,2,0,61,390,116,0,-6,75,-8,-4,74,0,0,0,0,0,0,14,0,0,0,10,33,74
70433,0,2,0,61,390,116,0,-6,75,-8,-4,74,0,0,0,0,0,0,14,0,0,0,10,33,74
70534,0,2,0,61,390,116,0,-6,75,-8,-4,74,0,0,0,0,0,0,14,0,0,0,10,33,75
70636,0,2,0,61,390,116,0,-6,75,-8,-4,74,0,0,0,0,0,0,14,0,0,0,10,33,75
70737,0,2,0,61,390,116,0,-6,75,-8,-4,74,0,0,0,0,0,0,14,0,0,0,10,33,75
70838,0,2,0,61,390,116,0,-6,75,-8,-4,74,0,0,0,0,0,0,14,0,0,0,10,33,75
70940,0,2,0,61,390,116,0,-6,75,-8,-4,74,0,0,0,0,0,0,14,0,0,0,10,33,75
71042,0,2,0,61,390,116,0,-6,75,-8,-4,74,0,0,0,0,0,0,14,0,0,0,10,33,75
71143,0,2,0,61,390,116,0,-6,75,-8,-4,74,0,0,0,0,0,0,14,0,0,0,10,33,75
71243,0,2,0,61,390,116,0,-6,75,-8,-4,74,0,0,0,0,0,0,14,0,0,0,10,33,75
71344,0,2,0,61,390,116,0,-6,75,-8,-4,74,0,0,0,0,0,0,14,0,0,0,10,33,75
71445,0,2,0,61,390,116,0,-6,75,-8,-4,74,0,0,0,0,0,0,14,0,0,0,10,33,75
71546,0,2,0,61,390,116,0,-6,75,-8,-4,74,0,0,0,0,0,0,14,0,0,0,10,33,75
71647,0,2,0,61,390,116,0,-6,75,-8,-4,74,0,0,0,0,0,0,14,0,0,0,10,33,75
71748,0,2,0,61,390,116,0,-6,75,-8,-4,74,0,0,0,0,0,0,14,0,0,0,10,33,75
71849,0,2,0,61,390,116,0,-6,75,-8,-4,74,0,0,0,0,0,0,14,0,0,0,10,33,75
71949,0,2,0,61,390,116,0,-6,75,-8,-4,74,0,0,0,0,0,0,14,0,0,0,10,33,75
72050,0,2,0,61,390,116,0,-6,75,-8,-4,74,0,0,0,0,0,0,14,0,0,0,10,33,75
72151,0,2,0,61,390,116,0,-6,75,-8,-4,74,0,0,0,0,0,0,14,0,0,0,10,32,75
72252,0,2,0,61,390,116,0,-6,75,-8,-4,74,0,0,0,0,0,0,14,0,0,0,10,32,75
72353,0,2,0,61,390,116,0,-6,75,-8,-4,74,0,0,0,0,0,0,14,0,0,0,10,32,75
72454,0,2,0,61,390,116,0,-6,75,-8,-4,74,0,0,0,0,0,0,14,0,0,0,10,32,75
72555,0,2,0,61,390,116,0,-6,75,-8,-4,74,0,0,0,0,0,0,14,0,0,0,10,32,75
72656,0,2,0,61,390,116,0,-6,75,-8,-4,74,0,0,0,0,0,0,14,0,0,0,10,32,75
72757,0,2,0,61,390,116,0,-6,75,-8,-4,74,0,0,0,0,0,0,14,0,0,0,10,32,75
72858,0,2,0,61,390,116,0,-6,75,-8,-4,74,0,0,0,0,0,0,14,0,0,0,10,32,75
72958,0,2,0,61,390,116,0,-6,75,-8,-4,74,0,0,0,0,0,0,14,0,0,0,10,32,75
73059,0,2,0,61,390,116,0,-6,75,-8,-4,74,0,0,0,0,0,0,14,0,0,0,10,32,75
73160,0,2,0,61,390,116,0,-6,75,-8,-4,74,0,0,0,0,0,0,14,0,0,0,10,32,75
73262,0,2,0,61,390,116,0,-6,75,-8,-4,74,0,0,0,0,0,0,14,0,0,0,10,32,75
73362,0,2,0,61,390,116,0,-6,75,-8,-4,74,0,0,0,0,0,0,14,0,0,0,10,32,75
73463,0,2,0,61,390,116,0,-6,75,-8,-4,74,0,0,0,0,2,1,0,-1,0,-4,10,32,75
73564,0,2,0,61,390,116,0,-6,75,-8,-4,74,0,0,0,0,2,1,0,-1,0,-4,10,32,75
73665,0,2,0,61,390,116,0,-6,75,-8,-4,74,0,0,0,0,6,1,-9,-2,0,-6,10,32,76
73766,0,2,0,61,390,116,0,-6,75,-8,-4,74,0,0,0,0,8,3,-11,-3,-1,-7,10,32,76
73868,0,2,0,61,390,116,0,-6,75,-8,-4,74,0,0,0,0,9,4,-12,-4,-1,-8,10,32,76
73969,0,2,0,61,390,116,0,-6,75,-8,-4,74,0,0,0,0,9,6,-18,-6,-2,-8,36,32,76
74070,0,2,0,61,390,116,0,-6,75,-8,-4,74,0,0,0,0,8,11,-22,-8,-4,-7,53,31,76
74176,0,2,0,61,390,116,0,-6,75,-8,-4,74,0,0,0,0,8,13,-24,-9,-5,-5,60,31,76
74277,0,2,0,61,390,116,0,-6,75,-8,-4,74,0,0,0,0,9,13,-19,-10,-5,-3,64,31,76
74378,0,2,0,61,390,116,0,-6,75,-8,-4,74,0,0,0,0,8,13,-15,-9,-6,-1,66,31,76
74479,0,2,0,61,390,116,0,-6,75,-8,-4,74,0,0,0,0,8,14,-12,-9,-7,-1,68,31,76
74579,0,2,0,61,390,116,0,-6,75,-8,-4,74,0,0,0,0,9,12,-7,-8,-7,-1,69,31,75
74694,0,2,0,61,390,116,0,-6,75,-8,-4,74,0,0,0,0,10,11,-5,-8,-8,0,70,31,75
74795,0,2,0,61,390,116,0,-6,75,-8,-4,74,0,0,0,0,11,11,-5,-8,-7,-1,70,31,75
74896,0,2,0,61,390,116,0,-6,75,-8,-4,74,0,0,0,0,10,9,-1,-6,-7,-1,71,31,75
74998,0,2,0,61,390,116,0,-6,75,-8,-4,74,0,0,0,0,10,11,1,-5,-7,-1,73,31,75
75099,0,2,0,61,390,116,0,-6,75,-8,-4,74,0,0,0,0,8,12,8,-4,-5,-1,74,31,75
75200,0,2,0,61,390,116,0,-6,75,-8,-4,74,0,0,0,0,9,12,11,-3,-4,-1,75,31,75
75301,0,2,0,61,390,116,0,-6,75,-8,-4,74,0,0,0,0,8,10,16,-3,-3,0,75,31,75
75402,0,2,0,61,390,116,0,-6,75,-8,-4,74,0,0,0,0,8,8,18,-4,-3,0,74,31,75
75502,0,2,0,61,390,116,0,-6,75,-8,-4,74,0,0,0,0,8,9,20,-3,-4,0,76,31,75
75606,0,2,0,61,390,116,0,-6,75,-8,-4,74,0,0,0,0,9,10,20,-4,-3,-1,77,31,76
75706,0,2,0,61,390,116,0,-6,75,-8,-4,74,0,0,0,0,8,10,21,-5,-3,-1,79,31,76
75807,0,2,0,61,390,116,0,-6,75,-8,-4,74,0,0,0,0,7,10,21,-5,-2,0,79,31,76
75908,0,2,0,61,390,116,0,-6,75,-8,-4,74,0,0,0,0,6,9,22,-6,-2,0,78,31,76
76009,0,2,0,61,390,116,0,-6,75,-8,-4,74,0,0,0,0,5,8,21,-7,-3,0,71,30,76
76110,0,2,0,61,390,116,0,-6,75,-8,-4,74,0,0,0,0,5,8,20,-8,-3,0,75,30,76
76211,0,2,0,61,390,116,0,-6,75,-8,-4,74,0,0,0,0,5,5,20,-8,-2,0,76,30,76
76312,0,2,0,61,390,116,0,-6,75,-8,-4,74,0,0,0,0,6,5,19,-7,-3,0,77,30,76
76413,0,2,0,61,390,116,0,-6,75,-8,-4,74,0,0,0,0,6,7,17,-8,-3,0,78,30,76
76513,0,2,0,61,390,116,0,-6,75,-8,-4,74,0,0,0,0,5,8,16,-9,-2,0,78,30,76
76614,0,2,0,61,390,116,0,-6,75,-8,-4,74,0,0,0,0,3,7,15,-9,-1,0,77,30,75
76714,0,2,0,61,390,116,0,-6,75,-8,-4,74,0,0,0,0,2,7,15,-9,0,0,76,30,75
76815,0,2,0,61,390,116,0,-6,75,-8,-4,74,0,0,0,0,3,7,17,-8,0,0,76,30,75
76916,0,2,0,61,390,116,0,-6,75,-8,-4,74,0,0,0,0,4,9,13,-8,0,0,78,30,75
77017,0,2,0,61,390,116,0,-6,75,-8,-4,74,0,0,0,0,3,8,13,-8,0,0,78,30,75
77118,0,2,0,61,390,116,0,-6,75,-8,-4,74,0,0,0,0,3,8,13,-8,0,1,77,30,75
77219,0,2,0,61,390,116,0,-6,75,-8,-4,74,0,0,0,0,3,9,10,-9,1,4,73,30,75
77320,0,2,0,61,390,116,0,-6,75,-8,-4,74,0,0,0,0,2,8,8,-9,1,6,67,30,75
77420,0,2,0,61,390,116,0,-6,75,-8,-4,74,0,0,0,0,3,6,8,-7,1,7,60,30,75
77521,0,2,0,61,390,116,0,-6,75,-8,-4,74,0,0,0,0,3,6,6,-5,1,8,51,30,75
77622,0,2,0,61,390,116,0,-6,75,-8,-4,74,0,0,0,0,3,6,7,-3,0,10,41,30,76
77722,0,2,0,61,390,116,0,-6,75,-8,-4,74,0,0,0,0,3,8,7,-2,0,10,31,30,76
77823,0,2,0,61,390,116,0,-6,75,-8,-4,74,0,0,0,0,2,8,6,-1,0,8,10,30,76
77924,0,2,0,61,390,116,0,-6,75,-8,-4,74,0,0,0,0,1,8,6,-1,0,7,10,30,76
78025,0,2,0,61,390,116,0,-6,75,-8,-4,74,0,0,0,0,0,8,6,0,0,5,10,29,76
78126,0,2,0,61,390,116,0,-6,75,-8,-4,74,0,0,0,0,0,7,6,0,0,3,10,29,76
78227,0,2,0,61,390,116,0,-6,75,-8,-4,74,0,0,0,0,0,5,4,0,0,1,10,29,76
78328,0,2,0,61,390,116,0,-6,75,-8,-4,74,0,0,0,0,1,4,4,0,0,0,10,29,76
78429,0,2,0,61,390,116,0,-6,75,-8,-4,74,0,0,0,0,1,2,6,0,0,0,10,29,76
78530,0,2,0,61,390,116,0,-6,75,-8,-4,74,0,0,0,0,0,0,6,0,0,0,10,29,76
78631,0,2,0,61,390,116,0,-6,75,-8,-4,74,0,0,0,0,0,0,6,0,0,0,10,29,75
78732,0,2,0,61,390,116,0,-6,75,-8,-4,74,0,0,0,0,0,0,6,0,0,0,10,29,75
78833,0,2,0,61,390,116,0,-6,75,-8,-4,74,0,0,0,0,0,0,6,0,0,0,10,29,75
78934,0,2,0,61,390,116,0,-6,75,-8,-4,74,0,0,0,0,0,0,6,0,0,0,10,29,75
79035,0,2,0,61,390,116,0,-6,75,-8,-4,74,0,0,0,0,0,0,6,0,0,0,10,29,75
79135,0,2,0,61,390,116,0,-6,75,-8,-4,74,0,0,0,0,0,0,6,0,0,0,10,29,75
79236,0,2,0,61,390,116,0,-6,75,-8,-4,74,0,0,0,0,0,0,6,0,0,0,10,29,75
79337,0,2,0,61,390,116,0,-6,75,-8,-4,74,0,0,0,0,0,0,4,0,1,0,10,29,75
79438,0,2,0,61,390,116,0,-6,75,-8,-4,74,0,0,0,0,0,0,4,0,1,0,10,29,75
79539,0,2,0,61,390,116,0,-6,75,-8,-4,74,0,0,0,0,0,0,4,0,1,0,10,29,75
79639,0,2,0,61,390,116,0,-6,75,-8,-4,74,0,0,0,0,0,0,4,0,1,0,10,29,76
79740,0,2,0,61,390,116,0,-6,75,-8,-4,74,0,0,0,0,0,0,4,0,1,0,10,29,76
79840,0,2,0,61,390,116,0,-6,75,-8,-4,74,0,0,0,0,0,0,4,0,1,0,10,29,76
79941,0,2,0,61,390,116,0,-6,75,-8,-4,74,0,0,0,0,0,0,4,0,1,0,10,29,76
80042,0,2,0,61,390,116,0,-6,75,-8,-4,74,0,0,0,0,0,0,4,0,0,0,10,28,76
80142,0,2,0,61,390,116,0,-6,75,-8,-4,74,0,0,0,0,0,0,4,0,0,0,10,28,76
80243,0,2,0,61,390,116,0,-6,75,-8,-4,74,0,0,0,0,0,0,4,0,0,0,10,28,76
80344,0,2,0,61,390,116,0,-6,75,-8,-4,74,0,0,0,0,0,0,4,0,0,0,10,28,76
80445,0,2,0,61,390,116,0,-6,75,-8,-4,74,0,0,0,0,0,0,4,0,0,0,10,28,76
80546,0,2,0,61,390,116,0,-6,75,-8,-4,74,0,0,0,0,0,0,4,0,0,0,10,28,76
80648,0,2,0,61,390,116,0,-6,75,-8,-4,74,0,0,0,0,0,0,4,0,0,0,10,28,76
80749,0,2,0,61,390,116,0,-6,75,-8,-4,74,0,0,0,0,0,0,4,0,0,0,10,28,76
80849,0,2,0,61,390,116,0,-6,75,-8,-4,74,0,0,0,0,0,0,4,0,0,0,10,28,76
80950,0,2,0,61,390,116,0,-6,75,-8,-4,74,0,0,0,0,0,0,4,0,0,0,10,28,76
81051,0,2,0,61,390,116,0,-6,75,-8,-4,74,0,0,0,0,0,0,4,0,0,0,10,28,76
81152,0,2,0,61,390,116,0,-6,75,-8,-4,74,0,0,0,0,0,0,4,0,0,0,10,28,76
81252,0,2,0,61,390,116,0,-6,75,-8,-4,74,0,0,0,0,0,0,4,0,0,0,10,28,76
81353,0,2,0,61,390,116,0,-6,75,-8,-4,74,0,0,0,0,0,0,4,0,0,0,10,28,76
81454,0,2,0,61,390,116,0,-6,75,-8,-4,74,0,0,0,0,0,0,4,0,0,0,10,28,76
81555,0,2,0,61,390,116,0,-6,75,-8,-4,74,0,0,0,0,0,0,4,0,0,0,10,28,76
81656,0,2,0,61,390,116,0,-6,75,-8,-4,74,0,0,0,0,0,0,4,0,0,0,10,28,76
81757,0,2,0,61,390,116,0,-6,75,-8,-4,74,0,0,0,0,0,0,4,0,0,0,10,28,76
81857,0,2,0,61,390,116,0,-6,75,-8,-4,74,0,0,0,0,0,0,4,0,0,0,10,28,76
81958,0,2,0,61,390,116,0,-6,75,-8,-4,74,0,0,0,0,0,0,4,0,0,0,10,28,76
82059,0,2,0,61,390,116,0,-6,75,-8,-4,74,0,0,0,0,0,0,4,0,0,0,10,27,76
82160,0,2,0,61,390,116,0,-6,75,-8,-4,74,0,0,0,0,0,0,4,0,0,0,10,27,76
82261,0,2,0,61,390,116,0,-6,75,-8,-4,74,0,0,0,0,0,0,4,0,0,0,10,27,76
82362,0,2,0,61,390,116,0,-6,75,-8,-4,74,0,0,0,0,0,0,4,0,0,0,10,27,76
82463,0,3,0,61,390,116,0,-6,75,-8,-4,74,0,0,0,0,0,0,4,0,0,0,10,27,76
82564,0,3,0,61,390,116,0,-6,75,-8,-4,74,0,0,0,0,0,0,4,0,0,0,10,27,76
82665,0,3,0,61,390,116,0,-6,75,-8,-4,74,0,0,0,0,0,0,4,0,0,0,10,27,76
82766,0,3,0,61,390,116,0,-6,75,-8,-4,74,0,0,0,0,0,0,4,0,0,0,10,27,76
82867,0,3,0,61,390,116,0,-6,75,-8,-4,74,0,0,0,0,0,0,4,0,0,0,10,27,76
82968,0,3,0,61,390,116,0,-6,75,-8,-4,74,0,0,0,0,0,0,4,0,0,0,10,27,76
83068,0,3,0,61,390,116,0,-6,75,-8,-4,74,0,0,0,0,0,0,4,0,0,0,10,27,76
83169,0,3,0,61,390,116,0,-6,75,-8,-4,74,0,0,0,0,0,0,4,0,0,0,10,27,76
83270,0,3,0,61,390,116,0,-6,75,-8,-4,74,0,0,0,0,0,0,4,0,0,0,10,27,76
83371,0,3,0,61,390,116,0,-6,75,-8,-4,74,0,0,0,0,0,0,4,0,0,0,10,27,76
83472,0,3,0,61,390,116,0,-6,75,-8,-4,74,0,0,0,0,0,0,4,0,0,0,10,27,76
83573,0,3,0,61,390,116,0,-6,75,-8,-4,74,0,0,0,0,0,0,4,0,0,0,10,27,76
83674,0,3,0,61,390,116,0,-6,75,-8,-4,74,0,0,0,0,0,0,4,0,0,0,10,27,76
83775,0,3,0,61,390,116,0,-6,75,-8,-4,74,0,0,0,0,0,0,4,0,0,0,10,27,76
83876,0,3,0,61,390,116,0,-6,75,-8,-4,74,0,0,0,0,0,0,4,0,0,0,10,27,76
83976,0,3,0,61,390,116,0,-6,75,-8,-4,74,0,0,0,0,0,0,4,0,0,0,10,26,76
84077,0,3,0,61,390,116,0,-6,75,-8,-4,74,0,0,0,0,0,0,4,0,0,0,10,26,76
84179,0,3,0,61,390,116,0,-6,75,-8,-4,74,0,0,0,0,0,0,4,0,0,0,10,26,76
84280,0,3,0,61,390,116,0,-6,75,-8,-4,74,0,0,0,0,0,0,4,0,0,0,10,26,76
84381,0,3,0,61,390,116,0,-6,75,-8,-4,74,0,0,0,0,0,0,4,0,0,0,10,26,76
84482,0,3,0,61,390,116,0,-6,75,-8,-4,74,0,0,0,0,0,0,4,0,0,0,10,26,76
84583,0,3,0,61,390,116,0,-6,75,-8,-4,74,0,0,0,0,0,0,4,0,0,0,10,26,76
84684,0,3,0,61,390,116,0,-6,75,-8,-4,74,0,0,0,0,0,0,4,0,0,0,10,26,77
84784,0,3,0,61,390,116,0,-6,75,-8,-4,74,0,0,0,0,0,0,4,0,0,0,10,26,77
84885,0,3,0,61,390,116,0,-6,75,-8,-4,74,0,0,0,0,0,0,4,0,0,0,10,26,77
84987,0,3,0,61,390,116,0,-6,75,-8,-4,74,0,0,0,0,0,0,4,0,0,0,10,26,77
85088,0,3,0,61,390,116,0,-6,75,-8,-4,74,0,0,0,0,0,0,4,0,0,0,10,26,77
85189,0,3,0,61,390,116,0,-6,75,-8,-4,74,0,0,0,0,0,0,4,0,0,0,10,26,77
85289,0,3,0,61,390,116,0,-6,75,-8,-4,74,0,0,0,0,0,0,4,0,0,0,10,26,77
85391,0,3,0,61,390,116,0,-6,75,-8,-4,74,0,0,0,0,0,0,4,0,0,0,10,26,77
85492,0,3,0,61,390,116,0,-6,75,-8,-4,74,0,0,0,0,0,0,4,0,0,0,10,26,77
85593,0,3,0,61,390,116,0,-6,75,-8,-4,74,0,0,0,0,0,0,4,0,0,0,10,26,77
85694,0,3,0,61,390,116,0,-6,75,-8,-4,74,0,0,0,0,0,0,4,0,0,0,10,26,76
85794,0,3,0,61,390,116,0,-6,75,-8,-4,74,0,0,0,0,0,0,4,0,0,0,10,26,76
85895,0,3,0,61,390,116,0,-6,75,-8,-4,74,0,0,0,0,0,0,4,0,0,0,10,26,76
85996,0,3,0,61,390,116,0,-6,75,-8,-4,74,0,0,0,0,0,0,4,0,0,0,10,26,76
86097,0,3,0,61,390,116,0,-6,75,-8,-4,74,0,0,0,0,0,0,4,0,0,0,10,25,76
86197,0,3,0,61,390,116,0,-6,75,-8,-4,74,0,0,0,0,0,0,4,0,0,0,10,25,76
86298,0,3,0,61,390,116,0,-6,75,-8,-4,74,0,0,0,0,0,0,4,0,0,0,10,25,76
86399,0,3,0,61,390,116,0,-6,75,-8,-4,74,0,0,0,0,0,0,4,0,0,0,10,25,76
86499,0,3,0,61,390,116,0,-6,75,-8,-4,74,0,0,0,0,0,0,4,0,0,0,10,25,76
86600,0,3,0,61,390,116,0,-6,75,-8,-4,74,0,0,0,0,0,0,4,0,0,0,10,25,76
86701,0,3,0,61,390,116,0,-6,75,-8,-4,74,0,0,0,0,0,0,4,0,0,0,10,25,76
86802,0,3,0,61,390,116,0,-6,75,-8,-4,74,0,0,0,0,0,0,4,0,0,0,10,25,76
86902,0,3,0,61,390,116,0,-6,75,-8,-4,74,0,0,0,0,0,0,4,0,0,0,10,25,76
87003,0,3,0,61,390,116,0,-6,75,-8,-4,74,0,0,0,0,0,0,4,0,0,0,10,25,76
87104,0,3,0,61,390,116,0,-6,75,-8,-4,74,0,0,0,0,0,0,4,0,0,0,10,25,76
87205,0,3,0,61,390,116,0,-6,75,-8,-4,74,0,0,0,0,0,0,4,0,0,0,10,25,76
87306,0,3,0,61,390,116,0,-6,75,-8,-4,74,0,0,0,0,0,0,5,0,0,0,10,25,76
87407,0,3,0,61,390,116,0,-6,75,-8,-4,74,0,0,0,0,0,0,5,0,0,0,10,25,76
87508,0,3,0,61,390,116,0,-6,75,-8,-4,74,0,0,0,0,0,0,4,0,0,-1,11,25,76
87608,0,3,0,61,390,116,0,-6,75,-8,-4,74,0,0,0,0,1,0,4,0,0,-5,10,25,77
87709,0,3,0,61,390,116,0,-6,75,-8,-4,74,0,0,0,0,1,0,4,0,0,-5,10,25,77
87810,0,3,0,61,390,116,0,-6,75,-8,-4,74,0,0,0,0,0,0,5,0,0,-6,22,25,77
87912,0,3,0,61,390,116,0,-6,75,-8,-4,74,0,0,0,0,0,0,5,0,0,-6,29,25,77
88013,0,3,0,61,390,116,0,-6,75,-8,-4,74,0,0,0,0,0,0,5,0,0,-6,36,24,77
88114,0,3,0,61,390,116,0,-6,75,-8,-4,74,0,0,0,0,0,0,5,0,0,-5,42,24,77
88214,0,3,0,61,390,116,0,-6,75,-8,-4,74,0,0,0,0,0,0,5,0,0,-5,42,24,77
88315,0,3,0,61,390,116,0,-6,75,-8,-4,74,0,0,0,0,0,0,5,0,0,-5,48,24,77
88416,0,3,0,61,390,116,0,-6,75,-8,-4,74,0,0,0,0,0,0,5,0,0,-4,53,24,77
88517,0,3,0,61,390,116,0,-6,75,-8,-4,74,0,0,0,0,0,0,5,0,0,-2,61,24,77
88617,0,3,1,66,406,40,34,-5,223,-19,-29,219,0,0,0,0,0,0,5,0,0,-2,64,24,78
88718,0,3,0,66,406,40,0,-5,223,-19,-29,219,0,0,0,0,0,0,5,0,0,-2,64,24,78
88819,0,3,1,67,436,32,31,-3,249,-13,-35,246,0,0,0,0,0,0,5,0,0,-1,67,24,78
88921,0,3,1,66,426,-14,35,-4,216,-13,-41,211,0,0,0,0,0,0,5,0,0,-1,69,24,78
89022,0,3,1,66,426,-14,35,-4,216,-13,-41,211,0,0,0,0,0,0,5,0,0,-1,71,24,78
89123,0,3,1,63,450,25,29,-2,265,-9,-39,262,0,0,0,0,0,0,5,0,0,-1,73,24,78
89224,0,3,1,63,450,25,29,-2,265,-9,-39,262,0,0,0,0,0,0,5,0,0,-1,75,24,78
89325,0,3,0,63,450,25,0,-2,265,-9,-39,262,0,0,0,0,0,0,4,0,0,0,76,24,78
89426,0,3,0,63,450,25,0,-2,265,-9,-39,262,0,0,0,0,0,0,4,0,0,0,77,24,78
89527,0,3,0,63,450,25,0,-2,265,-9,-39,262,0,0,0,0,0,0,4,0,0,0,78,24,78
89627,0,3,1,67,509,40,32,2,241,8,-32,238,0,0,0,0,0,0,4,0,0,0,79,24,78
89728,0,3,1,71,523,34,29,3,261,13,-36,258,0,0,0,35,0,0,4,0,0,0,80,24,77
89829,0,3,1,71,523,34,29,3,261,13,-36,258,0,0,0,0,0,0,4,0,0,0,81,24,77
89930,0,3,1,71,523,34,29,3,261,13,-36,258,0,0,0,0,0,0,4,0,0,0,83,24,77
90031,0,3,1,67,520,50,28,3,274,13,-33,271,0,0,0,0,0,0,4,0,0,-1,84,23,77
90132,0,3,1,70,526,47,29,3,265,14,-33,262,0,0,0,0,0,0,4,0,0,-1,85,23,77
90233,0,3,1,64,526,38,34,3,226,12,-30,223,0,0,0,0,0,0,4,0,0,-1,87,23,77
90334,0,3,1,69,526,38,31,3,249,13,-33,246,0,0,0,0,0,0,5,0,0,-1,89,23,77
90435,0,3,1,64,526,48,29,3,265,14,-33,262,0,0,0,0,0,1,5,0,0,-1,92,23,77
90535,0,3,1,71,514,32,37,2,209,8,-29,207,0,0,0,0,0,1,5,0,0,-2,93,23,77
90636,0,3,1,70,515,42,36,2,213,9,-28,210,0,0,0,0,0,0,5,0,0,-2,97,23,77
90737,0,3,1,74,517,43,32,3,237,10,-31,235,0,0,0,0,0,0,5,0,0,-2,100,23,77
90837,0,3,1,75,512,45,41,2,186,7,-23,183,0,0,0,0,0,0,5,0,0,-2,102,23,77
90939,0,3,1,79,505,42,39,2,198,5,-26,195,0,0,0,0,0,0,5,0,0,-2,104,23,77
91040,0,3,1,78,510,31,40,2,192,6,-27,189,0,0,0,0,0,0,5,0,0,-2,107,23,77
91140,0,3,1,82,512,29,37,2,204,7,-29,201,0,0,0,0,0,0,5,0,0,-2,109,23,77
91241,0,3,1,81,514,35,34,2,223,9,-31,220,0,0,0,0,0,0,5,0,0,-2,111,23,77
91342,0,3,1,79,514,46,36,2,214,8,-27,212,0,0,0,0,0,0,5,0,0,-2,113,23,77
91442,0,3,1,78,510,55,39,2,195,7,-23,193,0,0,0,0,0,0,4,0,0,-2,115,23,77
91543,0,3,1,80,521,31,34,3,224,11,-32,221,0,0,0,0,0,0,4,0,0,-2,117,23,77
91644,0,3,1,80,516,33,36,3,214,9,-30,211,0,0,0,0,0,0,4,0,0,-2,119,23,76
91744,0,3,1,80,510,40,38,2,201,7,-26,198,0,0,0,0,0,0,5,0,0,-2,122,23,76
91845,0,3,1,76,505,42,39,2,195,5,-25,192,0,0,0,0,0,0,5,0,0,-2,124,23,76
91946,0,3,1,76,512,38,36,2,211,8,-28,208,0,0,0,0,0,0,5,0,0,-2,126,23,76
92047,0,3,1,76,514,43,36,2,211,8,-27,208,0,0,0,0,0,0,4,0,0,-2,128,22,76
92148,0,3,1,79,512,30,38,2,201,7,-28,198,0,0,0,0,0,0,4,0,0,-2,130,22,76
92249,0,3,1,80,507,43,36,2,211,6,-27,208,0,0,0,0,0,0,4,0,0,-2,131,22,76
92350,0,3,1,80,507,43,36,2,211,6,-27,208,0,0,0,0,0,0,4,0,0,-2,131,22,76
92450,0,3,1,79,510,46,35,2,221,8,-28,218,0,0,0,0,0,0,5,0,0,-2,135,22,76
92551,0,3,1,80,510,46,35,2,217,7,-27,215,0,0,0,0,0,0,5,0,0,-2,135,22,76
92653,0,3,1,80,510,46,35,2,217,7,-27,215,0,0,0,0,0,0,5,0,0,-2,138,22,76
92753,0,3,1,81,505,43,32,2,235,7,-30,233,0,0,0,0,0,0,5,0,0,-2,140,22,77
92855,0,3,1,81,505,43,32,2,235,7,-30,233,0,0,0,0,0,0,5,0,0,-1,142,22,77
92957,0,3,1,80,507,45,35,2,217,7,-27,215,0,0,0,0,0,0,5,0,0,-1,143,22,77
93058,0,3,1,80,514,58,34,2,228,9,-26,226,0,0,0,0,0,0,5,0,0,0,143,22,77
93159,0,3,1,80,507,47,34,2,228,7,-28,226,0,0,0,0,0,0,5,0,0,0,144,22,77
93261,0,3,1,82,505,56,31,2,243,7,-28,241,0,0,0,0,0,0,5,0,0,0,144,22,77
93362,0,3,1,82,505,56,31,2,243,7,-28,241,0,0,0,0,0,0,5,0,0,0,144,22,77
93462,0,3,1,82,505,56,31,2,243,7,-28,241,0,0,0,0,0,0,5,0,0,0,143,22,77
93563,0,3,1,82,516,72,32,3,235,10,-23,233,0,0,0,0,0,0,5,0,0,0,143,22,77
93664,0,3,1,82,510,73,33,2,232,8,-23,230,0,0,0,0,0,0,5,0,0,0,143,22,77
93764,0,3,1,82,514,67,32,2,235,9,-24,233,0,0,0,0,0,0,5,0,0,0,143,22,77
93865,0,3,1,80,514,73,33,2,232,9,-23,230,0,0,0,0,0,0,5,0,0,0,143,22,77
93966,0,3,1,80,514,73,33,2,232,9,-23,230,0,0,0,0,0,0,5,0,0,0,143,21,77
94067,0,3,1,80,514,57,33,2,232,9,-26,229,0,0,0,0,0,0,5,0,0,0,142,21,77
94167,0,3,1,82,512,56,32,2,239,9,-28,237,0,0,0,0,0,0,5,0,0,0,143,21,77
94268,0,3,1,82,496,57,33,1,232,4,-26,229,0,0,0,0,0,0,5,0,0,0,143,21,77
94369,0,3,1,82,492,74,35,1,221,3,-21,219,0,0,0,0,0,0,5,0,0,0,143,21,77
94469,0,3,1,82,479,83,34,-0,228,0,-20,227,0,0,0,0,0,0,5,0,0,0,144,21,77
94570,0,3,1,82,479,83,34,-0,228,0,-20,227,0,0,0,0,0,0,5,0,0,0,144,21,77
94671,0,3,1,82,468,84,34,-1,228,-3,-20,227,0,0,0,0,0,0,5,0,0,0,144,21,76
94772,0,3,1,82,437,98,32,-3,235,-12,-17,234,0,0,0,0,0,0,5,0,0,0,145,21,76
94872,0,3,1,79,441,49,33,-3,234,-11,-29,231,0,0,0,0,0,0,5,0,0,0,145,21,76
94973,0,3,1,82,429,54,33,-4,234,-14,-27,231,0,0,0,0,0,0,5,0,0,0,145,21,76
95074,0,3,2,62,828,122,25,9,301,48,-14,296,0,0,0,0,0,0,5,0,0,0,145,21,76
95174,0,3,2,62,828,122,25,9,301,48,-14,296,0,0,0,0,0,0,5,0,0,0,146,21,76
95276,0,3,1,79,400,103,26,-6,296,-28,-20,294,0,0,0,0,0,0,5,0,0,0,146,21,76
95377,0,3,1,79,400,103,26,-6,296,-28,-20,294,0,0,0,0,0,0,4,0,0,0,146,21,76
95478,0,3,1,79,398,128,26,-6,296,-29,-12,294,0,0,0,0,0,0,4,0,0,0,146,21,76
95580,0,3,1,79,398,128,26,-6,296,-29,-12,294,0,0,0,0,0,0,4,0,0,0,145,21,76
95680,0,3,1,76,400,105,25,-6,301,-29,-19,298,0,0,0,0,0,0,4,0,0,0,146,21,76
95781,0,3,1,78,401,103,26,-6,296,-28,-20,294,0,0,0,0,0,0,4,0,0,0,145,21,76
95881,0,3,1,71,404,83,24,-5,321,-29,-28,318,0,0,0,0,0,0,5,0,0,0,145,21,76
95982,0,3,1,70,404,112,24,-5,321,-29,-18,318,0,0,0,0,0,0,5,0,0,0,145,20,76
96083,0,3,1,70,404,112,24,-5,321,-29,-18,318,0,0,0,0,0,0,5,0,0,0,145,20,76
96183,0,3,1,67,373,120,22,-7,347,-45,-17,343,0,0,0,0,0,0,5,0,0,0,146,20,76
96284,0,3,1,69,398,137,24,-6,321,-32,-10,318,0,0,0,0,0,0,5,0,0,0,146,20,76
96385,0,3,1,70,372,127,22,-8,347,-45,-15,343,0,0,0,0,0,-1,4,0,0,0,145,20,76
96485,0,3,1,68,395,135,22,-6,353,-36,-12,350,0,0,0,0,0,0,4,0,0,0,146,20,76
96586,0,3,1,75,397,172,21,-6,358,-36,1,356,0,0,0,0,0,0,5,0,0,0,146,20,76
96687,0,3,1,79,397,183,22,-6,347,-35,5,345,0,0,0,0,0,0,5,0,0,0,145,20,76
96789,0,3,1,75,397,187,22,-6,342,-34,6,339,0,0,0,0,0,0,5,0,0,0,145,20,76
96889,0,3,1,79,397,162,23,-6,336,-34,-2,334,0,0,0,0,0,0,5,0,0,0,144,20,76
96990,0,3,1,81,398,183,22,-6,353,-35,5,350,0,0,0,0,0,0,5,0,0,0,144,20,76
97092,0,4,1,81,400,187,22,-6,347,-33,6,345,0,0,0,0,0,0,5,0,0,0,144,20,76
97194,0,4,1,76,403,173,23,-5,331,-31,1,329,0,0,0,0,0,0,5,0,0,0,144,20,76
97295,0,4,1,78,398,178,24,-6,321,-32,3,319,0,0,0,0,0,0,5,0,0,0,143,20,76
97396,0,4,1,78,398,178,24,-6,321,-32,3,319,0,0,0,0,-1,0,5,0,0,0,143,20,76
97498,0,4,1,78,398,178,24,-6,321,-32,3,319,0,0,0,0,-1,-1,5,0,0,0,143,20,76
97598,0,4,1,79,401,155,23,-6,326,-31,1,324,0,0,0,0,0,0,4,0,0,0,143,20,76
97699,0,4,1,75,400,174,23,-6,326,-31,1,324,0,0,0,0,0,0,4,0,0,0,144,20,76
97800,0,4,1,68,398,153,24,-6,316,-31,-5,314,0,0,0,0,0,0,5,0,0,0,144,20,76
97900,0,4,2,63,831,108,27,10,283,46,-17,278,0,0,0,0,0,0,5,0,0,0,143,20,76
98001,0,4,1,61,397,177,23,-6,331,-33,3,329,0,0,0,0,0,0,5,0,0,0,144,19,76
98101,0,4,1,66,398,180,22,-6,347,-34,4,345,0,0,0,0,0,0,5,0,0,0,144,19,76
98202,0,4,1,73,401,177,23,-6,331,-31,3,329,0,0,0,0,0,0,5,0,0,0,144,19,76
98303,0,4,1,75,398,171,24,-6,321,-32,0,319,0,0,0,0,0,0,4,0,0,0,144,19,76
98404,0,4,1,75,398,171,24,-6,321,-32,0,319,0,0,0,0,0,0,4,0,0,0,145,19,76
98504,0,4,1,72,397,162,22,-6,347,-35,-2,345,0,0,0,0,0,0,4,0,0,0,146,19,76
98605,0,4,1,75,400,151,22,-6,342,-33,-6,339,0,0,0,0,0,0,4,0,0,0,146,19,76
98706,0,4,1,75,400,151,22,-6,342,-33,-6,339,0,0,0,0,0,0,4,0,0,0,146,19,76
98806,6,4,1,75,400,151,22,-6,342,-33,-6,339,0,40,0,0,0,0,4,0,0,0,146,19,76
98907,6,4,1,75,398,152,23,-6,336,-33,-5,334,0,40,0,0,0,-1,4,0,0,0,146,19,76
