timestamp,trackMode,telSeqId,personCount,personConfidence,faceXPx,faceYPx,faceRadiusPx,angle_err,estimatedDistance,estimatedXPos,estimatedYPos,estimatedZPos,Uyaw,Uz,Ux,Uy,pitch,roll,yaw,vx,vy,vz,tof,batt,temp
17677,0,0,0,0,0,0,0,0,0,0,0,0,0,0,0,0,-1,0,-20,0,0,0,10,90,64
17778,0,0,0,0,0,0,0,0,0,0,0,0,0,0,0,0,-1,0,-20,0,0,0,10,90,64
17879,0,0,0,0,0,0,0,0,0,0,0,0,0,0,0,0,-1,0,-20,0,0,0,10,90,64
17980,0,0,0,0,0,0,0,0,0,0,0,0,0,0,0,0,-1,0,-20,0,0,0,10,90,64
18081,0,0,0,0,0,0,0,0,0,0,0,0,0,0,0,0,-1,0,-20,0,0,0,10,90,64
18182,0,0,0,0,0,0,0,0,0,0,0,0,0,0,0,0,-1,0,-20,0,0,0,10,90,64
18283,0,0,0,0,0,0,0,0,0,0,0,0,0,0,0,0,-1,0,-20,0,0,0,10,90,65
18383,0,0,0,0,0,0,0,0,0,0,0,0,0,0,0,0,-1,0,-20,0,0,0,10,90,65
18484,0,0,0,0,0,0,0,0,0,0,0,0,0,0,0,0,-1,0,-20,0,0,0,10,90,65
18584,0,0,0,0,0,0,0,0,0,0,0,0,0,0,0,0,-1,0,-20,0,0,0,10,90,65
18685,0,0,0,0,0,0,0,0,0,0,0,0,0,0,0,0,-1,0,-20,0,0,0,10,90,65
18786,0,0,0,0,0,0,0,0,0,0,0,0,0,0,0,0,-1,0,-20,0,0,0,10,90,65
18887,0,0,0,0,0,0,0,0,0,0,0,0,0,0,0,0,-1,0,-20,0,0,0,10,90,65
18988,0,0,0,0,0,0,0,0,0,0,0,0,0,0,0,0,-1,0,-20,0,0,0,10,90,65
19089,0,0,0,0,0,0,0,0,0,0,0,0,0,0,0,0,-1,0,-20,0,0,0,10,90,65
19191,0,0,0,0,0,0,0,0,0,0,0,0,0,0,0,0,-1,0,-20,0,0,0,10,90,65
19292,0,0,0,0,0,0,0,0,0,0,0,0,0,0,0,0,-1,0,-20,0,0,0,10,90,64
19393,0,0,0,0,0,0,0,0,0,0,0,0,0,0,0,0,-1,0,-20,0,0,0,10,90,64
19494,0,0,0,0,0,0,0,0,0,0,0,0,0,0,0,0,-1,0,-20,0,0,0,10,90,64
19595,0,0,0,0,0,0,0,0,0,0,0,0,0,0,0,0,-1,0,-20,0,0,0,10,90,64
19696,0,0,0,0,0,0,0,0,0,0,0,0,0,0,0,0,-1,0,-20,0,0,0,10,90,64
19799,0,0,0,0,0,0,0,0,0,0,0,0,0,0,0,0,-1,0,-20,0,0,0,10,90,64
19900,0,0,0,0,0,0,0,0,0,0,0,0,0,0,0,0,-1,0,-20,0,0,0,10,90,64
20000,0,0,0,0,0,0,0,0,0,0,0,0,0,0,0,0,-1,0,-20,0,0,0,10,90,64
20101,0,0,0,0,0,0,0,0,0,0,0,0,0,0,0,0,-1,0,-20,0,0,0,10,90,64
20202,0,0,0,0,0,0,0,0,0,0,0,0,0,0,0,0,-1,0,-20,0,0,0,10,90,64
20303,0,0,0,0,0,0,0,0,0,0,0,0,0,0,0,0,-1,0,-20,0,0,0,10,90,65
20404,0,0,0,0,0,0,0,0,0,0,0,0,0,0,0,0,-1,0,-20,0,0,0,10,90,65
20505,0,0,0,0,0,0,0,0,0,0,0,0,0,0,0,0,-1,0,-20,0,0,0,10,90,65
20606,0,0,0,0,0,0,0,0,0,0,0,0,0,0,0,0,-1,0,-20,0,0,0,10,90,65
20707,0,0,0,0,0,0,0,0,0,0,0,0,0,0,0,0,-1,0,-20,0,0,0,10,90,65
20809,0,0,0,0,0,0,0,0,0,0,0,0,0,0,0,0,-1,0,-20,0,0,0,10,90,65
20910,0,0,0,0,0,0,0,0,0,0,0,0,0,0,0,0,-1,0,-20,0,0,0,10,90,65
21011,0,0,0,0,0,0,0,0,0,0,0,0,0,0,0,0,-1,0,-20,0,0,0,10,90,65
21112,0,0,0,0,0,0,0,0,0,0,0,0,0,0,0,0,-1,0,-20,0,0,0,10,90,65
21213,0,0,0,0,0,0,0,0,0,0,0,0,0,0,0,0,-1,0,-20,0,0,0,10,90,65
21314,0,0,0,0,0,0,0,0,0,0,0,0,0,0,0,0,-1,0,-20,0,0,0,10,90,65
21415,0,0,0,0,0,0,0,0,0,0,0,0,0,0,0,0,-1,0,-20,0,0,0,10,90,65
21516,0,0,0,0,0,0,0,0,0,0,0,0,0,0,0,0,-1,0,-20,0,0,0,10,90,65
21617,0,0,0,0,0,0,0,0,0,0,0,0,0,0,0,0,-1,0,-20,0,0,0,10,90,65
21718,0,0,0,0,0,0,0,0,0,0,0,0,0,0,0,0,-1,0,-20,0,0,0,10,90,65
21819,0,0,0,0,0,0,0,0,0,0,0,0,0,0,0,0,-1,0,-20,0,0,0,10,90,65
21920,0,0,0,0,0,0,0,0,0,0,0,0,0,0,0,0,-1,0,-20,0,0,0,10,90,65
22020,0,0,0,0,0,0,0,0,0,0,0,0,0,0,0,0,-1,0,-20,0,0,0,10,90,65
22121,0,0,0,0,0,0,0,0,0,0,0,0,0,0,0,0,-1,0,-20,0,0,0,10,90,65
22222,0,0,0,0,0,0,0,0,0,0,0,0,0,0,0,0,-1,0,-20,0,0,0,10,90,65
22322,0,0,0,0,0,0,0,0,0,0,0,0,0,0,0,0,-1,0,-20,0,0,0,10,90,65
22423,0,0,0,0,0,0,0,0,0,0,0,0,0,0,0,0,-1,0,-20,0,0,0,10,90,65
22524,0,0,0,0,0,0,0,0,0,0,0,0,0,0,0,0,-1,0,-20,0,0,0,10,90,65
22624,0,0,0,0,0,0,0,0,0,0,0,0,0,0,0,0,-1,0,-20,0,0,0,10,90,65
22726,0,0,0,0,0,0,0,0,0,0,0,0,0,0,0,0,-1,0,-20,0,0,0,10,90,65
22827,0,0,0,0,0,0,0,0,0,0,0,0,0,0,0,0,-1,0,-20,0,0,0,10,90,65
22928,0,0,0,0,0,0,0,0,0,0,0,0,0,0,0,0,-1,0,-20,0,0,0,10,90,65
23034,0,0,0,0,0,0,0,0,0,0,0,0,0,0,0,0,-1,0,-20,0,0,0,10,90,65
23135,0,0,0,0,0,0,0,0,0,0,0,0,0,0,0,0,-1,0,-20,0,0,0,10,90,65
23236,0,0,0,0,0,0,0,0,0,0,0,0,0,0,0,0,-1,0,-20,0,0,0,10,90,65
23337,0,0,0,0,0,0,0,0,0,0,0,0,0,0,0,0,-1,0,-20,0,0,0,10,90,65
23437,0,0,0,0,0,0,0,0,0,0,0,0,0,0,0,0,-1,0,-20,0,0,0,10,90,65
23538,0,0,0,0,0,0,0,0,0,0,0,0,0,0,0,0,-1,0,-20,0,0,0,10,90,65
23639,0,0,0,0,0,0,0,0,0,0,0,0,0,0,0,0,-1,0,-20,0,0,0,10,90,65
23742,0,0,0,0,0,0,0,0,0,0,0,0,0,0,0,0,-1,0,-20,0,0,0,10,90,65
23843,0,0,0,0,0,0,0,0,0,0,0,0,0,0,0,0,-1,0,-20,0,0,0,10,90,65
23944,0,0,0,0,0,0,0,0,0,0,0,0,0,0,0,0,-1,0,-20,0,0,0,10,90,65
24045,0,0,0,0,0,0,0,0,0,0,0,0,0,0,0,0,-1,0,-20,0,0,0,10,90,65
24146,0,0,0,0,0,0,0,0,0,0,0,0,0,0,0,0,-1,0,-20,0,0,0,10,90,65
24247,0,0,0,0,0,0,0,0,0,0,0,0,0,0,0,0,-1,0,-20,0,0,0,10,90,65
24348,0,0,0,0,0,0,0,0,0,0,0,0,0,0,0,0,-1,0,-20,0,0,0,10,90,66
24449,0,0,0,0,0,0,0,0,0,0,0,0,0,0,0,0,-1,0,-20,0,0,0,10,90,66
24550,0,0,0,0,0,0,0,0,0,0,0,0,0,0,0,0,-1,0,-20,0,0,0,10,90,66
24651,0,0,0,0,0,0,0,0,0,0,0,0,0,0,0,0,-1,0,-20,0,0,0,10,90,66
24752,0,0,0,0,0,0,0,0,0,0,0,0,0,0,0,0,-1,0,-20,0,0,0,10,90,66
24858,0,0,0,0,0,0,0,0,0,0,0,0,0,0,0,0,-1,0,-20,0,0,0,10,90,66
24959,0,0,0,0,0,0,0,0,0,0,0,0,0,0,0,0,-1,0,-20,0,0,0,10,90,66
25060,0,0,0,0,0,0,0,0,0,0,0,0,0,0,0,0,-1,0,-20,0,0,0,10,90,66
25161,0,0,0,0,0,0,0,0,0,0,0,0,0,0,0,0,-1,0,-20,0,0,0,10,90,66
25262,0,0,0,0,0,0,0,0,0,0,0,0,0,0,0,0,-1,0,-20,0,0,0,10,90,66
25362,0,0,0,0,0,0,0,0,0,0,0,0,0,0,0,0,-1,0,-20,0,0,0,10,90,66
25463,0,0,0,0,0,0,0,0,0,0,0,0,0,0,0,0,-1,0,-20,0,0,0,10,90,66
25564,0,0,0,0,0,0,0,0,0,0,0,0,0,0,0,0,-1,0,-20,0,0,0,10,90,66
25665,0,0,0,0,0,0,0,0,0,0,0,0,0,0,0,0,-1,0,-20,0,0,0,10,90,66
25766,0,0,0,0,0,0,0,0,0,0,0,0,0,0,0,0,-1,0,-20,0,0,0,10,90,66
25867,0,0,0,0,0,0,0,0,0,0,0,0,0,0,0,0,-1,0,-20,0,0,0,10,90,66
25967,0,0,0,0,0,0,0,0,0,0,0,0,0,0,0,0,-1,0,-20,0,0,0,10,90,66
26068,0,0,0,0,0,0,0,0,0,0,0,0,0,0,0,0,-1,0,-20,0,0,0,10,90,66
26168,0,0,0,0,0,0,0,0,0,0,0,0,0,0,0,0,-1,0,-20,0,0,0,10,90,66
26269,0,0,0,0,0,0,0,0,0,0,0,0,0,0,0,0,-1,0,-20,0,0,0,10,90,65
26370,0,0,0,0,0,0,0,0,0,0,0,0,0,0,0,0,-1,0,-20,0,0,0,10,90,65
26472,0,0,0,0,0,0,0,0,0,0,0,0,0,0,0,0,-1,0,-20,0,0,0,10,90,65
26572,0,0,0,0,0,0,0,0,0,0,0,0,0,0,0,0,-1,0,-20,0,0,0,10,90,65
26673,0,0,0,0,0,0,0,0,0,0,0,0,0,0,0,0,-1,0,-20,0,0,0,10,90,65
26774,0,0,0,0,0,0,0,0,0,0,0,0,0,0,0,0,-1,0,-20,0,0,0,10,90,65
26874,0,0,0,0,0,0,0,0,0,0,0,0,0,0,0,0,-1,0,-20,0,0,0,10,90,65
26976,0,0,0,0,0,0,0,0,0,0,0,0,0,0,0,0,-1,0,-20,0,0,0,10,90,65
27077,0,0,0,0,0,0,0,0,0,0,0,0,0,0,0,0,-1,0,-20,0,0,0,10,90,65
27178,0,0,0,0,0,0,0,0,0,0,0,0,0,0,0,0,-1,0,-20,0,0,0,10,90,65
27279,0,0,0,0,0,0,0,0,0,0,0,0,0,0,0,0,-1,0,-20,0,0,0,10,90,65
27380,0,0,0,0,0,0,0,0,0,0,0,0,0,0,0,0,-1,0,-20,0,0,0,10,90,66
27481,0,0,0,0,0,0,0,0,0,0,0,0,0,0,0,0,-1,0,-20,0,0,0,10,90,66
27582,0,0,0,0,0,0,0,0,0,0,0,0,0,0,0,0,-1,0,-20,0,0,0,10,90,66
27683,0,0,0,0,0,0,0,0,0,0,0,0,0,0,0,0,-1,0,-20,0,0,0,10,90,66
27784,0,0,0,0,0,0,0,0,0,0,0,0,0,0,0,0,-1,0,-20,0,0,0,10,90,66
27885,0,0,0,0,0,0,0,0,0,0,0,0,0,0,0,0,-1,0,-20,0,0,0,10,90,66
27986,0,0,0,0,0,0,0,0,0,0,0,0,0,0,0,0,-1,0,-20,0,0,0,10,90,66
28086,0,0,0,0,0,0,0,0,0,0,0,0,0,0,0,0,-1,0,-20,0,0,0,10,90,66
28187,0,0,0,0,0,0,0,0,0,0,0,0,0,0,0,0,-1,0,-20,0,0,0,10,90,66
28288,0,0,0,0,0,0,0,0,0,0,0,0,0,0,0,0,-1,0,-20,0,0,0,10,90,66
28390,0,0,0,0,0,0,0,0,0,0,0,0,0,0,0,0,-1,0,-20,0,0,0,10,90,66
28491,0,0,0,0,0,0,0,0,0,0,0,0,0,0,0,0,-1,0,-20,0,0,0,10,90,66
28592,0,0,0,0,0,0,0,0,0,0,0,0,0,0,0,0,-1,0,-20,0,0,0,10,90,66
28699,0,0,0,0,0,0,0,0,0,0,0,0,0,0,0,0,-1,0,-20,0,0,0,10,90,66
28799,0,0,0,0,0,0,0,0,0,0,0,0,0,0,0,0,-1,0,-20,0,0,0,10,90,66
28900,0,0,0,0,0,0,0,0,0,0,0,0,0,0,0,0,-1,0,-20,0,0,0,10,90,66
29001,0,0,0,0,0,0,0,0,0,0,0,0,0,0,0,0,-1,0,-20,0,0,0,10,90,66
29102,0,0,0,0,0,0,0,0,0,0,0,0,0,0,0,0,-1,0,-20,0,0,0,10,90,66
29202,0,0,0,0,0,0,0,0,0,0,0,0,0,0,0,0,-1,0,-20,0,0,0,10,90,66
29303,0,0,0,0,0,0,0,0,0,0,0,0,0,0,0,0,-1,0,-20,0,0,0,10,90,66
29404,0,0,0,0,0,0,0,0,0,0,0,0,0,0,0,0,-1,0,-20,0,0,0,10,90,66
29504,0,0,0,0,0,0,0,0,0,0,0,0,0,0,0,0,-1,0,-20,0,0,0,10,90,66
29605,0,0,0,0,0,0,0,0,0,0,0,0,0,0,0,0,-1,0,-20,0,0,0,10,90,66
29706,0,0,0,0,0,0,0,0,0,0,0,0,0,0,0,0,-1,0,-20,0,0,0,10,90,66
29809,0,0,0,0,0,0,0,0,0,0,0,0,0,0,0,0,-1,0,-20,0,0,0,10,90,66
29909,0,0,0,0,0,0,0,0,0,0,0,0,0,0,0,0,-1,0,-20,0,0,0,10,90,66
30010,0,0,0,0,0,0,0,0,0,0,0,0,0,0,0,0,-1,0,-20,0,0,0,10,90,66
30111,0,0,0,0,0,0,0,0,0,0,0,0,0,0,0,0,-1,0,-20,0,0,0,10,90,66
30212,0,0,0,0,0,0,0,0,0,0,0,0,0,0,0,0,-1,0,-20,0,0,0,10,90,66
30313,0,0,0,0,0,0,0,0,0,0,0,0,0,0,0,0,-1,0,-20,0,0,0,10,90,66
30414,0,0,0,0,0,0,0,0,0,0,0,0,0,0,0,0,-1,0,-20,0,0,0,10,90,66
30515,0,0,0,0,0,0,0,0,0,0,0,0,0,0,0,0,-1,0,-20,0,0,0,10,90,66
30616,0,0,0,0,0,0,0,0,0,0,0,0,0,0,0,0,-1,0,-20,0,0,0,10,90,66
30717,0,0,0,0,0,0,0,0,0,0,0,0,0,0,0,0,-1,0,-20,0,0,0,10,90,66
30818,0,0,0,0,0,0,0,0,0,0,0,0,0,0,0,0,-1,0,-20,0,0,0,10,90,66
30919,0,0,0,0,0,0,0,0,0,0,0,0,0,0,0,0,-1,0,-20,0,0,0,10,90,66
31020,0,0,0,0,0,0,0,0,0,0,0,0,0,0,0,0,-1,0,-20,0,0,0,10,90,66
31121,0,0,0,0,0,0,0,0,0,0,0,0,0,0,0,0,-1,0,-20,0,0,0,10,90,66
31222,0,0,0,0,0,0,0,0,0,0,0,0,0,0,0,0,-1,0,-20,0,0,0,10,90,66
31322,0,0,0,0,0,0,0,0,0,0,0,0,0,0,0,0,-1,0,-20,0,0,0,10,90,66
31423,0,0,0,0,0,0,0,0,0,0,0,0,0,0,0,0,-1,0,-20,0,0,0,10,90,66
31524,0,0,0,0,0,0,0,0,0,0,0,0,0,0,0,0,-1,0,-20,0,0,0,10,90,66
31625,0,0,0,0,0,0,0,0,0,0,0,0,0,0,0,0,-1,0,-20,0,0,0,10,90,66
31726,0,0,0,0,0,0,0,0,0,0,0,0,0,0,0,0,-1,0,-20,0,0,0,10,90,66
31827,0,0,0,0,0,0,0,0,0,0,0,0,0,0,0,0,-1,0,-20,0,0,0,10,90,66
31928,0,0,0,0,0,0,0,0,0,0,0,0,0,0,0,0,-1,0,-20,0,0,0,10,90,66
32029,0,0,0,0,0,0,0,0,0,0,0,0,0,0,0,0,-1,0,-20,0,0,0,10,90,66
32131,0,0,0,0,0,0,0,0,0,0,0,0,0,0,0,0,-1,0,-20,0,0,0,10,90,66
32231,0,0,0,0,0,0,0,0,0,0,0,0,0,0,0,0,-1,0,-20,0,0,0,10,90,66
32332,0,0,0,0,0,0,0,0,0,0,0,0,0,0,0,0,-1,0,-20,0,0,0,10,90,66
32433,0,0,0,0,0,0,0,0,0,0,0,0,0,0,0,0,-1,0,-20,0,0,0,10,90,66
32534,0,0,0,0,0,0,0,0,0,0,0,0,0,0,0,0,-1,0,-20,0,0,0,10,90,66
32639,0,0,0,0,0,0,0,0,0,0,0,0,0,0,0,0,-1,0,-20,0,0,0,10,90,66
32739,0,0,0,0,0,0,0,0,0,0,0,0,0,0,0,0,-1,0,-20,0,0,0,10,90,66
32840,0,0,0,0,0,0,0,0,0,0,0,0,0,0,0,0,-1,0,-20,0,0,0,10,90,66
32945,0,0,0,0,0,0,0,0,0,0,0,0,0,0,0,0,-1,0,-20,0,0,0,10,90,66
33046,0,0,0,0,0,0,0,0,0,0,0,0,0,0,0,0,-1,0,-20,0,0,0,10,90,66
33147,0,0,0,0,0,0,0,0,0,0,0,0,0,0,0,0,-1,0,-20,0,0,0,10,90,66
33248,0,0,0,0,0,0,0,0,0,0,0,0,0,0,0,0,-1,0,-20,0,0,0,10,90,66
33350,0,0,0,0,0,0,0,0,0,0,0,0,0,0,0,0,-1,0,-20,0,0,0,10,90,67
33451,0,0,0,0,0,0,0,0,0,0,0,0,0,0,0,0,-1,0,-20,0,0,0,10,90,67
33552,0,0,0,0,0,0,0,0,0,0,0,0,0,0,0,0,-1,0,-20,0,0,0,10,90,67
33653,0,0,0,0,0,0,0,0,0,0,0,0,0,0,0,0,-1,0,-20,0,0,0,10,90,67
33754,0,0,0,0,0,0,0,0,0,0,0,0,0,0,0,0,-1,0,-20,0,0,0,10,90,67
33855,0,0,0,0,0,0,0,0,0,0,0,0,0,0,0,0,-1,0,-20,0,0,0,10,90,67
33957,0,0,0,0,0,0,0,0,0,0,0,0,0,0,0,0,-1,0,-20,0,0,0,10,90,67
34058,0,0,0,0,0,0,0,0,0,0,0,0,0,0,0,0,-1,0,-20,0,0,0,10,90,67
34161,0,0,0,0,0,0,0,0,0,0,0,0,0,0,0,0,-1,0,-20,0,0,0,10,90,67
34262,0,0,0,0,0,0,0,0,0,0,0,0,0,0,0,0,-1,0,-20,0,0,0,10,90,67
34363,0,0,0,0,0,0,0,0,0,0,0,0,0,0,0,0,-1,0,-20,0,0,0,10,90,67
34464,0,0,0,0,0,0,0,0,0,0,0,0,0,0,0,0,-1,0,-20,0,0,0,10,90,67
34565,0,0,0,0,0,0,0,0,0,0,0,0,0,0,0,0,0,0,-20,0,0,0,10,90,67
34666,0,0,0,0,0,0,0,0,0,0,0,0,0,0,0,0,0,0,-20,0,0,0,10,90,67
34768,0,0,0,0,0,0,0,0,0,0,0,0,0,0,0,0,0,0,-19,0,0,-3,23,90,67
34869,0,0,0,0,0,0,0,0,0,0,0,0,0,0,0,0,0,1,-19,0,0,-6,23,90,67
34970,0,0,0,0,0,0,0,0,0,0,0,0,0,0,0,0,0,1,-19,0,0,-6,23,90,67
35071,0,0,0,0,0,0,0,0,0,0,0,0,0,0,0,0,-1,2,-20,-1,0,-6,23,90,67
35171,0,0,0,0,0,0,0,0,0,0,0,0,0,0,0,0,-2,3,-20,-1,0,-6,23,90,67
35272,0,0,0,0,0,0,0,0,0,0,0,0,0,0,0,0,-2,3,-20,-1,0,-6,27,90,67
35373,0,0,0,0,0,0,0,0,0,0,0,0,0,0,0,0,-2,4,-20,0,-1,-5,33,90,67
35473,0,0,0,0,0,0,0,0,0,0,0,0,0,0,0,0,-1,5,-20,0,-1,-4,37,90,67
35574,0,0,0,0,0,0,0,0,0,0,0,0,0,0,0,0,0,6,-20,0,-1,-4,40,90,67
35676,0,0,0,0,0,0,0,0,0,0,0,0,0,0,0,0,-1,6,-20,-1,-1,-3,43,90,67
35777,0,0,0,0,0,0,0,0,0,0,0,0,0,0,0,0,-2,7,-20,0,-1,-3,46,90,67
35878,0,0,0,0,0,0,0,0,0,0,0,0,0,0,0,0,-2,7,-20,0,-1,-2,48,90,67
35989,0,0,1,64,502,42,30,2,261,6,-25,258,0,0,0,0,-2,7,-20,0,0,-2,50,90,67
36090,0,0,1,64,493,44,25,1,308,4,-34,305,0,0,0,0,-1,6,-20,0,0,-2,51,90,67
36191,0,0,1,64,496,53,25,1,318,6,-32,315,0,0,0,0,-1,6,-20,0,0,-2,53,90,67
36292,0,0,1,73,704,45,28,16,278,74,-30,265,0,0,0,0,-1,5,-20,0,0,-2,54,90,67
36395,0,0,1,73,704,45,28,16,278,74,-30,265,0,0,0,0,-1,5,-20,0,0,-2,56,90,68
36498,0,0,0,73,704,45,0,16,278,74,-30,265,0,0,0,0,-1,5,-20,0,0,-2,57,90,68
36598,0,0,0,73,704,45,0,16,278,74,-30,265,0,0,0,0,0,5,-20,0,0,-2,58,90,68
36699,0,0,1,61,511,60,57,2,135,5,-15,134,0,0,0,0,0,5,-20,0,0,-2,60,90,68
36802,0,0,0,61,511,60,0,2,135,5,-15,134,0,0,0,0,0,6,-20,0,0,-2,61,90,68
36903,0,0,1,64,569,55,53,6,146,15,-19,144,0,0,0,0,1,6,-20,0,0,-2,62,90,68
37004,0,0,1,62,555,69,52,5,151,13,-15,149,0,0,0,0,0,6,-20,0,0,-2,63,90,68
37105,0,0,1,64,545,67,50,5,156,12,-16,154,0,0,0,0,0,6,-20,0,0,-1,64,90,68
37206,0,0,1,66,538,54,50,4,157,11,-18,155,0,0,0,0,0,5,-20,0,0,-1,65,90,68
37307,0,0,1,70,528,44,47,3,164,9,-21,162,0,0,0,0,0,5,-20,0,0,-1,66,90,68
37408,0,0,1,72,520,46,45,3,172,8,-21,170,0,0,0,0,0,5,-20,0,0,-1,67,90,67
37508,0,0,1,73,507,41,42,2,187,6,-21,184,0,0,0,0,-1,6,-20,0,0,-1,68,90,67
37611,0,0,1,74,501,47,46,1,170,4,-18,168,0,0,0,0,-1,6,-20,0,0,-1,70,90,67
37712,0,0,1,73,490,52,45,1,173,2,-14,171,0,0,0,0,-2,6,-20,0,0,-1,71,90,67
37812,0,0,1,73,496,57,45,1,173,3,-14,171,0,0,0,0,-2,6,-20,0,0,-1,72,90,67
37917,0,0,1,76,496,50,43,1,181,3,-19,179,0,0,0,0,-1,6,-20,0,0,-1,73,90,67
38018,0,0,1,76,496,50,43,1,181,3,-19,179,0,0,0,0,0,6,-20,0,0,-1,74,90,67
38120,0,0,1,78,496,37,46,1,170,3,-23,168,0,0,0,0,0,6,-20,0,0,-1,75,90,67
38220,0,0,1,75,496,37,46,1,170,3,-23,168,0,0,0,0,0,6,-20,0,0,-1,76,90,67
38322,0,0,1,75,496,37,46,1,170,3,-23,168,0,0,0,0,-1,6,-20,0,0,-1,77,90,67
38423,0,0,1,78,492,44,47,1,168,2,-18,167,0,0,0,0,-1,7,-20,0,0,-1,78,90,67
38524,0,0,1,78,494,44,47,1,168,2,-18,166,0,0,0,0,-1,7,-20,0,0,0,79,90,67
38625,0,0,1,79,499,45,47,1,167,3,-18,165,0,0,0,0,-1,6,-20,0,0,-1,80,90,67
38726,0,0,1,79,499,45,47,1,166,3,-18,164,0,0,0,0,-1,5,-20,0,0,-1,81,90,67
38827,0,0,1,79,494,59,46,1,169,2,-16,167,0,0,0,0,-1,5,-20,0,0,-1,82,90,67
38930,0,0,1,79,491,60,47,1,166,2,-15,164,0,0,0,0,-1,5,-20,0,0,-1,84,90,67
39030,0,0,1,80,492,40,46,1,169,2,-19,167,0,0,0,0,-1,5,-20,0,0,-1,86,90,67
39132,0,0,1,80,491,51,44,1,177,2,-18,175,0,0,0,0,-1,5,-20,0,1,-1,87,90,67
39233,0,0,1,80,491,54,44,1,176,2,-17,174,0,0,0,0,-1,4,-20,0,1,-1,89,90,67
39333,0,0,1,79,485,47,45,0,173,1,-15,171,0,0,0,0,-2,4,-20,0,1,-1,92,89,67
39434,0,0,1,78,485,55,46,0,167,1,-11,165,0,0,0,0,-3,3,-20,0,1,-1,94,89,67
39535,0,0,1,79,477,44,45,-0,170,0,-13,168,0,0,0,0,-3,3,-20,0,1,-1,95,89,67
39637,0,0,1,80,471,44,44,-1,175,-1,-13,173,0,0,0,0,-3,3,-20,0,1,-1,97,89,67
39740,0,0,1,80,471,44,44,-1,175,-1,-13,173,0,0,0,0,-3,2,-20,0,1,-2,100,89,67
39841,0,0,1,81,459,37,45,-1,169,-4,-14,167,0,0,0,0,-3,2,-20,0,1,-1,102,89,67
39942,0,0,1,81,454,43,45,-2,169,-5,-13,167,0,0,0,0,-3,1,-20,0,0,-2,104,89,67
40046,0,0,1,81,454,43,45,-2,169,-5,-13,167,0,0,0,0,-2,3,-19,0,0,-2,107,89,67
40147,0,0,1,81,454,43,45,-2,169,-5,-13,167,0,0,0,0,-1,4,-19,0,0,-2,109,89,67
40248,0,0,1,77,423,54,52,-4,147,-10,-12,145,0,0,0,0,-2,3,-20,0,0,-2,113,89,67
40348,0,0,1,75,407,63,50,-5,154,-13,-11,152,0,0,0,0,-2,2,-20,0,0,-2,116,89,67
40449,0,0,1,73,400,59,50,-6,152,-14,-12,150,0,0,0,0,-2,3,-20,0,0,-2,119,89,67
40550,0,0,1,73,393,51,49,-6,158,-16,-19,155,0,0,0,0,0,4,-20,0,0,-2,121,89,67
40652,0,0,1,73,393,56,49,-6,159,-16,-18,156,0,0,0,0,0,5,-20,0,0,-2,124,89,67
40753,0,0,1,73,390,50,48,-6,162,-17,-20,160,0,0,0,0,0,6,-20,0,0,-2,125,89,67
40853,0,0,1,72,386,51,49,-7,160,-18,-19,157,0,0,0,0,0,6,-20,0,0,-2,128,89,67
40954,0,0,1,74,393,47,50,-6,155,-16,-19,152,0,0,0,0,0,6,-20,0,0,-2,131,89,67
41055,0,0,1,76,393,51,49,-6,160,-16,-19,157,0,0,0,0,0,6,-20,0,0,-2,134,89,67
41156,0,0,1,75,397,56,48,-6,162,-16,-19,160,0,0,0,0,0,6,-20,0,0,-2,138,89,67
41257,0,0,1,74,397,54,47,-6,168,-16,-19,165,0,0,0,0,0,6,-20,0,0,-2,140,88,67
41357,0,0,1,74,407,59,47,-5,166,-14,-16,164,0,0,0,0,-1,5,-20,-1,0,-2,140,88,67
41458,0,0,1,77,406,55,47,-5,166,-14,-16,164,0,0,0,0,-1,5,-20,-1,0,-1,144,88,68
41559,0,0,1,77,406,55,47,-5,166,-14,-16,164,0,0,0,0,-2,5,-20,-1,0,-2,147,88,68
41660,0,0,1,76,407,51,49,-5,159,-14,-13,156,0,0,0,0,-2,5,-20,-1,0,-2,150,88,68
41761,0,0,1,76,400,50,48,-6,161,-15,-14,159,0,0,0,0,-2,5,-20,-1,0,-2,153,88,68
41862,0,0,1,76,400,50,48,-6,161,-15,-14,159,0,0,0,0,-2,5,-20,-1,0,-1,154,88,68
41963,0,0,1,77,400,55,47,-6,165,-15,-13,162,0,0,0,0,-2,6,-20,-1,0,-1,157,88,68
42063,0,0,1,76,390,53,46,-6,169,-18,-11,166,0,0,0,0,-3,5,-20,-1,0,0,158,88,68
42164,0,0,1,74,386,59,47,-7,166,-18,-7,164,0,0,0,0,-4,5,-20,-1,0,0,159,88,68
42266,0,0,1,74,386,59,47,-7,166,-18,-7,164,0,0,0,0,-4,5,-20,-1,0,0,159,88,68
42367,0,0,1,79,393,56,48,-6,162,-17,-10,160,0,0,0,0,-3,6,-20,-1,0,0,161,88,68
42468,0,0,1,79,393,59,47,-6,168,-17,-10,165,0,0,0,0,-4,6,-20,-1,0,0,162,88,68
42569,0,0,1,78,388,67,47,-6,162,-18,-5,160,0,0,0,0,-4,4,-20,-1,0,0,163,88,68
42670,0,0,1,78,393,53,46,-6,169,-17,-5,166,0,0,0,0,-5,5,-20,-1,0,0,162,88,68
42770,0,0,1,77,393,57,44,-6,174,-18,-5,172,0,0,0,0,-5,5,-20,-1,0,0,161,88,68
42871,0,0,1,79,403,58,45,-5,174,-16,-7,172,0,0,0,0,-4,5,-20,-1,0,0,161,88,68
42972,0,0,1,79,423,56,43,-4,184,-12,-8,181,0,0,0,0,-4,6,-20,0,0,0,161,88,68
43073,0,0,1,81,445,65,41,-2,193,-8,-10,191,0,0,0,0,-3,6,-20,0,0,0,161,88,68
43174,0,0,1,81,457,68,38,-2,205,-5,-7,203,0,0,0,0,-4,6,-20,0,0,0,162,88,68
43275,0,0,1,82,479,61,41,-0,191,0,-11,190,0,0,0,0,-3,5,-20,0,0,0,161,87,68
43379,0,0,1,82,479,61,41,-0,191,0,-11,190,0,0,0,0,-3,5,-20,0,0,0,161,87,68
43480,0,0,1,82,479,61,41,-0,191,0,-11,190,0,0,0,0,-3,5,-20,0,0,0,160,87,67
43580,0,0,1,82,492,65,39,1,198,2,-11,196,0,0,0,0,-3,5,-20,0,0,0,160,87,67
43682,0,0,1,82,492,65,39,1,198,2,-11,196,0,0,0,0,-2,5,-20,0,0,0,161,87,67
43783,0,0,1,82,503,82,36,2,214,5,-11,212,0,0,0,0,-2,4,-20,0,0,0,160,87,67
43884,0,0,1,82,503,82,36,2,214,5,-11,212,0,0,0,0,-2,4,-20,0,0,0,159,87,67
43985,0,0,1,82,488,114,34,1,230,2,-5,229,0,0,0,0,-1,5,-20,0,0,0,161,87,67
44087,0,0,1,80,479,126,31,-0,247,0,-2,246,0,0,0,0,-2,5,-20,0,0,0,160,87,67
44188,0,0,1,80,472,124,29,-1,267,-2,-7,266,0,0,0,0,-1,5,-20,0,0,0,159,87,67
44289,5,0,1,79,470,123,29,-1,273,-3,-12,272,-5,-8,0,0,0,6,-20,0,0,0,160,87,67
44390,5,0,1,79,465,103,28,-1,277,-5,-18,276,-6,-6,0,0,0,6,-20,0,0,0,159,87,67
44491,5,0,1,79,468,112,29,-1,273,-3,-11,272,-5,-11,0,0,-1,6,-20,0,0,0,159,87,68
44596,5,0,1,79,472,106,28,-1,282,-2,-18,281,-5,-6,0,0,0,6,-20,0,0,0,159,87,68
44703,5,0,1,77,472,107,28,-1,284,-2,-18,283,-5,-8,0,0,0,7,-20,0,0,0,159,87,68
44804,5,0,1,77,479,111,27,-0,288,0,-17,287,-4,-6,0,0,0,7,-21,0,0,0,157,87,68
44905,5,0,1,74,491,118,27,1,289,3,-15,288,6,-8,0,0,0,6,-21,0,0,0,157,87,68
45006,5,0,1,79,491,118,26,1,298,3,-15,297,6,-3,0,0,0,6,-22,0,0,0,157,87,68
45110,5,0,1,79,491,114,26,1,298,3,-16,297,6,-5,0,0,0,6,-22,0,0,0,158,87,68
45216,5,0,1,82,488,110,27,1,291,2,-17,290,5,-8,0,0,0,5,-22,0,0,0,157,87,68
45317,5,0,1,83,491,109,27,1,290,3,-17,289,5,-8,0,0,-2,3,-22,0,1,0,156,86,68
45418,5,0,1,83,491,109,27,1,290,3,-17,289,5,-8,0,0,-2,2,-22,0,1,0,158,86,67
45519,5,0,1,83,491,109,27,1,290,3,-17,289,5,-8,0,0,-2,2,-22,0,1,0,158,86,67
45620,5,0,1,83,491,109,27,1,290,3,-17,289,40,0,0,0,-2,2,-21,0,0,0,156,86,67
45722,5,0,1,83,454,107,25,-2,312,-9,-14,311,40,0,0,0,-1,3,-21,0,0,0,156,86,67
45822,5,0,1,83,454,107,25,-2,312,-9,-14,311,40,0,0,0,-1,3,-21,0,0,0,157,86,67
45923,5,0,1,83,448,102,24,-2,322,-12,-16,321,40,0,0,0,-1,3,-21,0,0,0,157,86,67
46025,5,0,1,83,448,109,24,-2,322,-12,-8,321,40,0,0,0,-2,3,-19,0,0,0,159,86,67
46126,5,0,1,83,448,109,23,-2,327,-12,-8,325,40,0,0,0,-2,2,-16,0,0,0,158,86,67
46227,5,0,1,83,453,118,22,-2,343,-11,-12,342,40,0,0,0,-1,3,-13,0,0,0,159,86,67
46329,5,0,1,83,445,119,23,-2,338,-14,-11,337,40,0,0,0,-1,3,-10,0,1,0,160,86,67
46430,5,0,1,83,445,119,23,-2,338,-14,-11,337,40,0,0,0,-2,1,-8,0,1,0,159,86,67
46531,5,0,1,83,445,119,23,-2,338,-14,-11,337,40,0,0,0,-3,0,-6,0,1,0,159,86,68
46633,5,0,1,69,285,109,23,-14,331,-77,-9,321,40,0,0,0,-1,1,-1,0,0,0,159,86,68
46733,5,0,1,82,253,109,23,-16,332,-90,-9,318,40,0,0,0,-2,2,0,0,0,0,159,86,68
46834,5,0,1,82,253,109,23,-16,332,-90,-9,318,40,0,0,0,-2,2,3,0,0,0,159,86,68
46935,5,0,1,82,166,124,25,-22,308,-114,-3,284,40,0,0,0,-2,3,6,0,0,0,159,86,68
47036,5,0,1,77,84,113,23,-28,332,-154,-13,293,40,0,0,0,-1,2,8,0,0,0,160,86,68
47139,5,0,1,77,84,113,23,-28,332,-154,-13,293,40,0,0,0,-1,2,11,0,0,0,158,86,68
47240,5,0,1,77,84,113,23,-28,332,-154,-13,293,40,0,0,0,-1,1,13,0,0,0,160,85,68
47341,5,0,0,77,84,113,0,-28,332,-154,-13,293,40,0,0,0,-1,1,13,0,0,0,160,85,68
47441,5,0,0,77,84,113,0,-28,332,-154,-13,293,40,0,0,0,-2,1,16,0,0,0,157,85,68
47542,5,0,0,77,84,113,0,-28,332,-154,-13,293,40,0,0,0,-2,0,21,0,0,0,157,85,68
47643,5,0,0,77,84,113,0,-28,332,-154,-13,293,40,0,0,0,-2,0,23,0,0,0,156,85,68
47744,5,0,0,77,84,113,0,-28,332,-154,-13,293,40,0,0,0,-2,0,25,0,0,0,157,85,68
47845,5,0,0,77,84,113,0,-28,332,-154,-13,293,40,0,0,0,-3,1,28,0,0,0,158,85,68
47948,5,0,0,77,84,113,0,-28,332,-154,-13,293,40,0,0,0,-3,1,30,-1,0,0,157,85,68
48051,5,0,0,77,84,113,0,-28,332,-154,-13,293,40,0,0,0,-3,0,35,-1,0,0,158,85,68
48152,5,0,0,77,84,113,0,-28,332,-154,-13,293,40,0,0,0,-3,0,37,-1,0,0,157,85,68
48254,5,0,0,77,84,113,0,-28,332,-154,-13,293,40,0,0,0,-3,0,40,-1,0,0,157,85,68
48355,5,0,0,77,84,113,0,-28,332,-154,-13,293,40,0,0,0,-3,0,42,-1,0,0,158,85,68
48456,5,0,0,77,84,113,0,-28,332,-154,-13,293,40,0,0,0,-4,-1,44,-1,0,0,160,85,67
48557,5,0,0,77,84,113,0,-28,332,-154,-13,293,40,0,0,0,-4,-2,46,-1,0,0,160,85,67
48659,5,0,0,77,84,113,0,-28,332,-154,-13,293,40,0,0,0,-4,-2,49,-1,0,0,161,85,67
48760,5,0,0,77,84,113,0,-28,332,-154,-13,293,40,0,0,0,-3,-2,51,-1,0,0,161,85,67
48861,5,0,0,77,84,113,0,-28,332,-154,-13,293,40,0,0,0,-3,-2,53,-1,0,0,160,85,67
48963,5,0,0,77,84,113,0,-28,332,-154,-13,293,40,0,0,0,-2,-2,55,0,0,0,160,85,67
49064,5,0,0,77,84,113,0,-28,332,-154,-13,293,40,0,0,0,-1,-2,57,0,0,0,159,85,67
49165,5,0,0,77,84,113,0,-28,332,-154,-13,293,40,0,0,0,-1,-1,59,0,0,0,157,85,67
49266,5,0,0,77,84,113,0,-28,332,-154,-13,293,40,0,0,0,-2,-1,61,0,0,0,158,84,67
49367,5,0,0,77,84,113,0,-28,332,-154,-13,293,40,0,0,0,-2,-1,62,0,0,0,157,84,67
49468,5,0,0,77,84,113,0,-28,332,-154,-13,293,40,0,0,0,-3,0,64,0,0,0,158,84,69
49570,5,0,0,77,84,113,0,-28,332,-154,-13,293,40,0,0,0,-3,0,66,0,0,0,157,84,69
49670,5,0,0,77,84,113,0,-28,332,-154,-13,293,40,0,0,0,-3,0,68,0,0,0,157,84,69
49771,5,0,0,77,84,113,0,-28,332,-154,-13,293,40,0,0,0,-3,0,70,0,0,0,157,84,69
49872,5,0,0,77,84,113,0,-28,332,-154,-13,293,40,0,0,0,-3,-1,72,0,0,0,157,84,69
49973,5,0,0,77,84,113,0,-28,332,-154,-13,293,40,0,0,0,-4,0,75,-1,0,0,158,84,69
50074,5,0,0,77,84,113,0,-28,332,-154,-13,293,40,0,0,0,-4,-1,77,-1,0,0,157,84,69
50177,5,0,0,77,84,113,0,-28,332,-154,-13,293,40,0,0,0,-3,-2,79,-1,0,0,159,84,69
50277,5,0,0,77,84,113,0,-28,332,-154,-13,293,40,0,0,0,-3,-2,82,-1,0,0,159,84,69
50378,5,0,0,77,84,113,0,-28,332,-154,-13,293,40,0,0,0,-3,-2,84,-1,0,0,158,84,69
50479,5,0,0,77,84,113,0,-28,332,-154,-13,293,40,0,0,0,-4,-2,87,-1,0,0,160,84,68
50580,5,0,0,77,84,113,0,-28,332,-154,-13,293,40,0,0,0,-3,-3,89,-2,0,0,161,84,68
50681,5,0,0,77,84,113,0,-28,332,-154,-13,293,40,0,0,0,-3,-5,92,-2,0,0,162,84,68
50782,5,0,0,77,84,113,0,-28,332,-154,-13,293,40,0,0,0,-3,-5,94,-2,0,0,163,84,68
50883,5,0,0,77,84,113,0,-28,332,-154,-13,293,40,0,0,0,-3,-6,97,-2,0,0,164,84,68
50984,5,0,0,77,84,113,0,-28,332,-154,-13,293,40,0,0,0,-3,-7,99,-2,0,0,162,84,68
51085,5,0,0,77,84,113,0,-28,332,-154,-13,293,40,0,0,0,-2,-6,102,-2,0,0,161,84,68
51187,5,0,0,77,84,113,0,-28,332,-154,-13,293,40,0,0,0,-3,-6,104,-2,0,0,160,84,68
51288,5,0,0,77,84,113,0,-28,332,-154,-13,293,40,0,0,0,-2,-7,107,-2,0,0,160,83,68
51388,5,0,0,77,84,113,0,-28,332,-154,-13,293,45,0,0,0,-1,-7,109,-2,0,0,160,83,68
51489,5,0,0,77,84,113,0,-28,332,-154,-13,293,45,0,0,0,0,-7,112,-2,0,0,159,83,67
51590,5,0,0,77,84,113,0,-28,332,-154,-13,293,45,0,0,0,0,-7,114,-3,0,0,161,83,67
51693,5,0,0,77,84,113,0,-28,332,-154,-13,293,45,0,0,0,1,-7,117,-3,0,0,161,83,67
51794,5,0,0,77,84,113,0,-28,332,-154,-13,293,45,0,0,0,2,-7,120,-3,0,0,163,83,67
51895,5,0,0,77,84,113,0,-28,332,-154,-13,293,45,0,0,0,2,-7,124,-3,0,0,161,83,67
51996,5,0,0,77,84,113,0,-28,332,-154,-13,293,45,0,0,0,2,-7,127,-3,0,0,162,83,67
52097,5,0,0,77,84,113,0,-28,332,-154,-13,293,45,0,0,0,2,-7,130,-3,-1,0,162,83,67
52198,5,0,0,77,84,113,0,-28,332,-154,-13,293,45,0,0,0,2,-7,133,-3,-1,0,162,83,67
52299,5,0,0,77,84,113,0,-28,332,-154,-13,293,45,0,0,0,3,-7,136,-3,-1,0,161,83,67
52400,5,0,0,77,84,113,0,-28,332,-154,-13,293,45,0,0,0,2,-7,139,-3,-1,0,162,83,67
52502,5,0,0,77,84,113,0,-28,332,-154,-13,293,45,0,0,0,2,-6,142,-3,-1,0,161,83,67
52604,5,0,0,77,84,113,0,-28,332,-154,-13,293,45,0,0,0,3,-7,145,-3,-1,0,161,83,67
52705,5,0,0,77,84,113,0,-28,332,-154,-13,293,45,0,0,0,4,-6,149,-3,0,0,161,83,67
52807,5,0,0,77,84,113,0,-28,332,-154,-13,293,45,0,0,0,5,-5,152,-3,0,0,162,83,67
52909,5,0,0,77,84,113,0,-28,332,-154,-13,293,45,0,0,0,5,-5,155,-3,0,0,161,83,67
53010,5,0,0,77,84,113,0,-28,332,-154,-13,293,45,0,0,0,6,-4,158,-3,0,0,162,83,67
53112,5,0,0,77,84,113,0,-28,332,-154,-13,293,45,0,0,0,6,-4,162,-4,0,0,163,83,67
53213,5,0,0,77,84,113,0,-28,332,-154,-13,293,45,0,0,0,6,-4,165,-4,0,0,163,82,67
53314,5,0,0,77,84,113,0,-28,332,-154,-13,293,45,0,0,0,7,-3,168,-4,0,0,163,82,67
53416,5,0,0,77,84,113,0,-28,332,-154,-13,293,45,0,0,0,7,-3,172,-5,0,0,162,82,67
53517,5,0,0,77,84,113,0,-28,332,-154,-13,293,45,0,0,0,7,-2,175,-5,0,0,165,82,67
53617,5,0,0,77,84,113,0,-28,332,-154,-13,293,45,0,0,0,7,-1,178,-5,-1,0,164,82,67
53719,5,0,0,77,84,113,0,-28,332,-154,-13,293,45,0,0,0,7,-1,-177,-5,-1,0,164,82,67
53822,5,0,0,77,84,113,0,-28,332,-154,-13,293,45,0,0,0,7,-1,-174,-5,-2,0,164,82,67
53923,5,0,0,77,84,113,0,-28,332,-154,-13,293,45,0,0,0,8,-1,-170,-5,-2,0,165,82,67
54024,5,0,0,77,84,113,0,-28,332,-154,-13,293,45,0,0,0,8,-1,-167,-5,-2,0,165,82,67
54126,5,0,0,77,84,113,0,-28,332,-154,-13,293,45,0,0,0,8,-1,-164,-5,-2,0,164,82,67
54227,5,0,0,77,84,113,0,-28,332,-154,-13,293,45,0,0,0,8,0,-160,-5,-2,0,165,82,67
54328,5,0,0,77,84,113,0,-28,332,-154,-13,293,45,0,0,0,7,0,-157,-5,-2,0,164,82,67
54430,5,0,0,77,84,113,0,-28,332,-154,-13,293,45,0,0,0,7,0,-154,-5,-2,0,164,82,67
54539,5,0,0,77,84,113,0,-28,332,-154,-13,293,45,0,0,0,7,1,-152,-5,-2,0,163,82,67
54640,5,0,0,77,84,113,0,-28,332,-154,-13,293,45,0,0,0,7,1,-149,-5,-3,0,163,82,67
54741,5,0,0,77,84,113,0,-28,332,-154,-13,293,45,0,0,0,7,1,-145,-4,-3,0,162,82,67
54843,5,0,0,77,84,113,0,-28,332,-154,-13,293,45,0,0,0,7,1,-143,-4,-3,0,160,82,67
54944,5,0,0,77,84,113,0,-28,332,-154,-13,293,45,0,0,0,7,1,-140,-4,-3,0,160,82,67
55045,5,0,0,77,84,113,0,-28,332,-154,-13,293,45,0,0,0,7,2,-137,-4,-3,0,160,82,67
55147,5,0,0,77,84,113,0,-28,332,-154,-13,293,45,0,0,0,7,2,-134,-4,-3,0,158,82,67
55248,5,0,0,77,84,113,0,-28,332,-154,-13,293,45,0,0,0,7,3,-131,-4,-2,0,157,81,67
55349,5,0,0,77,84,113,0,-28,332,-154,-13,293,45,0,0,0,8,3,-128,-4,-3,0,158,81,67
55450,5,0,0,77,84,113,0,-28,332,-154,-13,293,45,0,0,0,8,4,-125,-3,-2,0,158,81,67
55552,5,0,0,77,84,113,0,-28,332,-154,-13,293,45,0,0,0,8,5,-122,-3,-2,0,157,81,67
55653,5,0,0,77,84,113,0,-28,332,-154,-13,293,45,0,0,0,8,5,-119,-2,-2,0,158,81,67
55754,5,0,0,77,84,113,0,-28,332,-154,-13,293,45,0,0,0,8,6,-116,-1,-2,0,158,81,67
55856,5,0,0,77,84,113,0,-28,332,-154,-13,293,45,0,0,0,8,7,-113,-1,-1,0,157,81,67
55958,5,0,0,77,84,113,0,-28,332,-154,-13,293,45,0,0,0,8,7,-110,0,-1,0,159,81,67
56059,5,0,0,77,84,113,0,-28,332,-154,-13,293,45,0,0,0,8,8,-107,0,-1,0,158,81,67
56160,5,0,0,77,84,113,0,-28,332,-154,-13,293,45,0,0,0,8,9,-105,0,-1,0,159,81,67
56261,5,0,0,77,84,113,0,-28,332,-154,-13,293,45,0,0,0,8,9,-102,0,-1,0,159,81,67
56362,5,0,0,77,84,113,0,-28,332,-154,-13,293,45,0,0,0,8,10,-99,1,-1,0,158,81,67
56463,5,0,0,77,84,113,0,-28,332,-154,-13,293,45,0,0,0,9,10,-96,2,-1,0,159,81,67
56564,5,0,0,77,84,113,0,-28,332,-154,-13,293,45,0,0,0,9,11,-93,2,0,0,158,81,67
56665,5,0,0,77,84,113,0,-28,332,-154,-13,293,45,0,0,0,8,12,-90,2,0,0,162,81,67
56766,5,0,0,77,84,113,0,-28,332,-154,-13,293,45,0,0,0,8,13,-86,3,0,0,158,81,67
56866,5,0,0,77,84,113,0,-28,332,-154,-13,293,45,0,0,0,7,14,-83,3,0,0,161,81,67
56967,5,0,0,77,84,113,0,-28,332,-154,-13,293,45,0,0,0,7,15,-79,4,1,0,160,81,67
57068,5,0,0,77,84,113,0,-28,332,-154,-13,293,45,0,0,0,6,16,-76,4,2,0,162,81,67
57173,5,0,0,77,84,113,0,-28,332,-154,-13,293,45,0,0,0,5,17,-73,5,2,0,164,81,67
57276,5,0,0,77,84,113,0,-28,332,-154,-13,293,45,0,0,0,4,18,-69,6,3,0,164,80,67
57378,5,0,0,77,84,113,0,-28,332,-154,-13,293,45,0,0,0,4,18,-66,7,3,0,163,80,67
57479,5,0,0,77,84,113,0,-28,332,-154,-13,293,45,0,0,0,2,16,-63,7,4,0,159,80,67
57580,5,0,0,77,84,113,0,-28,332,-154,-13,293,45,0,0,0,1,12,-60,8,4,0,160,80,67
57682,5,0,0,77,84,113,0,-28,332,-154,-13,293,45,0,0,0,0,10,-57,7,4,0,162,80,67
57784,5,0,0,77,84,113,0,-28,332,-154,-13,293,45,0,0,0,0,9,-54,7,4,0,159,80,67
57885,5,0,0,77,84,113,0,-28,332,-154,-13,293,45,0,0,0,-1,8,-51,7,4,0,161,80,67
57986,5,0,0,77,84,113,0,-28,332,-154,-13,293,45,0,0,0,-1,8,-48,6,4,0,161,80,67
58087,5,0,0,77,84,113,0,-28,332,-154,-13,293,45,0,0,0,-2,8,-45,5,3,0,159,80,67
58188,5,0,1,70,784,129,21,21,384,139,-2,357,23,27,0,0,-2,8,-42,5,3,0,160,80,67
58290,5,0,1,83,720,131,19,17,406,117,5,388,16,39,0,0,-3,7,-39,5,3,0,160,80,67
58391,5,0,1,77,653,131,19,12,403,84,-1,393,11,36,0,0,-2,6,-36,4,2,0,160,80,67
58493,5,0,1,76,525,126,18,3,436,23,3,434,0,52,0,0,-3,6,-34,3,3,0,161,80,67
58594,5,0,0,76,525,126,0,3,436,23,3,434,45,0,0,0,-8,5,-32,3,2,0,162,80,68
58695,5,0,1,74,409,110,19,-5,419,-36,32,416,-20,38,0,0,-8,5,-31,3,1,0,163,80,68
58796,5,0,1,82,354,121,19,-9,415,-63,44,410,-24,39,0,0,-9,6,-31,3,0,0,162,80,68
58897,5,0,1,82,255,87,21,-16,375,-101,7,359,-34,21,0,0,-6,5,-29,4,0,0,163,80,68
58998,5,0,1,83,211,44,23,-19,344,-109,-8,322,-36,12,0,0,-6,6,-29,4,0,0,159,80,68
59099,5,0,1,70,193,36,25,-20,315,-107,-5,293,-37,1,0,0,-7,5,-30,3,0,0,161,80,68
59200,5,0,1,83,148,25,27,-23,281,-109,-7,255,-41,-20,0,0,-7,4,-32,4,0,0,160,80,68
59301,5,0,1,73,90,44,26,-27,295,-133,-7,259,-47,-8,0,0,-6,4,-34,3,0,0,160,79,68
59402,5,0,1,74,89,68,26,-27,301,-137,-10,265,-45,4,0,0,-4,5,-35,3,0,0,159,79,68
59503,5,0,1,81,84,56,24,-28,328,-151,-27,288,-46,18,0,0,-2,6,-37,3,0,0,157,79,68
59605,5,0,1,81,84,56,24,-28,328,-151,-27,288,-46,18,0,0,-2,6,-40,2,0,0,156,79,68
59706,5,0,1,81,84,56,24,-28,328,-151,-27,288,-46,18,0,0,-3,5,-43,2,0,0,156,79,68
59807,5,0,1,71,93,66,27,-27,282,-127,-15,250,-45,-11,0,0,-3,6,-46,1,0,0,153,79,68
59908,5,0,1,71,93,66,27,-27,282,-127,-15,250,-45,-11,0,0,-3,6,-48,1,0,0,154,79,68
60009,5,0,1,83,151,108,27,-23,294,-114,-3,270,-40,-3,0,0,-3,7,-51,1,0,0,152,79,68
60111,5,0,1,83,227,125,22,-18,358,-108,-3,340,-33,29,0,0,-2,7,-54,1,0,0,153,79,68
60213,5,0,1,83,310,116,20,-12,387,-79,-7,378,-24,40,0,0,-2,7,-57,1,0,0,153,79,68
60314,5,0,1,80,363,109,20,-8,393,-55,-17,388,-21,40,0,0,-1,7,-62,0,0,0,153,79,68
60415,5,0,1,83,406,110,21,-5,369,-33,-16,366,-17,28,0,0,-3,8,-64,0,-1,0,153,79,68
60515,5,0,1,82,453,113,21,-2,378,-12,-2,377,-14,36,0,0,-3,8,-64,0,-1,0,153,79,68
60616,5,0,1,82,453,113,21,-2,378,-12,-2,377,-14,36,0,0,-4,8,-65,0,-1,0,153,79,68
60717,5,0,1,83,532,121,22,4,367,23,7,365,3,29,0,0,-3,8,-67,0,-2,0,155,79,68
60818,5,0,1,77,564,127,21,6,378,38,3,375,4,38,0,0,-3,8,-67,0,-2,0,155,79,68
60919,5,0,1,83,610,128,22,9,370,58,3,365,8,32,0,0,-3,9,-67,0,-2,0,156,79,68
61020,5,0,1,83,610,128,22,9,370,58,3,365,8,32,0,0,-3,9,-68,0,-2,0,155,79,68
61120,5,0,1,75,665,95,22,13,359,80,-15,348,11,30,0,0,-2,9,-68,0,-3,0,157,79,68
61222,5,0,1,75,665,95,22,13,359,80,-15,348,11,30,0,0,-3,9,-68,1,-2,0,156,79,68
61322,5,0,1,79,688,103,23,15,350,87,0,337,13,27,0,0,-4,8,-67,1,-2,0,156,78,68
61423,5,0,1,79,688,103,23,15,350,87,0,337,13,27,0,0,-5,8,-67,1,-2,0,157,78,68
61525,5,0,1,83,707,114,22,16,363,99,11,348,14,34,0,0,-5,7,-67,1,-2,0,157,78,68
61628,5,0,1,79,703,110,22,16,367,98,3,352,14,35,0,0,-4,8,-67,1,-3,0,156,78,69
61729,5,0,1,79,703,110,22,16,367,98,-3,352,14,36,0,0,-3,8,-67,1,-3,0,155,78,69
61830,5,0,1,81,694,95,22,15,364,93,-15,351,13,34,0,0,-2,9,-66,1,-4,0,155,78,69
61931,5,0,1,79,683,89,23,14,348,85,-10,336,12,27,0,0,-3,9,-66,1,-4,0,154,78,69
62033,5,0,1,77,681,90,22,14,371,89,-10,358,12,40,0,0,-3,9,-65,0,-4,0,157,78,69
62134,5,0,1,72,677,90,21,14,387,91,-11,374,12,47,0,0,-3,10,-65,0,-4,0,154,78,69
62234,5,0,1,64,677,110,19,14,416,99,3,403,13,58,0,0,-4,10,-64,0,-4,0,152,78,69
62335,5,0,0,64,677,110,0,14,416,99,3,403,45,0,0,0,-4,10,-64,0,-3,0,151,78,69
62436,5,0,1,63,680,104,19,14,432,104,16,418,19,45,0,0,-6,10,-63,1,-3,0,152,78,69
62537,5,0,1,64,685,100,19,14,432,106,29,417,21,45,0,0,-8,10,-63,1,-3,0,151,78,69
62638,5,0,0,64,685,100,0,14,432,106,29,417,45,0,0,0,-7,9,-60,1,-4,0,150,78,68
62738,5,0,1,66,681,82,19,14,421,101,-1,406,19,39,0,0,-5,8,-59,2,-4,0,149,78,68
62839,5,0,1,62,677,61,19,14,407,96,-17,393,20,35,0,0,-4,8,-57,2,-4,0,148,78,68
62940,5,0,1,61,668,39,19,13,423,95,-12,408,19,44,0,0,-6,7,-55,2,-3,0,150,78,68
63041,5,0,1,70,657,16,20,12,399,84,-28,385,19,32,0,0,-5,7,-54,2,-4,0,150,78,68
63142,5,0,1,70,629,57,19,10,414,74,-4,404,16,42,0,0,-6,8,-53,2,-4,0,151,78,68
63244,5,0,1,62,616,104,19,10,423,69,23,415,16,45,0,0,-7,8,-52,1,-4,0,151,78,68
63345,5,0,1,72,583,63,18,7,441,54,12,434,12,54,0,0,-8,8,-51,2,-4,0,152,77,68
63447,5,0,1,67,569,66,17,6,482,51,15,476,13,73,0,0,-8,9,-50,2,-4,0,151,77,68
63548,5,0,1,72,540,95,19,4,425,31,34,422,10,42,0,0,-9,9,-48,2,-4,0,151,77,68
63650,5,0,1,67,526,77,19,3,427,23,33,424,10,52,0,0,-10,8,-48,2,-4,0,152,77,68
63751,5,0,1,62,513,63,17,2,460,18,37,456,9,64,0,0,-11,9,-46,3,-5,0,151,77,68
63853,5,0,1,68,487,44,17,0,488,4,30,483,7,76,0,0,-11,10,-46,3,-5,0,150,77,68
63954,5,0,1,74,472,25,18,-1,439,-4,10,433,-3,53,0,0,-10,9,-45,4,-6,0,150,77,68
64056,5,0,1,74,472,25,18,-1,439,-4,10,433,-3,53,0,0,-11,9,-45,4,-6,0,151,77,68
64157,5,0,1,69,459,17,18,-1,445,-11,30,439,-4,62,0,0,-13,9,-46,5,-6,0,152,77,68
64258,5,0,1,69,459,17,18,-1,445,-11,30,439,-4,62,0,0,-11,9,-45,6,-7,0,151,77,68
64359,5,0,1,68,457,20,18,-2,445,-12,16,439,-3,64,0,0,-10,8,-45,6,-7,0,151,77,68
64461,5,0,1,68,457,20,18,-2,445,-12,16,439,-3,64,0,0,-9,9,-44,6,-7,0,155,77,68
64562,5,0,1,76,469,16,19,-1,427,-5,13,421,-1,57,0,0,-11,8,-44,7,-7,0,159,77,69
64663,5,0,1,76,469,16,19,-1,427,-5,13,421,-1,57,0,0,-11,8,-44,7,-7,0,164,77,69
64764,5,0,1,77,472,20,19,-1,421,-4,15,415,-1,58,0,0,-11,8,-44,7,-7,0,165,77,69
64867,5,0,1,74,472,15,18,-1,441,-4,13,435,-1,68,0,0,-11,7,-44,8,-7,0,165,77,69
64968,5,0,1,74,472,15,18,-1,441,-4,13,435,-1,68,0,0,-10,7,-44,8,-8,0,167,77,69
65069,5,0,0,74,472,15,0,-1,441,-4,13,435,-45,0,0,0,-10,7,-44,8,-8,0,166,77,69
65172,5,0,0,74,472,15,0,-1,441,-4,13,435,-45,0,0,0,-9,8,-44,8,-8,0,167,76,69
65273,5,0,0,74,472,15,0,-1,441,-4,13,435,-45,0,0,0,-8,7,-45,9,-8,0,166,76,69
65374,5,0,0,74,472,15,0,-1,441,-4,13,435,-45,0,0,0,-4,5,-48,9,-7,0,167,76,69
65475,5,0,1,64,445,15,15,-2,513,-21,-46,505,-8,62,0,0,-2,4,-50,8,-6,0,167,76,69
65576,5,0,1,64,445,15,15,-2,513,-21,-46,505,-8,62,0,0,0,4,-53,8,-5,0,169,76,69
65678,5,0,0,64,445,15,0,-2,513,-21,-46,505,-45,0,0,0,-2,3,-54,7,-5,0,169,76,69
65780,5,0,0,64,445,15,0,-2,513,-21,-46,505,-45,0,0,0,-5,3,-55,7,-5,0,171,76,69
65881,5,0,1,77,534,187,16,4,486,32,51,484,12,60,0,0,-5,4,-56,7,-5,0,175,76,69
65982,5,0,1,77,576,190,16,7,471,55,51,467,16,51,0,0,-5,4,-56,7,-5,0,175,76,69
66083,5,0,1,68,602,188,15,9,524,77,47,517,18,81,0,0,-4,3,-60,6,-4,0,176,76,69
66184,5,0,1,68,602,188,15,9,524,77,47,517,18,81,0,0,-6,4,-60,5,-4,0,176,76,69
66285,5,0,1,68,602,188,15,9,524,77,47,517,18,81,0,0,-7,5,-60,5,-5,1,177,76,69
66386,5,0,1,69,613,189,16,9,489,79,70,482,18,62,0,0,-11,7,-61,5,-6,0,179,76,69
66487,5,0,1,69,613,189,16,9,489,79,70,482,18,62,0,0,-14,6,-61,5,-7,1,179,76,69
66588,5,0,1,74,694,212,16,15,492,126,140,474,26,69,0,0,-14,6,-61,5,-7,1,179,76,69
66690,5,0,1,74,694,212,16,15,492,126,140,474,26,69,0,0,-13,7,-60,5,-9,1,176,76,69
66791,5,0,1,68,710,133,16,16,504,139,77,483,27,72,0,0,-11,7,-60,6,-9,0,176,76,69
66892,5,0,1,76,737,24,17,18,466,142,10,437,30,57,0,0,-10,7,-59,6,-10,0,177,76,69
66993,5,0,1,68,750,19,19,19,407,130,7,380,31,36,0,0,-10,6,-58,6,-10,0,176,76,69
67094,5,0,1,69,752,30,18,19,440,142,20,412,32,59,0,0,-11,6,-56,6,-11,0,175,76,69
67195,5,0,1,68,755,47,17,19,470,153,22,439,32,68,0,0,-10,8,-55,6,-12,0,172,76,69
67296,5,0,1,69,762,41,17,20,465,155,2,433,34,67,0,0,-8,10,-53,6,-13,0,170,75,69
67397,5,0,1,67,748,46,18,19,458,145,-18,429,32,66,0,0,-5,10,-51,7,-12,0,170,75,69
67498,5,0,1,73,732,46,18,18,458,137,-10,432,32,68,0,0,-8,9,-47,7,-11,0,171,75,69
67599,5,0,1,69,720,34,17,17,467,133,0,442,31,75,0,0,-8,9,-47,7,-11,0,171,75,69
67701,5,0,1,69,700,87,16,15,485,128,51,465,30,82,0,0,-11,8,-45,7,-11,0,172,75,69
67802,5,0,1,69,683,109,16,14,490,119,71,473,29,85,0,0,-12,9,-43,7,-11,0,170,75,69
67902,5,0,1,66,654,74,14,12,556,116,61,540,26,100,0,0,-12,9,-39,8,-11,0,163,75,69
68004,5,0,1,77,636,54,16,11,498,93,53,485,26,80,0,0,-13,9,-38,8,-11,0,160,75,69
68105,5,0,1,74,625,15,16,10,498,86,50,483,26,91,0,0,-15,9,-36,9,-11,0,162,75,69
68206,5,0,1,75,587,11,16,7,498,63,48,486,22,89,0,0,-17,9,-35,10,-11,0,162,75,69
68307,5,0,1,74,576,8,16,7,493,56,63,482,23,91,0,0,-17,8,-33,10,-11,0,164,75,69
68409,5,0,1,68,564,16,17,6,458,46,70,450,22,78,0,0,-18,7,-32,11,-11,0,162,75,69
68510,5,0,1,76,552,15,18,5,441,38,67,433,22,74,0,0,-18,8,-31,12,-11,0,165,75,69
68611,5,0,1,76,526,12,17,3,462,25,69,455,20,88,0,0,-18,8,-30,12,-11,0,168,75,69
68712,5,0,1,75,516,14,18,3,434,18,65,427,19,72,0,0,-18,8,-29,13,-11,0,167,75,69
68813,5,0,1,69,507,14,19,2,407,13,54,401,19,69,0,0,-17,8,-28,13,-10,0,165,75,69
68918,5,0,1,69,507,14,19,2,407,13,54,401,19,69,0,0,-17,8,-27,14,-10,0,165,75,69
69019,5,0,1,74,494,10,19,1,421,7,54,414,18,77,0,0,-17,8,-26,14,-10,0,165,75,69
69121,5,0,1,74,494,10,19,1,421,7,54,414,18,77,0,0,-16,7,-25,14,-10,0,167,75,69
69222,5,0,1,71,456,17,19,-2,414,-11,35,408,6,72,0,0,-14,8,-24,14,-10,0,171,74,69
69323,5,0,1,72,440,15,19,-3,407,-19,41,401,4,73,0,0,-15,8,-23,14,-9,0,170,74,69
69424,5,0,1,73,427,14,20,-4,389,-24,45,382,3,65,0,0,-16,8,-23,14,-9,0,171,74,69
69526,5,0,1,67,416,18,21,-4,371,-28,45,364,2,60,0,0,-15,8,-23,15,-9,0,173,74,69
69627,5,0,1,63,409,27,22,-5,361,-30,34,356,2,58,0,0,-14,8,-23,15,-9,0,169,74,69
69728,5,0,0,63,409,27,0,-5,361,-30,34,356,-45,0,0,0,-13,8,-23,15,-9,0,173,74,69
69830,5,0,0,63,409,27,0,-5,361,-30,34,356,-45,0,0,0,-11,8,-22,16,-8,0,171,74,69
69932,5,0,0,63,409,27,0,-5,361,-30,34,356,-45,0,0,0,-10,8,-22,15,-8,0,172,74,69
70033,5,0,1,61,403,36,25,-5,313,-29,11,309,-12,1,0,0,-5,7,-24,15,-7,0,168,74,69
70134,5,0,1,61,403,36,25,-5,313,-29,11,309,-12,1,0,0,-2,6,-27,14,-6,0,171,74,69
70235,5,0,1,70,395,28,23,-6,338,-34,-37,332,-12,13,0,0,-2,6,-30,13,-6,0,170,74,69
70336,5,0,1,70,395,44,23,-6,344,-35,-32,338,-12,15,0,0,-2,5,-32,12,-5,0,170,74,69
70437,5,0,1,73,397,90,24,-6,328,-33,-21,324,-12,9,0,0,-1,6,-32,10,-5,0,170,74,69
70538,5,0,1,82,451,174,22,-2,355,-12,8,354,-5,25,0,0,0,6,-33,9,-4,0,168,74,69
70639,5,0,1,82,494,185,23,1,338,5,5,338,7,15,0,0,0,6,-33,8,-3,0,166,74,68
70740,5,0,1,82,494,185,23,1,338,5,5,338,7,15,0,0,0,5,-34,7,-3,0,165,74,68
70841,5,0,1,83,518,199,23,3,336,15,22,335,9,16,0,0,-2,5,-34,6,-2,0,164,74,68
70942,5,0,1,83,518,199,23,3,336,15,22,335,9,16,0,0,-3,5,-34,5,-1,0,165,74,68
71044,5,0,1,83,518,199,23,3,336,15,22,335,9,16,0,0,-5,5,-34,5,-1,0,165,74,68
71144,5,0,1,83,541,188,22,4,347,25,37,345,10,21,0,0,-5,4,-33,4,-1,0,164,74,68
71245,5,0,1,83,543,181,23,4,340,26,34,338,10,17,0,0,-5,4,-33,3,0,0,163,73,68
71347,5,0,1,83,538,168,23,4,331,23,40,329,9,16,0,0,-7,5,-33,2,0,0,164,73,68
71447,5,0,1,83,529,163,23,3,341,20,51,340,8,21,0,0,-9,5,-32,2,0,0,163,73,68
71548,5,0,1,83,529,163,23,3,341,20,51,340,8,21,0,0,-9,5,-32,2,0,0,164,73,68
71649,5,0,1,83,523,165,22,3,358,18,54,357,8,27,0,0,-10,5,-32,2,0,0,163,73,69
71750,5,0,1,83,523,165,22,3,358,18,54,357,8,27,0,0,-8,6,-31,1,-1,0,162,73,69
71851,5,0,1,79,515,122,21,2,372,15,33,371,7,32,0,0,-9,6,-31,1,0,0,163,73,69
71952,5,0,1,78,506,64,21,2,378,11,18,375,6,34,0,0,-10,6,-30,1,0,0,163,73,69
72053,5,0,1,67,503,53,20,2,396,11,21,393,6,43,0,0,-11,6,-30,1,-1,0,162,73,69
72154,5,0,1,61,500,59,19,1,422,10,32,419,6,55,0,0,-11,7,-29,1,-1,0,164,73,69
72254,5,0,0,61,500,59,0,1,422,10,32,419,45,0,0,0,-12,6,-29,1,-1,0,163,73,69
72355,5,0,1,72,481,43,18,0,444,0,34,440,4,49,0,0,-12,7,-29,1,-1,0,166,73,69
72456,5,0,1,72,481,43,18,0,444,0,34,440,4,49,0,0,-14,8,-29,2,-1,0,166,73,69
72557,5,0,1,75,480,1,16,0,504,0,34,496,4,75,0,0,-14,7,-27,2,-1,0,164,73,69
72657,5,0,1,75,480,1,16,0,504,0,34,496,4,75,0,0,-12,6,-25,2,-2,0,163,73,68
72758,5,0,1,72,478,4,17,-0,455,-1,16,447,-5,50,0,0,-13,7,-26,2,-2,0,165,73,68
72859,5,0,1,72,478,8,18,-0,437,-1,25,430,-5,48,0,0,-16,7,-26,2,-2,0,167,73,68
72960,5,0,1,75,483,14,18,0,437,1,51,431,5,49,0,0,-18,7,-26,3,-2,0,167,73,68
73061,5,0,1,64,451,15,0,-2,496,-17,75,489,-9,78,0,0,-18,7,-26,4,-3,0,166,73,68
73162,5,0,1,68,442,5,17,-3,466,-21,66,458,-9,57,0,0,-18,8,-26,5,-3,0,166,73,68
73263,5,0,1,76,446,11,16,-2,493,-20,64,485,-8,77,0,0,-17,8,-26,6,-3,0,164,72,68
73364,5,0,1,76,446,11,16,-2,493,-20,64,485,-8,77,0,0,-16,7,-26,6,-3,0,165,72,68
73465,5,0,1,77,448,15,18,-2,444,-17,52,437,-8,53,0,0,-17,6,-27,7,-3,0,165,72,68
73566,5,0,1,77,445,18,20,-2,394,-16,54,389,-8,39,0,0,-17,6,-27,8,-4,0,165,72,68
73666,5,0,1,77,443,19,21,-3,376,-16,52,371,-8,35,0,0,-18,7,-28,9,-5,0,166,72,69
73767,5,0,1,74,443,22,20,-3,397,-17,63,392,-8,48,0,0,-16,7,-28,10,-5,0,166,72,69
73868,5,0,1,77,441,17,20,-3,385,-18,46,379,-9,42,0,0,-13,8,-28,10,-5,0,162,72,69
73969,5,0,1,77,438,17,19,-3,421,-21,28,414,-9,63,0,0,-12,8,-29,9,-5,0,157,72,69
74070,5,0,1,76,442,16,17,-3,470,-21,23,463,-9,82,0,0,-11,8,-29,9,-5,0,154,72,69
74171,5,0,1,76,444,16,17,-3,477,-20,15,470,-9,82,0,0,-11,7,-29,9,-4,0,154,72,69
74274,5,0,1,71,460,16,18,-1,437,-10,29,431,-7,66,0,0,-13,7,-30,9,-4,0,156,72,69
74375,5,0,1,71,460,16,18,-1,437,-10,29,431,-7,66,0,0,-17,6,-30,9,-4,0,157,72,69
74476,5,0,1,73,463,20,16,-1,484,-9,84,478,-7,88,0,0,-19,6,-31,10,-5,0,160,72,69
74577,5,0,1,73,463,20,16,-1,484,-9,84,478,-7,88,0,0,-17,7,-31,11,-6,0,165,72,69
74678,5,0,1,72,465,17,17,-1,466,-8,64,459,-7,81,0,0,-16,7,-31,11,-6,0,163,72,68
74779,5,0,1,69,460,15,19,-1,410,-9,48,404,-8,57,0,0,-17,7,-31,12,-6,0,162,72,68
74880,5,0,1,70,460,28,20,-1,391,-9,58,386,-8,58,0,0,-17,6,-31,13,-7,0,164,72,68
74981,5,0,1,75,454,21,22,-2,347,-10,49,343,-9,35,0,0,-16,6,-31,14,-7,0,162,72,68
75082,5,0,1,76,446,20,22,-2,359,-14,44,354,-10,51,0,0,-13,6,-30,14,-8,0,161,72,68
75183,5,0,1,76,444,17,21,-3,370,-16,25,365,-10,56,0,0,-10,6,-30,14,-8,0,158,72,68
75284,5,0,1,76,444,17,21,-3,370,-16,25,365,-10,56,0,0,-7,6,-30,13,-7,0,154,71,68
75386,5,0,1,77,424,19,20,-4,388,-26,-13,382,-12,64,0,0,-6,7,-30,13,-7,0,159,71,68
75487,5,0,1,71,420,19,20,-4,388,-28,-6,382,-12,65,0,0,-8,6,-31,12,-6,0,160,71,68
75589,5,0,1,71,420,19,20,-4,388,-28,-6,382,-12,65,0,0,-9,5,-32,12,-6,-1,160,71,68
75690,5,0,1,66,416,-20,16,-4,474,-36,-18,462,-13,100,0,0,-11,5,-33,12,-6,0,163,71,69
75791,5,0,0,66,416,-20,0,-4,474,-36,-18,462,-45,0,0,0,-12,5,-34,12,-6,0,165,71,69
75892,5,0,1,67,413,82,19,-5,406,-33,48,403,-10,29,0,0,-12,5,-34,12,-6,0,163,71,69
75993,5,0,0,67,413,82,0,-5,406,-33,48,403,-45,0,0,0,-12,5,-35,13,-7,0,163,71,69
76094,5,0,1,74,421,50,20,-4,394,-28,0,389,-9,30,0,0,-7,5,-37,13,-7,0,156,71,69
76195,5,0,1,68,441,37,19,-3,406,-19,-6,401,-6,36,0,0,-2,5,-38,12,-7,0,158,71,69
76296,5,0,1,69,453,27,19,-2,413,-13,-60,407,-6,38,0,0,0,5,-40,11,-6,0,156,71,69
76397,5,0,1,70,463,26,20,-1,381,-7,-56,377,-5,23,0,0,-1,5,-41,10,-5,0,154,71,69
76498,5,0,0,70,463,26,0,-1,381,-7,-56,377,-45,0,0,0,-1,5,-42,9,-6,0,154,71,69
76599,5,0,1,80,520,92,20,3,390,18,-24,388,10,29,0,0,-1,6,-42,9,-5,0,154,71,69
76700,5,0,1,80,520,92,20,3,390,18,-24,388,10,29,0,0,-1,6,-43,8,-5,0,153,71,68
76801,5,0,1,80,520,92,20,3,390,18,-24,388,10,29,0,0,0,6,-45,7,-5,0,153,71,68
76902,5,0,1,81,610,175,21,9,369,58,2,364,17,20,0,0,0,7,-45,6,-5,0,153,71,68
77003,5,0,1,81,610,175,21,9,369,58,2,364,17,20,0,0,0,9,-46,6,-6,0,153,71,68
77103,5,0,1,83,619,167,20,10,405,68,0,399,17,36,0,0,0,10,-45,5,-5,0,152,71,68
77204,5,0,1,82,653,153,21,12,393,82,-6,383,23,27,0,0,1,10,-45,5,-5,0,155,71,68
77306,5,0,1,68,686,148,20,14,407,101,-8,394,25,38,0,0,0,9,-45,5,-4,0,154,70,68
77408,5,0,1,80,697,161,22,15,359,93,-2,346,27,9,0,0,-1,8,-44,4,-4,0,153,70,68
77509,5,0,1,83,712,163,21,16,378,105,11,363,28,30,0,0,-2,8,-44,4,-4,0,153,70,68
77610,5,0,1,83,715,164,21,16,380,107,4,364,28,27,0,0,-1,10,-43,4,-5,0,154,70,68
77711,5,0,1,81,721,158,21,17,393,113,-4,375,29,36,0,0,0,10,-41,4,-5,0,153,70,68
77812,5,0,1,83,727,153,22,17,364,108,-5,347,30,23,0,0,0,9,-39,4,-4,0,153,70,68
77913,5,0,1,83,729,155,23,17,342,102,1,326,31,18,0,0,-1,9,-39,4,-3,0,153,70,68
78015,5,0,1,83,720,160,22,17,370,106,16,354,30,33,0,0,-3,9,-38,4,-3,0,154,70,68
78116,5,0,1,83,720,160,22,17,370,106,16,354,30,33,0,0,-3,8,-36,4,-3,0,155,70,68
78217,5,0,1,83,715,162,21,16,378,107,17,362,31,34,0,0,-3,7,-35,4,-3,0,155,70,68
78320,5,0,1,83,715,162,21,16,378,107,17,362,31,34,0,0,-1,7,-33,5,-3,0,157,70,68
78420,5,0,0,62,669,140,0,13,437,99,-5,425,45,0,0,0,-3,6,-32,5,-3,0,155,70,68
78521,5,0,1,70,625,142,20,10,388,68,9,381,14,24,0,0,-3,6,-30,5,-3,0,157,70,68
78623,5,0,1,70,625,142,20,10,388,68,9,381,14,24,0,0,-3,7,-28,5,-3,0,157,70,68
78733,5,0,1,70,625,142,20,10,388,68,9,381,14,24,0,0,-1,8,-25,5,-3,0,160,70,69
78835,5,0,1,75,581,169,19,7,414,50,7,410,11,38,0,0,0,8,-24,5,-3,0,160,70,69
78936,5,0,1,73,551,168,17,5,470,40,8,467,8,59,0,0,-1,8,-24,5,-3,0,162,70,69
79037,5,0,1,70,499,158,16,1,500,11,3,500,2,72,0,0,-1,8,-23,5,-2,0,163,70,69
79138,5,0,1,71,460,170,18,-1,437,-10,8,436,-9,41,0,0,-1,7,-22,5,-2,0,163,70,69
79239,5,0,1,69,447,178,19,-2,414,-16,33,413,-10,39,0,0,-4,6,-22,5,-2,0,164,69,69
79340,5,0,1,77,438,181,18,-3,431,-22,65,430,-10,49,0,0,-8,5,-22,5,-2,0,164,69,69
79442,5,0,1,77,430,178,18,-4,437,-26,72,436,-10,51,0,0,-9,7,-22,6,-3,0,165,69,69
79543,5,0,1,77,419,173,16,-4,504,-37,63,502,-11,85,0,0,-7,7,-22,7,-3,0,164,69,69
79646,5,0,1,63,406,140,14,-5,545,-49,40,542,-12,96,0,0,-6,7,-22,7,-2,0,163,69,69
79747,5,0,1,67,402,84,14,-5,550,-52,28,544,-12,96,0,0,-8,6,-23,7,-2,0,165,69,69
79848,5,0,1,67,403,67,14,-5,550,-51,47,544,-12,96,0,0,-11,6,-23,7,-3,0,166,69,69
79950,5,0,1,61,404,73,15,-5,524,-48,75,519,-12,86,0,0,-14,6,-24,8,-3,0,168,69,69
80051,5,0,1,61,404,73,15,-5,524,-48,75,519,-12,86,0,0,-16,6,-24,10,-4,0,170,69,69
80152,5,0,1,68,409,109,14,-5,576,-49,133,573,-11,100,0,0,-17,6,-24,11,-5,0,170,69,69
80253,5,0,1,73,422,34,14,-4,581,-40,90,573,-10,100,0,0,-17,7,-24,13,-6,0,170,69,69
80354,5,0,1,74,429,10,14,-4,563,-34,53,553,-9,97,0,0,-15,7,-24,14,-7,0,165,69,69
80455,5,0,1,73,433,16,16,-3,493,-27,41,485,-9,71,0,0,-14,8,-24,15,-7,0,169,69,69
80556,5,0,1,70,441,20,16,-3,506,-23,44,498,-8,86,0,0,-14,9,-24,16,-8,0,169,69,69
80657,5,0,1,69,446,20,17,-2,465,-19,33,459,-8,68,0,0,-13,10,-24,17,-8,0,168,69,69
80758,5,0,1,74,441,20,17,-3,470,-22,25,463,-9,78,0,0,-12,8,-24,18,-8,0,165,69,69
80858,5,0,1,74,441,20,17,-3,470,-22,25,463,-9,78,0,0,-11,7,-24,18,-7,0,164,69,69
80959,5,0,1,77,439,14,17,-3,459,-22,13,452,-9,74,0,0,-11,5,-25,18,-6,0,165,69,69
81060,5,0,1,72,425,-21,19,-4,415,-27,-2,405,-11,61,0,0,-11,4,-25,18,-6,0,167,69,69
81161,5,0,1,69,416,0,17,-4,449,-34,7,440,-12,82,0,0,-11,4,-25,18,-7,0,172,69,69
81262,5,0,1,61,409,22,19,-5,398,-34,8,391,-13,56,0,0,-10,4,-26,18,-7,0,171,69,69
81364,5,0,1,61,409,22,19,-5,398,-34,8,391,-13,56,0,0,-8,6,-26,18,-7,0,174,69,69
81469,5,0,1,61,409,22,19,-5,398,-34,8,391,-13,56,0,0,-7,5,-26,18,-7,0,172,69,69
81570,5,0,1,74,364,32,21,-8,364,-50,-13,356,-17,55,0,0,-6,5,-26,18,-7,0,174,69,69
81671,5,0,1,82,364,66,21,-8,375,-52,-7,369,-17,61,0,0,-5,5,-27,17,-7,0,174,69,69
81773,5,0,1,82,364,66,21,-8,375,-52,-7,369,-17,61,0,0,-3,6,-27,17,-7,0,171,69,69
81875,5,0,1,83,348,113,26,-9,298,-47,-6,293,-19,23,0,0,-2,6,-28,16,-7,0,174,69,69
81976,5,0,1,83,346,130,27,-9,282,-45,3,278,-19,21,0,0,-3,5,-28,15,-6,0,173,69,69
82079,5,0,1,83,343,167,28,-10,274,-45,18,269,-20,18,0,0,-4,5,-29,15,-6,0,174,69,69
82180,5,0,1,83,340,175,30,-10,261,-44,20,257,-20,14,0,0,-4,5,-30,14,-6,0,177,69,69
82282,5,0,1,83,336,184,32,-10,245,-42,8,241,-21,9,0,0,-1,5,-31,14,-6,0,172,68,69
82383,5,0,1,77,324,185,35,-11,220,-41,3,215,-23,0,0,0,0,4,-32,13,-5,0,170,68,69
82484,5,0,1,79,315,164,39,-12,200,-39,-7,195,-24,-5,0,0,2,4,-32,11,-5,0,169,68,69
82585,5,0,1,81,304,175,39,-12,198,-42,-5,193,-26,-3,0,0,2,5,-33,10,-4,0,170,68,69
82687,5,0,1,76,282,195,47,-14,164,-39,-1,159,-29,-20,0,0,2,5,-34,8,-4,0,171,68,69
82788,5,0,1,76,258,199,51,-16,152,-40,0,146,-32,-20,0,0,2,5,-36,7,-3,0,167,68,69
82889,5,0,1,76,258,192,52,-16,149,-39,1,143,-32,-20,0,0,1,5,-37,6,-3,0,166,68,69
82992,5,0,1,76,249,201,56,-16,139,-38,2,133,-33,-25,0,0,1,6,-39,5,-2,1,165,68,69
83093,5,0,1,76,249,194,58,-16,135,-37,-1,129,-33,-26,0,0,2,6,-40,4,-2,1,162,68,69
83195,5,0,1,76,244,186,63,-17,124,-35,-2,119,-35,-31,0,0,2,6,-45,2,-1,1,160,68,69
83296,5,0,1,75,244,164,67,-17,118,-33,-4,112,-35,-33,0,0,2,7,-47,1,-1,1,160,68,69
83396,5,0,1,75,244,164,67,-17,118,-33,-4,112,-35,-33,0,0,2,8,-50,0,0,0,159,68,69
83497,5,0,1,76,276,144,66,-14,121,-29,-7,116,-32,-33,0,0,2,8,-52,0,0,0,160,68,69
83598,5,0,1,76,276,144,66,-14,121,-29,-7,116,-32,-33,0,0,3,9,-54,0,0,0,159,68,69
83699,5,0,1,73,357,140,69,-9,116,-17,-11,114,-24,-37,0,0,4,9,-56,-1,0,0,158,68,68
83800,5,0,1,73,357,140,69,-9,116,-17,-11,114,-24,-37,0,0,4,10,-57,-1,1,0,159,68,68
83901,5,0,1,79,431,132,64,-3,127,-7,-13,126,-19,-36,0,0,4,10,-59,-2,1,0,160,68,68
84002,5,0,1,79,431,132,64,-3,127,-7,-13,126,-19,-36,0,0,4,10,-60,-2,1,0,160,68,68
84103,5,0,1,79,431,132,64,-3,127,-7,-13,126,-19,-36,0,0,5,10,-61,-2,2,0,160,68,68
84204,5,0,1,81,477,148,64,-0,127,0,-13,126,-17,-37,0,0,5,10,-62,-2,2,0,161,68,68
84305,5,0,1,79,536,154,61,4,133,9,-13,132,0,-36,0,0,6,10,-62,-2,3,0,161,68,68
84406,5,0,1,67,577,152,63,7,129,15,-15,127,2,-41,0,0,4,10,-63,-3,3,0,162,68,68
84507,5,0,1,79,589,148,63,8,129,17,-11,127,2,-42,0,0,4,10,-63,-3,3,0,164,68,68
84608,5,0,1,79,589,148,63,8,129,17,-11,127,2,-42,0,0,4,10,-63,-3,4,0,162,68,68
84711,5,0,1,75,642,199,63,11,129,25,-4,126,6,-43,0,0,4,10,-64,-3,4,0,163,68,69
84812,5,0,1,75,642,199,63,11,129,25,-4,126,6,-43,0,0,4,9,-64,-3,5,0,163,68,69
84914,5,0,1,78,671,194,58,13,138,31,-5,134,8,-42,0,0,5,10,-64,-3,4,0,165,68,69
85015,5,0,1,78,671,194,58,13,138,31,-5,134,8,-42,0,0,5,10,-63,-3,4,0,164,68,69
85116,5,0,1,76,679,192,52,14,154,37,-12,149,8,-39,0,0,6,9,-63,-2,4,0,165,68,69
85217,5,0,1,76,679,192,52,14,154,37,-12,149,8,-39,0,0,7,8,-63,-2,5,0,166,68,69
85317,5,0,1,79,674,194,50,14,158,37,-15,153,8,-40,0,0,5,8,-63,-3,6,0,162,68,69
85418,5,0,1,81,671,216,47,13,167,38,-6,162,8,-38,0,0,3,8,-63,-3,6,0,165,68,69
85520,5,0,1,82,664,233,46,13,173,38,2,167,7,-39,0,0,3,8,-63,-3,6,0,165,68,69
85621,5,0,1,81,658,249,45,12,178,38,5,173,7,-38,0,0,3,8,-63,-3,6,0,165,68,69
85730,5,0,1,79,647,242,42,12,192,38,1,187,6,-34,0,0,4,9,-63,-3,6,0,166,68,69
85831,5,0,1,79,647,242,42,12,192,38,4,187,7,-37,0,0,3,9,-63,-3,6,0,161,68,69
85932,5,0,1,72,656,176,29,12,279,59,-12,272,9,4,0,0,3,9,-63,-3,6,0,161,68,69
86033,5,0,1,73,653,179,24,12,337,70,-13,329,9,27,0,0,2,10,-63,-4,6,0,163,68,69
86134,5,0,1,79,638,208,36,11,227,43,1,222,8,-38,0,0,2,10,-63,-4,6,0,163,68,69
86235,5,0,1,79,636,186,37,11,218,41,0,213,9,-32,0,0,1,9,-63,-3,7,0,162,68,69
86336,5,0,1,81,640,201,33,11,239,46,8,234,10,-27,0,0,0,8,-63,-3,6,0,163,68,69
86437,5,0,1,82,640,178,32,11,251,48,6,245,10,-23,0,0,-1,8,-63,-3,5,0,161,68,69
86538,5,0,1,79,640,142,31,11,257,49,-7,252,11,-22,0,0,0,9,-62,-2,4,0,160,68,69
86639,5,0,1,82,640,141,30,11,266,51,-12,260,11,-20,0,0,1,9,-62,-2,3,0,162,68,69
86740,5,0,1,83,625,172,28,10,283,49,-8,278,10,-14,0,0,0,9,-60,-2,4,0,163,68,69
86841,5,0,1,83,625,172,28,10,283,49,-8,278,10,-14,0,0,0,9,-60,-2,4,0,163,68,69
86942,5,0,1,83,618,154,27,10,301,50,-9,297,10,0,0,0,1,9,-60,-2,3,0,164,68,69
87043,5,0,1,83,615,166,27,9,292,47,-5,288,10,-17,0,0,1,9,-59,-2,3,0,163,68,69
87144,5,0,1,83,607,157,27,9,297,45,-8,293,10,-15,0,0,1,9,-59,-2,3,0,162,68,69
87245,5,0,1,83,593,160,25,8,321,44,-2,318,9,6,0,0,0,9,-57,-1,2,0,160,68,69
87347,5,0,1,79,590,157,25,8,326,43,-3,323,10,6,0,0,0,9,-57,-1,2,0,161,68,69
87449,5,0,1,68,586,160,24,7,341,43,-2,337,10,12,0,0,0,10,-56,-1,2,0,159,68,69
87551,5,0,1,68,586,160,24,7,341,43,-2,337,10,12,0,0,-1,10,-56,-1,2,0,160,68,69
87651,5,0,1,83,562,154,24,6,331,33,6,329,10,12,0,0,-2,9,-56,-1,2,0,158,68,69
87752,5,0,1,83,562,154,24,6,331,33,6,329,40,0,0,0,-3,9,-56,-1,2,0,159,68,69
87853,5,0,1,83,525,160,23,3,348,19,15,347,40,0,0,0,-3,9,-56,-1,1,0,158,68,69
87955,5,0,1,83,517,156,23,3,348,15,13,347,40,0,0,0,-3,9,-54,0,0,0,158,68,69
88056,5,0,1,83,499,153,22,1,363,8,6,362,40,0,0,0,-2,10,-52,0,0,0,158,68,69
88164,5,0,1,82,500,134,22,1,375,9,0,374,40,0,0,0,-2,10,-50,0,0,0,156,68,69
88265,5,0,1,82,500,134,22,1,375,9,0,374,40,0,0,0,-2,10,-47,0,0,0,159,67,69
88366,5,0,1,82,500,134,22,1,375,9,0,374,40,0,0,0,-3,9,-45,0,0,0,157,67,69
88468,5,0,1,82,500,134,22,1,375,9,0,374,40,0,0,0,-4,9,-44,0,0,0,157,67,69
88570,5,0,1,82,468,138,22,-1,364,-5,13,364,40,0,0,0,-3,10,-42,0,0,0,157,67,69
88672,5,0,1,72,394,154,23,-6,346,-36,12,344,40,0,0,0,-3,10,-39,0,0,0,157,67,69
88772,5,0,1,72,394,154,23,-6,342,-35,18,340,40,0,0,0,-4,9,-37,0,0,0,157,67,69
88873,5,0,1,83,334,132,22,-10,352,-62,23,346,40,0,0,0,-6,7,-35,0,0,0,159,67,69
88975,5,0,1,83,302,125,23,-12,341,-73,20,332,40,0,0,0,-6,7,-33,0,0,0,157,67,69
89076,5,0,1,79,281,137,24,-14,328,-78,23,317,40,0,0,0,-6,6,-30,0,0,0,159,67,69
89177,5,0,1,83,250,141,25,-16,318,-87,24,304,40,0,0,0,-6,6,-28,0,0,0,159,67,69
89280,5,0,1,83,224,123,24,-18,323,-99,18,306,40,0,0,0,-6,6,-25,0,0,0,160,67,69
89382,5,0,1,83,154,84,27,-23,293,-113,4,269,40,0,0,0,-6,6,-22,0,0,0,160,67,69
89484,5,0,1,83,106,88,25,-26,318,-139,12,284,40,0,0,0,-7,6,-19,0,0,0,161,67,69
89586,5,0,1,75,90,91,27,-27,287,-131,11,254,40,0,0,0,-7,5,-16,0,0,0,161,67,69
89687,5,0,1,64,54,106,15,-30,518,-257,29,448,40,0,0,0,-7,6,-14,0,0,0,161,67,69
89788,5,0,1,64,54,106,15,-30,518,-257,29,448,40,0,0,0,-7,6,-11,0,0,0,161,67,69
89891,5,0,1,64,54,106,15,-30,518,-257,29,448,40,0,0,0,-6,5,-8,0,0,0,162,67,69
89992,5,0,0,64,54,106,0,-30,518,-257,29,448,40,0,0,0,-6,4,-5,0,0,0,161,67,69
90095,5,0,0,64,54,106,0,-30,518,-257,29,448,40,0,0,0,-5,4,-3,0,0,0,162,67,69
90197,5,0,0,64,54,106,0,-30,518,-257,29,448,40,0,0,0,-6,4,0,0,0,0,162,67,69
90299,5,0,0,64,54,106,0,-30,518,-257,29,448,40,0,0,0,-6,4,2,0,0,0,163,67,69
90400,5,0,0,64,54,106,0,-30,518,-257,29,448,40,0,0,0,-6,4,5,0,0,0,163,67,69
90501,5,0,0,64,54,106,0,-30,518,-257,29,448,40,0,0,0,-6,3,8,0,0,0,162,67,69
90603,5,0,0,64,54,106,0,-30,518,-257,29,448,40,0,0,0,-6,2,11,0,0,0,162,67,69
90704,5,0,0,64,54,106,0,-30,518,-257,29,448,40,0,0,0,-6,3,13,0,0,0,160,67,69
90805,5,0,0,64,54,106,0,-30,518,-257,29,448,40,0,0,0,-6,3,16,1,0,0,160,67,69
90905,5,0,0,64,54,106,0,-30,518,-257,29,448,40,0,0,0,-5,3,18,1,0,0,159,67,69
91006,5,0,0,64,54,106,0,-30,518,-257,29,448,40,0,0,0,-6,3,21,0,0,0,160,67,69
91107,5,0,0,64,54,106,0,-30,518,-257,29,448,40,0,0,0,-6,3,23,0,0,0,160,67,69
91208,5,0,0,64,54,106,0,-30,518,-257,29,448,40,0,0,0,-7,3,26,0,0,0,160,67,69
91309,5,0,0,64,54,106,0,-30,518,-257,29,448,40,0,0,0,-8,2,28,0,0,0,159,67,69
91410,5,0,0,64,54,106,0,-30,518,-257,29,448,40,0,0,0,-7,2,30,0,0,0,160,67,69
91511,5,0,0,64,54,106,0,-30,518,-257,29,448,40,0,0,0,-6,2,32,0,0,0,159,67,69
91613,5,0,0,64,54,106,0,-30,518,-257,29,448,40,0,0,0,-7,2,34,0,0,0,158,67,69
91714,5,0,0,64,54,106,0,-30,518,-257,29,448,40,0,0,0,-7,1,37,0,0,0,159,67,69
91815,5,0,0,64,54,106,0,-30,518,-257,29,448,40,0,0,0,-7,1,37,0,0,0,159,67,69
91916,5,0,0,64,54,106,0,-30,518,-257,29,448,40,0,0,0,-7,0,41,0,0,0,161,67,68
92017,5,0,0,64,54,106,0,-30,518,-257,29,448,40,0,0,0,-7,-1,43,0,0,0,161,67,68
92118,5,0,0,64,54,106,0,-30,518,-257,29,448,40,0,0,0,-6,0,45,0,0,0,161,67,68
92219,5,0,0,64,54,106,0,-30,518,-257,29,448,40,0,0,0,-6,0,48,0,0,0,161,67,68
92320,5,0,0,64,54,106,0,-30,518,-257,29,448,45,0,0,0,-6,0,50,0,0,0,162,67,68
92421,5,0,0,64,54,106,0,-30,518,-257,29,448,45,0,0,0,-6,1,52,0,0,0,162,67,68
92522,5,0,0,64,54,106,0,-30,518,-257,29,448,45,0,0,0,-7,0,55,0,0,0,162,67,68
92623,5,0,0,64,54,106,0,-30,518,-257,29,448,45,0,0,0,-7,-1,57,0,0,0,162,67,68
92724,5,0,0,64,54,106,0,-30,518,-257,29,448,45,0,0,0,-7,-2,60,0,0,0,163,67,68
92825,5,0,0,64,54,106,0,-30,518,-257,29,448,45,0,0,0,-7,-2,63,0,0,0,163,67,69
92926,5,0,0,64,54,106,0,-30,518,-257,29,448,45,0,0,0,-7,-3,65,0,0,0,164,67,69
93027,5,0,0,64,54,106,0,-30,518,-257,29,448,45,0,0,0,-7,-3,68,0,0,0,165,67,69
93128,5,0,0,64,54,106,0,-30,518,-257,29,448,45,0,0,0,-8,-4,71,0,0,0,165,67,69
93239,5,0,0,64,54,106,0,-30,518,-257,29,448,45,0,0,0,-8,-4,73,0,0,0,166,66,69
93340,5,0,0,64,54,106,0,-30,518,-257,29,448,45,0,0,0,-8,-4,76,0,0,0,165,66,69
93441,5,0,0,64,54,106,0,-30,518,-257,29,448,45,0,0,0,-7,-4,79,0,0,0,165,66,69
93542,5,0,0,64,54,106,0,-30,518,-257,29,448,45,0,0,0,-7,-4,82,0,0,0,164,66,69
93646,5,0,0,64,54,106,0,-30,518,-257,29,448,45,0,0,0,-6,-3,84,0,0,0,165,66,69
93748,5,0,0,64,54,106,0,-30,518,-257,29,448,45,0,0,0,-6,-3,87,0,0,0,163,66,69
93850,5,0,0,64,54,106,0,-30,518,-257,29,448,45,0,0,0,-5,-3,90,0,0,0,163,66,69
93955,5,0,0,64,54,106,0,-30,518,-257,29,448,45,0,0,0,-5,-4,92,0,0,0,161,66,69
94057,5,0,0,64,54,106,0,-30,518,-257,29,448,45,0,0,0,-4,-5,95,0,0,0,160,66,69
94158,5,0,0,64,54,106,0,-30,518,-257,29,448,45,0,0,0,-5,-4,98,0,0,0,161,66,69
94260,5,0,0,64,54,106,0,-30,518,-257,29,448,45,0,0,0,-5,-5,100,0,0,0,161,66,69
94363,5,0,0,64,54,106,0,-30,518,-257,29,448,45,0,0,0,-5,-6,103,0,0,0,159,66,69
94465,5,0,0,64,54,106,0,-30,518,-257,29,448,45,0,0,0,-4,-7,105,0,0,0,158,66,69
94566,5,0,0,64,54,106,0,-30,518,-257,29,448,45,0,0,0,-4,-7,108,0,0,0,158,66,69
94667,5,0,0,64,54,106,0,-30,518,-257,29,448,45,0,0,0,-3,-7,110,0,0,0,157,66,69
94768,5,0,0,64,54,106,0,-30,518,-257,29,448,45,0,0,0,-3,-6,113,0,0,0,156,66,69
94869,5,0,0,64,54,106,0,-30,518,-257,29,448,45,0,0,0,-3,-7,116,0,0,0,158,66,69
94970,5,0,0,64,54,106,0,-30,518,-257,29,448,45,0,0,0,-3,-6,119,0,0,0,156,66,69
95071,5,0,0,64,54,106,0,-30,518,-257,29,448,45,0,0,0,-2,-7,122,0,0,0,155,66,69
95172,5,0,0,64,54,106,0,-30,518,-257,29,448,45,0,0,0,0,-7,127,0,0,0,155,66,69
95273,5,0,0,64,54,106,0,-30,518,-257,29,448,45,0,0,0,0,-7,130,0,0,0,155,66,69
95374,5,0,0,64,54,106,0,-30,518,-257,29,448,45,0,0,0,0,-6,133,0,0,0,156,66,69
95475,5,0,0,64,54,106,0,-30,518,-257,29,448,45,0,0,0,1,-7,136,-1,0,0,154,66,69
95576,5,0,0,64,54,106,0,-30,518,-257,29,448,45,0,0,0,2,-9,139,-1,0,0,154,66,69
95677,5,0,0,64,54,106,0,-30,518,-257,29,448,45,0,0,0,3,-10,142,-1,0,0,156,66,69
95778,5,0,0,64,54,106,0,-30,518,-257,29,448,45,0,0,0,3,-9,145,0,0,0,155,66,68
95878,5,0,0,64,54,106,0,-30,518,-257,29,448,45,0,0,0,4,-8,148,0,0,0,155,66,68
95980,5,0,0,64,54,106,0,-30,518,-257,29,448,45,0,0,0,4,-7,151,0,0,0,155,66,68
96081,5,0,0,64,54,106,0,-30,518,-257,29,448,45,0,0,0,4,-6,154,0,0,0,155,66,68
96181,5,0,0,64,54,106,0,-30,518,-257,29,448,45,0,0,0,4,-6,157,0,0,0,155,66,68
96282,5,0,0,64,54,106,0,-30,518,-257,29,448,45,0,0,0,5,-5,160,0,0,0,156,66,68
96383,5,0,0,64,54,106,0,-30,518,-257,29,448,45,0,0,0,5,-5,160,0,0,0,156,66,68
96484,5,0,0,64,54,106,0,-30,518,-257,29,448,45,0,0,0,5,-4,164,0,0,0,157,66,68
96585,5,0,0,64,54,106,0,-30,518,-257,29,448,45,0,0,0,5,-3,168,0,0,0,157,66,68
96686,5,0,0,64,54,106,0,-30,518,-257,29,448,45,0,0,0,5,-2,172,0,0,0,159,66,68
96787,5,0,0,64,54,106,0,-30,518,-257,29,448,45,0,0,0,5,-2,176,0,0,0,160,66,68
96888,5,0,0,64,54,106,0,-30,518,-257,29,448,45,0,0,0,5,-2,179,0,0,0,161,66,67
96989,5,0,0,64,54,106,0,-30,518,-257,29,448,45,0,0,0,4,-2,-176,0,0,0,162,66,67
97090,5,0,0,64,54,106,0,-30,518,-257,29,448,45,0,0,0,4,-2,-173,0,0,0,161,66,67
97191,5,0,0,64,54,106,0,-30,518,-257,29,448,45,0,0,0,4,-3,-170,0,0,0,161,66,67
97292,5,0,0,64,54,106,0,-30,518,-257,29,448,45,0,0,0,5,-3,-167,0,0,0,160,66,67
97393,5,0,0,64,54,106,0,-30,518,-257,29,448,45,0,0,0,5,-3,-164,0,0,0,160,66,67
97494,5,0,0,64,54,106,0,-30,518,-257,29,448,45,0,0,0,5,-3,-161,0,-1,0,160,66,67
97595,5,0,0,64,54,106,0,-30,518,-257,29,448,45,0,0,0,5,-3,-158,0,-1,0,159,66,67
97696,5,0,0,64,54,106,0,-30,518,-257,29,448,45,0,0,0,5,-3,-158,0,-1,0,159,66,67
97797,5,0,1,77,896,190,13,29,602,292,-49,525,32,98,0,0,6,-2,-151,0,0,0,159,66,67
97898,5,0,1,72,766,206,12,20,643,219,-41,604,17,100,0,0,6,-3,-148,0,0,0,158,66,68
98000,5,0,1,72,766,206,12,20,643,219,-41,604,17,100,0,0,6,-2,-145,0,0,0,158,66,68
98101,5,0,1,69,701,211,11,15,705,187,-42,679,16,100,0,0,5,-2,-143,0,0,0,159,66,68
98202,5,0,1,69,701,211,11,15,705,187,-42,679,16,100,0,0,-1,-2,-141,0,-1,0,162,66,68
98303,5,0,1,74,603,220,13,9,583,87,41,575,8,87,0,0,-7,-2,-139,-2,-2,0,163,66,68
98404,5,0,1,75,466,213,12,-1,662,-11,133,661,-12,100,0,0,-9,-2,-138,-4,-4,0,163,66,68
