timestamp,trackMode,telSeqId,personCount,personConfidence,faceXPx,faceYPx,faceRadiusPx,angle_err,estimatedDistance,estimatedXPos,estimatedYPos,estimatedZPos,Uyaw,Uz,Ux,Uy,pitch,roll,yaw,vx,vy,vz,tof,batt,temp
6300,0,0,0,0,0,0,0,0,0,0,0,0,0,0,0,0,0,4,-3,0,0,0,31,92,52
6401,0,0,0,0,0,0,0,0,0,0,0,0,0,0,0,0,0,4,-3,0,0,0,31,92,52
6503,0,0,0,0,0,0,0,0,0,0,0,0,0,0,0,0,0,4,-3,0,0,0,31,92,52
6604,0,0,0,0,0,0,0,0,0,0,0,0,0,0,0,0,0,4,-3,0,0,0,31,92,53
6705,0,0,0,0,0,0,0,0,0,0,0,0,0,0,0,0,0,4,-3,0,0,0,31,92,53
6807,0,0,0,0,0,0,0,0,0,0,0,0,0,0,0,0,0,4,-3,0,0,0,31,91,53
6908,0,0,0,0,0,0,0,0,0,0,0,0,0,0,0,0,0,4,-3,0,0,0,31,91,53
7010,0,0,0,0,0,0,0,0,0,0,0,0,0,0,0,0,0,4,-3,0,0,0,31,91,53
7111,0,0,0,0,0,0,0,0,0,0,0,0,0,0,0,0,0,4,-3,0,0,0,31,91,53
7214,0,0,0,0,0,0,0,0,0,0,0,0,0,0,0,0,0,4,-3,0,0,0,31,91,53
7315,0,0,0,0,0,0,0,0,0,0,0,0,0,0,0,0,0,4,-3,0,0,0,31,91,53
7416,0,0,0,0,0,0,0,0,0,0,0,0,0,0,0,0,0,4,-3,0,0,0,31,91,53
7517,0,0,0,0,0,0,0,0,0,0,0,0,0,0,0,0,0,4,-3,0,0,0,31,91,53
7619,0,0,0,0,0,0,0,0,0,0,0,0,0,0,0,0,0,4,-3,0,0,0,31,91,53
7721,0,0,0,0,0,0,0,0,0,0,0,0,0,0,0,0,0,4,-3,0,0,0,31,91,53
7822,0,0,0,0,0,0,0,0,0,0,0,0,0,0,0,0,0,4,-3,0,0,0,31,91,53
7923,0,0,0,0,0,0,0,0,0,0,0,0,0,0,0,0,0,4,-3,0,0,0,31,91,53
8025,0,0,0,0,0,0,0,0,0,0,0,0,0,0,0,0,0,4,-3,0,0,0,31,91,53
8126,0,0,0,0,0,0,0,0,0,0,0,0,0,0,0,0,0,4,-3,0,0,0,31,91,53
8227,0,0,0,0,0,0,0,0,0,0,0,0,0,0,0,0,0,4,-3,0,0,0,31,91,53
8328,0,0,0,0,0,0,0,0,0,0,0,0,0,0,0,0,0,4,-3,0,0,0,31,91,53
8429,0,0,0,0,0,0,0,0,0,0,0,0,0,0,0,0,0,4,-3,0,0,0,31,91,53
8530,0,0,0,0,0,0,0,0,0,0,0,0,0,0,0,0,0,4,-3,0,0,0,31,91,53
8632,0,0,0,0,0,0,0,0,0,0,0,0,0,0,0,0,0,4,-3,0,0,0,31,91,53
8733,0,0,0,0,0,0,0,0,0,0,0,0,0,0,0,0,0,4,-3,0,0,0,31,91,53
8835,0,0,0,0,0,0,0,0,0,0,0,0,0,0,0,0,0,4,-3,0,0,0,31,91,53
8936,0,0,0,0,0,0,0,0,0,0,0,0,0,0,0,0,0,4,-3,0,0,0,31,91,53
9036,0,0,0,0,0,0,0,0,0,0,0,0,0,0,0,0,0,4,-3,0,0,0,31,91,53
9138,0,0,0,0,0,0,0,0,0,0,0,0,0,0,0,0,0,4,-3,0,0,0,31,91,53
9239,0,0,0,0,0,0,0,0,0,0,0,0,0,0,0,0,0,4,-3,0,0,0,31,91,53
9341,0,0,0,0,0,0,0,0,0,0,0,0,0,0,0,0,0,4,-3,0,0,0,31,91,53
9442,0,0,0,0,0,0,0,0,0,0,0,0,0,0,0,0,0,4,-3,0,0,0,31,91,53
9543,0,0,0,0,0,0,0,0,0,0,0,0,0,0,0,0,0,4,-3,0,0,0,31,91,53
9645,0,0,0,0,0,0,0,0,0,0,0,0,0,0,0,0,0,4,-3,0,0,0,31,91,54
9746,0,0,0,0,0,0,0,0,0,0,0,0,0,0,0,0,0,4,-3,0,0,0,31,91,54
9848,0,0,0,0,0,0,0,0,0,0,0,0,0,0,0,0,0,4,-3,0,0,0,31,91,54
9950,0,0,0,0,0,0,0,0,0,0,0,0,0,0,0,0,0,4,-3,0,0,0,31,91,54
10051,0,0,0,0,0,0,0,0,0,0,0,0,0,0,0,0,0,4,-3,0,0,0,31,91,54
10151,0,0,0,0,0,0,0,0,0,0,0,0,0,0,0,0,0,4,-3,0,0,0,31,91,54
10252,0,0,0,0,0,0,0,0,0,0,0,0,0,0,0,0,0,4,-3,0,0,0,31,91,54
10353,0,0,0,0,0,0,0,0,0,0,0,0,0,0,0,0,0,4,-3,0,0,0,31,91,54
10455,0,0,0,0,0,0,0,0,0,0,0,0,0,0,0,0,0,4,-3,0,0,0,31,91,54
10555,0,0,0,0,0,0,0,0,0,0,0,0,0,0,0,0,0,4,-3,0,0,0,31,91,54
10657,0,0,0,0,0,0,0,0,0,0,0,0,0,0,0,0,0,4,-3,0,0,0,31,91,54
10759,0,0,0,0,0,0,0,0,0,0,0,0,0,0,0,0,0,4,-3,0,0,0,31,91,54
10859,0,0,0,0,0,0,0,0,0,0,0,0,0,0,0,0,0,4,-3,0,0,0,31,91,54
10960,0,0,0,0,0,0,0,0,0,0,0,0,0,0,0,0,0,4,-3,0,0,0,31,91,54
11061,0,0,0,0,0,0,0,0,0,0,0,0,0,0,0,0,0,4,-3,0,0,0,31,91,54
11162,0,0,0,0,0,0,0,0,0,0,0,0,0,0,0,0,0,4,-3,0,0,0,31,91,54
11263,0,0,0,0,0,0,0,0,0,0,0,0,0,0,0,0,0,4,-3,0,0,0,31,91,54
11364,0,0,0,0,0,0,0,0,0,0,0,0,0,0,0,0,0,4,-3,0,0,0,31,91,54
11464,0,0,0,0,0,0,0,0,0,0,0,0,0,0,0,0,0,4,-3,0,0,0,31,91,54
11565,0,0,0,0,0,0,0,0,0,0,0,0,0,0,0,0,0,4,-3,0,0,0,31,91,54
11667,0,0,0,0,0,0,0,0,0,0,0,0,0,0,0,0,0,4,-3,0,0,0,31,91,54
11768,0,0,0,0,0,0,0,0,0,0,0,0,0,0,0,0,0,4,-3,0,0,0,31,91,54
11869,0,0,0,0,0,0,0,0,0,0,0,0,0,0,0,0,0,4,-3,0,0,0,30,91,54
11970,0,0,0,0,0,0,0,0,0,0,0,0,0,0,0,0,0,4,-3,0,0,0,30,91,54
12071,0,0,0,0,0,0,0,0,0,0,0,0,0,0,0,0,0,4,-3,0,0,0,30,91,54
12172,0,0,0,0,0,0,0,0,0,0,0,0,0,0,0,0,0,4,-3,0,0,0,30,91,54
12273,0,0,0,0,0,0,0,0,0,0,0,0,0,0,0,0,0,4,-3,0,0,0,30,91,54
12374,0,0,0,0,0,0,0,0,0,0,0,0,0,0,0,0,0,4,-3,0,0,0,30,91,54
12476,0,0,0,0,0,0,0,0,0,0,0,0,0,0,0,0,0,4,-3,0,0,0,30,91,54
12577,0,0,0,0,0,0,0,0,0,0,0,0,0,0,0,0,0,4,-3,0,0,0,30,91,54
12678,0,0,0,0,0,0,0,0,0,0,0,0,0,0,0,0,0,4,-3,0,0,0,30,91,54
12779,0,0,0,0,0,0,0,0,0,0,0,0,0,0,0,0,0,4,-3,0,0,0,30,91,54
12879,0,0,0,0,0,0,0,0,0,0,0,0,0,0,0,0,0,4,-3,0,0,0,30,91,54
12980,0,0,0,0,0,0,0,0,0,0,0,0,0,0,0,0,0,4,-3,0,0,0,30,91,54
13081,0,0,0,0,0,0,0,0,0,0,0,0,0,0,0,0,0,4,-3,0,0,0,30,91,54
13182,0,0,0,0,0,0,0,0,0,0,0,0,0,0,0,0,0,4,-3,0,0,0,30,91,54
13282,0,0,0,0,0,0,0,0,0,0,0,0,0,0,0,0,0,4,-3,0,0,0,30,91,54
13383,0,0,0,0,0,0,0,0,0,0,0,0,0,0,0,0,0,4,-3,0,0,0,30,91,54
13484,0,0,0,0,0,0,0,0,0,0,0,0,0,0,0,0,0,4,-3,0,0,0,30,91,54
13585,0,0,0,0,0,0,0,0,0,0,0,0,0,0,0,0,0,4,-3,0,0,0,30,91,55
13686,0,0,0,0,0,0,0,0,0,0,0,0,0,0,0,0,0,4,-3,0,0,0,30,91,55
13787,0,0,0,0,0,0,0,0,0,0,0,0,0,0,0,0,0,4,-3,0,0,0,30,91,55
13887,0,0,0,0,0,0,0,0,0,0,0,0,0,0,0,0,0,4,-3,0,0,0,30,91,55
13988,0,0,0,0,0,0,0,0,0,0,0,0,0,0,0,0,0,4,-3,0,0,0,30,91,55
14089,0,0,0,0,0,0,0,0,0,0,0,0,0,0,0,0,0,4,-3,0,0,0,30,91,55
14190,0,0,0,0,0,0,0,0,0,0,0,0,0,0,0,0,0,4,-3,0,0,0,30,91,55
14290,0,0,0,0,0,0,0,0,0,0,0,0,0,0,0,0,0,4,-3,0,0,0,30,91,55
14391,0,0,0,0,0,0,0,0,0,0,0,0,0,0,0,0,0,4,-3,0,0,0,30,91,55
14492,0,0,0,0,0,0,0,0,0,0,0,0,0,0,0,0,0,4,-2,0,0,0,30,91,55
14593,0,0,0,0,0,0,0,0,0,0,0,0,0,0,0,0,1,4,-1,0,0,-2,31,91,55
14693,0,0,0,0,0,0,0,0,0,0,0,0,0,0,0,0,1,5,0,0,0,-3,31,91,55
14794,0,0,0,0,0,0,0,0,0,0,0,0,0,0,0,0,1,5,1,0,0,-5,30,91,55
14895,0,0,0,0,0,0,0,0,0,0,0,0,0,0,0,0,1,5,2,0,0,-6,30,91,55
14995,0,0,0,0,0,0,0,0,0,0,0,0,0,0,0,0,1,7,5,0,0,-7,30,91,55
15096,0,0,0,0,0,0,0,0,0,0,0,0,0,0,0,0,1,7,5,0,0,-8,38,91,55
15197,0,0,0,0,0,0,0,0,0,0,0,0,0,0,0,0,1,7,3,0,0,-8,47,91,55
15298,0,0,0,0,0,0,0,0,0,0,0,0,0,0,0,0,2,6,2,0,0,-8,56,91,55
15398,0,0,0,0,0,0,0,0,0,0,0,0,0,0,0,0,3,6,2,0,0,-7,63,91,55
15500,0,0,0,0,0,0,0,0,0,0,0,0,0,0,0,0,3,6,1,0,0,-6,70,91,55
15600,0,0,0,0,0,0,0,0,0,0,0,0,0,0,0,0,3,6,2,0,0,-4,74,91,55
15701,0,0,0,0,0,0,0,0,0,0,0,0,0,0,0,0,2,6,1,-1,0,-3,77,91,55
15802,0,0,0,0,0,0,0,0,0,0,0,0,0,0,0,0,2,7,1,0,0,-2,80,91,55
15903,0,0,0,0,0,0,0,0,0,0,0,0,0,0,0,0,3,8,1,0,0,-1,82,91,55
16004,0,0,0,0,0,0,0,0,0,0,0,0,0,0,0,0,4,9,1,0,0,0,83,91,55
16105,0,0,0,0,0,0,0,0,0,0,0,0,0,0,0,0,4,9,1,0,0,0,83,91,55
16206,0,0,0,0,0,0,0,0,0,0,0,0,0,0,0,0,3,9,2,-1,0,0,83,91,55
16306,0,0,0,0,0,0,0,0,0,0,0,0,0,0,0,0,2,9,1,0,0,0,83,91,55
16407,0,0,0,0,0,0,0,0,0,0,0,0,0,0,0,0,2,8,1,0,0,0,84,91,55
16508,0,0,0,0,0,0,0,0,0,0,0,0,0,0,0,0,2,7,1,0,0,0,84,91,55
16609,0,0,0,0,0,0,0,0,0,0,0,0,0,0,0,0,2,7,2,0,0,0,84,91,56
16709,0,0,0,0,0,0,0,0,0,0,0,0,0,0,0,0,3,7,3,0,0,0,84,91,56
16810,0,0,0,0,0,0,0,0,0,0,0,0,0,0,0,0,3,7,3,-1,0,0,84,90,56
16911,0,0,0,0,0,0,0,0,0,0,0,0,0,0,0,0,3,7,3,-1,0,0,85,90,56
17012,0,0,0,0,0,0,0,0,0,0,0,0,0,0,0,0,3,7,3,-1,0,0,84,90,56
17113,0,0,0,0,0,0,0,0,0,0,0,0,0,0,0,0,3,7,3,-1,0,0,84,90,56
17214,0,0,0,0,0,0,0,0,0,0,0,0,0,0,0,0,3,7,3,-1,0,0,85,90,56
17315,0,0,0,0,0,0,0,0,0,0,0,0,0,0,0,0,3,7,3,-1,0,0,84,90,56
17415,0,0,0,0,0,0,0,0,0,0,0,0,0,0,0,0,3,6,3,-1,0,0,85,90,56
17516,0,0,0,0,0,0,0,0,0,0,0,0,0,0,0,0,3,6,3,-1,0,0,84,90,56
17617,0,0,0,0,0,0,0,0,0,0,0,0,0,0,0,0,3,6,2,-1,0,0,84,90,56
17718,0,0,0,0,0,0,0,0,0,0,0,0,0,0,0,0,4,6,3,-1,0,0,84,90,56
17819,0,0,0,0,0,0,0,0,0,0,0,0,0,0,0,0,4,6,3,-1,0,0,84,90,56
17919,0,0,0,0,0,0,0,0,0,0,0,0,0,0,0,0,4,6,3,-1,0,0,84,90,56
18020,0,0,0,0,0,0,0,0,0,0,0,0,0,0,0,0,5,6,3,-1,0,0,83,90,56
18121,0,0,0,0,0,0,0,0,0,0,0,0,0,0,0,0,5,6,4,-1,0,0,84,90,56
18222,0,0,0,0,0,0,0,0,0,0,0,0,0,0,0,0,5,6,3,-1,0,0,83,90,56
18323,0,0,0,0,0,0,0,0,0,0,0,0,0,0,0,0,5,6,3,-1,0,0,84,90,56
18423,0,0,0,0,0,0,0,0,0,0,0,0,0,0,0,0,5,6,3,-1,0,0,84,90,56
18524,0,0,0,0,0,0,0,0,0,0,0,0,0,0,0,0,4,6,3,-1,0,0,84,90,56
18625,0,0,0,0,0,0,0,0,0,0,0,0,0,0,0,0,5,6,3,0,0,0,83,90,56
18727,0,0,0,0,0,0,0,0,0,0,0,0,0,0,0,0,4,6,4,-1,0,0,83,90,56
18828,0,0,0,0,0,0,0,0,0,0,0,0,0,0,0,0,4,6,3,-1,0,0,82,90,56
18929,0,0,0,0,0,0,0,0,0,0,0,0,0,0,0,0,4,6,3,-1,0,0,81,90,56
19029,0,0,0,0,0,0,0,0,0,0,0,0,0,0,0,0,3,6,2,-1,0,0,81,90,56
19130,0,0,0,0,0,0,0,0,0,0,0,0,0,0,0,0,3,6,1,-1,0,0,81,90,56
19231,0,0,0,0,0,0,0,0,0,0,0,0,0,0,0,0,4,6,1,-1,0,0,81,90,56
19332,0,0,0,0,0,0,0,0,0,0,0,0,0,0,0,0,5,6,1,0,0,0,81,90,56
19432,0,0,0,0,0,0,0,0,0,0,0,0,0,0,0,0,5,6,1,0,0,0,82,90,56
19533,0,0,0,0,0,0,0,0,0,0,0,0,0,0,0,0,5,6,1,-1,0,0,81,90,56
19633,0,0,0,0,0,0,0,0,0,0,0,0,0,0,0,0,5,6,0,-1,0,0,81,90,56
19734,0,0,0,0,0,0,0,0,0,0,0,0,0,0,0,0,5,6,0,-1,0,0,82,90,56
19835,0,0,0,0,0,0,0,0,0,0,0,0,0,0,0,0,4,6,0,-1,0,0,82,90,56
19936,0,0,0,0,0,0,0,0,0,0,0,0,0,0,0,0,4,5,0,-1,0,0,82,90,56
20036,0,0,0,0,0,0,0,0,0,0,0,0,0,0,0,0,4,5,0,-1,0,0,82,90,56
20137,0,0,0,0,0,0,0,0,0,0,0,0,0,0,0,0,4,5,0,-1,0,0,82,90,56
20238,0,0,0,0,0,0,0,0,0,0,0,0,0,0,0,0,4,5,0,-1,0,0,82,90,56
20346,0,0,0,0,0,0,0,0,0,0,0,0,0,0,0,0,5,5,0,-1,0,0,81,90,56
20447,0,0,0,0,0,0,0,0,0,0,0,0,0,0,0,0,5,5,0,-1,0,0,82,90,56
20547,0,1,0,0,0,0,0,0,0,0,0,0,0,0,0,0,5,5,0,-1,0,0,82,90,56
20655,0,1,0,0,0,0,0,0,0,0,0,0,0,0,0,0,5,5,0,-1,0,0,82,90,56
20755,0,1,0,0,0,0,0,0,0,0,0,0,0,0,0,0,5,5,0,-1,0,0,81,90,56
20856,0,1,0,0,0,0,0,0,0,0,0,0,0,0,0,0,6,5,0,-1,0,0,82,90,56
20957,0,1,0,0,0,0,0,0,0,0,0,0,0,0,0,0,6,5,0,-1,0,0,82,90,56
21062,0,1,0,0,0,0,0,0,0,0,0,0,0,0,0,0,6,5,0,-1,0,0,82,90,56
21163,0,1,0,0,0,0,0,0,0,0,0,0,0,0,0,0,6,5,0,-1,0,0,82,90,56
21264,0,1,0,0,0,0,0,0,0,0,0,0,0,0,0,0,5,5,0,0,0,0,81,90,56
21364,0,1,0,0,0,0,0,0,0,0,0,0,0,0,0,0,5,6,0,0,0,0,81,90,56
21465,0,1,0,0,0,0,0,0,0,0,0,0,0,0,0,0,5,6,0,0,0,0,81,90,56
21565,0,1,0,0,0,0,0,0,0,0,0,0,0,0,0,0,5,6,-1,1,0,0,80,90,57
21666,0,1,0,0,0,0,0,0,0,0,0,0,0,0,0,0,5,7,-2,1,0,0,80,90,57
21769,0,1,0,0,0,0,0,0,0,0,0,0,0,0,0,0,4,7,-3,2,0,0,80,90,57
21870,0,1,0,0,0,0,0,0,0,0,0,0,0,0,0,0,4,6,-4,2,0,0,79,90,57
21971,0,1,0,0,0,0,0,0,0,0,0,0,0,0,0,0,5,6,-5,3,0,0,79,90,57
22071,0,1,0,0,0,0,0,0,0,0,0,0,0,0,0,0,4,6,-5,4,0,0,79,90,57
22172,0,1,0,0,0,0,0,0,0,0,0,0,0,0,0,0,4,6,-5,4,0,-1,80,90,57
22273,0,1,0,0,0,0,0,0,0,0,0,0,0,0,0,0,5,6,-6,5,0,0,80,90,57
22374,0,1,0,0,0,0,0,0,0,0,0,0,0,0,0,0,5,6,-6,4,0,0,81,90,57
22474,0,1,0,0,0,0,0,0,0,0,0,0,0,0,0,0,5,6,-7,5,0,0,81,90,57
22575,0,1,0,0,0,0,0,0,0,0,0,0,0,0,0,0,6,5,-8,5,0,0,79,90,57
22676,0,1,0,0,0,0,0,0,0,0,0,0,0,0,0,0,7,5,-9,6,0,0,76,90,57
22776,0,1,0,0,0,0,0,0,0,0,0,0,0,0,0,0,7,6,-10,5,0,0,82,90,57
22877,0,1,0,0,0,0,0,0,0,0,0,0,0,0,0,0,7,7,-11,5,0,0,82,90,57
22977,0,1,0,0,0,0,0,0,0,0,0,0,0,0,0,0,7,7,-13,5,0,0,82,90,57
23078,0,1,0,0,0,0,0,0,0,0,0,0,0,0,0,0,7,7,-12,5,0,-1,83,90,57
23178,0,1,0,0,0,0,0,0,0,0,0,0,0,0,0,0,7,8,-12,5,0,0,83,90,57
23279,0,1,0,0,0,0,0,0,0,0,0,0,0,0,0,0,7,8,-12,6,0,0,82,90,57
23380,0,1,0,0,0,0,0,0,0,0,0,0,0,0,0,0,8,8,-11,6,0,0,82,90,57
23480,0,1,0,0,0,0,0,0,0,0,0,0,0,0,0,0,8,8,-11,6,0,0,82,90,57
23581,0,1,0,0,0,0,0,0,0,0,0,0,0,0,0,0,7,8,-10,6,0,0,83,90,57
23681,0,1,0,0,0,0,0,0,0,0,0,0,0,0,0,0,8,7,-10,6,0,0,84,90,58
23782,0,1,0,0,0,0,0,0,0,0,0,0,0,0,0,0,8,8,-9,6,0,-1,85,90,58
23883,0,1,0,0,0,0,0,0,0,0,0,0,0,0,0,0,9,9,-7,6,0,0,84,90,58
23984,0,1,0,0,0,0,0,0,0,0,0,0,0,0,0,0,10,9,-8,6,0,0,86,90,58
24084,0,1,0,0,0,0,0,0,0,0,0,0,0,0,0,0,8,9,-8,5,0,0,86,90,58
24185,0,1,0,0,0,0,0,0,0,0,0,0,0,0,0,0,7,9,-10,4,0,0,86,90,58
24286,0,1,0,0,0,0,0,0,0,0,0,0,0,0,0,0,7,9,-10,4,0,0,86,90,58
24387,0,1,0,0,0,0,0,0,0,0,0,0,0,0,0,0,7,9,-9,4,0,0,87,90,58
24488,0,1,0,0,0,0,0,0,0,0,0,0,0,0,0,0,7,9,-9,4,0,0,87,90,58
24588,0,1,0,0,0,0,0,0,0,0,0,0,0,0,0,0,8,8,-7,3,0,0,86,90,57
24689,0,1,0,0,0,0,0,0,0,0,0,0,0,0,0,0,8,8,-7,3,0,0,86,90,57
24790,0,1,0,0,0,0,0,0,0,0,0,0,0,0,0,0,7,8,-7,2,0,0,86,90,57
24894,0,1,0,0,0,0,0,0,0,0,0,0,0,0,0,0,6,9,-6,1,0,0,87,90,57
24995,0,1,0,0,0,0,0,0,0,0,0,0,0,0,0,0,6,9,-6,1,0,0,87,90,57
25096,0,1,0,0,0,0,0,0,0,0,0,0,0,0,0,0,4,8,-8,0,0,0,85,90,57
25196,0,1,0,0,0,0,0,0,0,0,0,0,0,0,0,0,4,8,-8,0,0,0,85,90,57
25297,0,1,0,0,0,0,0,0,0,0,0,0,0,0,0,0,3,8,-10,0,0,0,85,90,57
25398,0,1,0,0,0,0,0,0,0,0,0,0,0,0,0,0,2,7,-12,-1,0,0,85,90,57
25498,0,1,0,0,0,0,0,0,0,0,0,0,0,0,0,0,4,5,-24,-1,0,0,85,90,57
25599,0,1,0,0,0,0,0,0,0,0,0,0,0,0,0,0,4,3,-39,-2,-1,0,85,90,58
25700,0,1,0,0,0,0,0,0,0,0,0,0,0,0,0,0,4,3,-39,-2,-1,0,85,90,58
25801,0,1,0,0,0,0,0,0,0,0,0,0,0,0,0,0,2,0,-63,-1,0,0,85,90,58
25901,0,1,0,0,0,0,0,0,0,0,0,0,0,0,0,0,1,0,-69,-1,0,0,86,90,58
26002,0,1,0,0,0,0,0,0,0,0,0,0,0,0,0,0,0,0,-75,-1,0,0,86,90,58
26104,0,1,0,0,0,0,0,0,0,0,0,0,0,0,0,0,0,0,-75,-1,0,0,86,90,58
26205,0,1,0,0,0,0,0,0,0,0,0,0,0,0,0,0,0,0,-79,-1,0,0,85,90,58
26305,0,1,0,0,0,0,0,0,0,0,0,0,0,0,0,0,-1,1,-81,-1,-1,0,85,90,58
26407,0,1,0,0,0,0,0,0,0,0,0,0,0,0,0,0,-1,1,-81,-1,-1,0,85,90,58
26508,0,1,0,0,0,0,0,0,0,0,0,0,0,0,0,0,-2,1,-83,-1,-3,0,85,90,58
26609,0,1,0,0,0,0,0,0,0,0,0,0,0,0,0,0,-2,1,-83,-1,-3,0,85,90,58
26710,0,1,0,0,0,0,0,0,0,0,0,0,0,0,0,0,-2,2,-87,-2,-4,0,84,90,57
26811,0,1,0,0,0,0,0,0,0,0,0,0,0,0,0,0,-2,2,-87,-2,-4,0,84,90,57
26912,0,1,0,0,0,0,0,0,0,0,0,0,0,0,0,0,-1,2,-89,-2,-5,0,84,90,57
27013,0,1,0,0,0,0,0,0,0,0,0,0,0,0,0,0,0,2,-92,-2,-7,0,84,90,57
27113,0,1,0,0,0,0,0,0,0,0,0,0,0,0,0,0,0,2,-92,-2,-7,0,84,90,57
27214,0,1,0,0,0,0,0,0,0,0,0,0,0,0,0,0,0,2,-94,-2,-7,0,84,90,57
27315,0,1,0,0,0,0,0,0,0,0,0,0,0,0,0,0,0,2,-96,-2,-7,0,85,90,57
27416,0,1,0,0,0,0,0,0,0,0,0,0,0,0,0,0,0,2,-97,-2,-7,0,86,90,57
27517,0,1,0,0,0,0,0,0,0,0,0,0,0,0,0,0,0,3,-98,-2,-6,0,86,90,57
27618,0,1,0,0,0,0,0,0,0,0,0,0,0,0,0,0,-1,3,-98,-2,-6,0,84,90,58
27719,0,1,0,0,0,0,0,0,0,0,0,0,0,0,0,0,-1,3,-98,-1,-7,0,84,90,58
27820,0,1,0,0,0,0,0,0,0,0,0,0,0,0,0,0,0,3,-98,-1,-7,0,84,90,58
27920,0,1,0,0,0,0,0,0,0,0,0,0,0,0,0,0,-1,4,-98,-1,-6,0,85,90,58
28021,0,1,0,0,0,0,0,0,0,0,0,0,0,0,0,0,-1,4,-98,-1,-6,0,85,90,58
28122,0,1,0,0,0,0,0,0,0,0,0,0,0,0,0,0,0,5,-99,-2,-6,0,87,90,58
28223,0,1,0,0,0,0,0,0,0,0,0,0,0,0,0,0,0,5,-99,-2,-6,0,88,90,58
28324,0,1,0,0,0,0,0,0,0,0,0,0,0,0,0,0,0,5,-99,-2,-6,0,88,90,58
28424,0,1,0,0,0,0,0,0,0,0,0,0,0,0,0,0,1,5,-97,-2,-5,0,88,90,58
28525,0,1,0,0,0,0,0,0,0,0,0,0,0,0,0,0,0,5,-96,-2,-4,0,88,90,58
28625,0,1,0,0,0,0,0,0,0,0,0,0,0,0,0,0,0,5,-96,-1,-4,0,88,90,58
28726,0,1,0,0,0,0,0,0,0,0,0,0,0,0,0,0,0,5,-96,-1,-3,0,88,90,58
28827,0,1,0,0,0,0,0,0,0,0,0,0,0,0,0,0,0,5,-96,-1,-2,0,88,90,58
28927,0,1,0,0,0,0,0,0,0,0,0,0,0,0,0,0,-1,5,-97,-1,-2,0,87,90,58
29028,0,1,0,0,0,0,0,0,0,0,0,0,0,0,0,0,-1,5,-98,-1,-1,0,87,90,58
29128,0,1,0,0,0,0,0,0,0,0,0,0,0,0,0,0,-1,5,-99,-1,-1,0,86,90,58
29229,0,1,0,0,0,0,0,0,0,0,0,0,0,0,0,0,-1,5,-99,-1,-1,0,87,90,58
29330,0,1,0,0,0,0,0,0,0,0,0,0,0,0,0,0,-2,4,-100,-1,0,0,86,90,58
29432,0,1,0,0,0,0,0,0,0,0,0,0,0,0,0,0,-2,4,-102,-1,0,0,86,90,58
29533,0,1,0,0,0,0,0,0,0,0,0,0,0,0,0,0,-2,4,-102,-1,0,0,86,90,58
29633,0,1,0,0,0,0,0,0,0,0,0,0,0,0,0,0,-2,4,-106,-1,0,0,86,90,58
29734,0,1,0,0,0,0,0,0,0,0,0,0,0,0,0,0,-1,3,-115,-2,0,0,86,90,58
29835,0,1,0,0,0,0,0,0,0,0,0,0,0,0,0,0,-2,0,-139,-1,-1,0,86,90,58
29936,0,1,0,0,0,0,0,0,0,0,0,0,0,0,0,0,-2,-1,-151,-1,-1,0,87,90,58
30036,0,1,0,0,0,0,0,0,0,0,0,0,0,0,0,0,-2,-1,-160,-1,-1,0,87,90,58
30137,0,1,0,0,0,0,0,0,0,0,0,0,0,0,0,0,-2,-1,-160,-1,-1,0,87,90,58
30238,0,1,0,0,0,0,0,0,0,0,0,0,0,0,0,0,-2,-1,-167,-1,0,0,87,90,58
30338,0,1,0,0,0,0,0,0,0,0,0,0,0,0,0,0,-2,0,-173,-1,0,0,87,90,58
30439,0,1,0,0,0,0,0,0,0,0,0,0,0,0,0,0,-2,0,-172,-2,0,0,87,90,58
30539,0,1,0,0,0,0,0,0,0,0,0,0,0,0,0,0,-3,1,-166,-4,0,0,87,90,58
30640,0,1,0,0,0,0,0,0,0,0,0,0,0,0,0,0,-3,1,-166,-4,0,0,87,90,58
30741,0,1,0,0,0,0,0,0,0,0,0,0,0,0,0,0,-2,3,-167,-6,0,0,87,90,58
30841,0,1,0,0,0,0,0,0,0,0,0,0,0,0,0,0,-2,4,-170,-7,0,0,88,90,58
30942,0,1,0,0,0,0,0,0,0,0,0,0,0,0,0,0,-1,4,-172,-7,0,0,89,90,58
31042,0,1,0,0,0,0,0,0,0,0,0,0,0,0,0,0,0,5,-173,-7,0,0,89,90,58
31143,0,1,0,0,0,0,0,0,0,0,0,0,0,0,0,0,0,5,-175,-6,0,0,89,90,58
31244,0,1,0,0,0,0,0,0,0,0,0,0,0,0,0,0,-2,5,-177,-6,0,0,90,90,58
31344,0,1,0,0,0,0,0,0,0,0,0,0,0,0,0,0,-2,5,-178,-6,0,0,89,90,58
31445,0,1,0,0,0,0,0,0,0,0,0,0,0,0,0,0,-3,6,179,-7,0,0,89,90,58
31546,0,1,0,0,0,0,0,0,0,0,0,0,0,0,0,0,-4,6,178,-7,0,0,89,90,58
31646,0,1,0,0,0,0,0,0,0,0,0,0,0,0,0,0,-4,7,176,-7,0,0,89,90,59
31747,0,1,0,0,0,0,0,0,0,0,0,0,0,0,0,0,-4,7,173,-8,0,0,88,90,59
31848,0,1,0,0,0,0,0,0,0,0,0,0,0,0,0,0,-3,7,170,-8,0,0,89,90,59
31949,0,1,0,0,0,0,0,0,0,0,0,0,0,0,0,0,-2,8,168,-7,0,0,89,90,59
32050,0,1,0,0,0,0,0,0,0,0,0,0,0,0,0,0,-1,7,167,-7,0,0,90,90,59
32151,0,1,0,0,0,0,0,0,0,0,0,0,0,0,0,0,-1,8,167,-7,0,0,91,90,59
32254,0,1,0,0,0,0,0,0,0,0,0,0,0,0,0,0,0,9,168,-7,0,0,91,90,59
32354,0,1,0,0,0,0,0,0,0,0,0,0,0,0,0,0,0,9,169,-7,0,0,89,90,59
32456,0,1,0,0,0,0,0,0,0,0,0,0,0,0,0,0,0,7,169,-7,0,0,91,90,59
32556,0,1,0,0,0,0,0,0,0,0,0,0,0,0,0,0,-1,6,170,-7,0,0,91,90,59
32657,0,1,0,0,0,0,0,0,0,0,0,0,0,0,0,0,-1,6,169,-6,1,0,91,90,59
32758,0,1,0,0,0,0,0,0,0,0,0,0,0,0,0,0,-2,6,169,-6,0,0,91,90,59
32859,0,1,0,0,0,0,0,0,0,0,0,0,0,0,0,0,-2,6,169,-6,0,0,92,90,59
32960,0,1,0,0,0,0,0,0,0,0,0,0,0,0,0,0,-1,6,169,-6,0,0,92,90,59
33060,0,1,0,0,0,0,0,0,0,0,0,0,0,0,0,0,-1,7,170,-6,0,0,92,90,59
33161,0,1,0,0,0,0,0,0,0,0,0,0,0,0,0,0,-1,8,169,-6,0,0,92,90,59
33262,0,1,0,0,0,0,0,0,0,0,0,0,0,0,0,0,-2,8,170,-6,0,0,92,90,59
33362,0,1,0,0,0,0,0,0,0,0,0,0,0,0,0,0,-1,8,170,-6,0,0,91,90,59
33463,0,1,0,0,0,0,0,0,0,0,0,0,0,0,0,0,-2,8,170,-5,0,0,91,90,59
33564,0,1,0,0,0,0,0,0,0,0,0,0,0,0,0,0,-3,8,171,-5,0,0,90,90,59
33667,0,1,0,0,0,0,0,0,0,0,0,0,0,0,0,0,-3,8,172,-5,0,0,90,90,59
33768,0,1,0,0,0,0,0,0,0,0,0,0,0,0,0,0,-3,8,173,-5,0,0,90,90,59
33868,0,1,0,0,0,0,0,0,0,0,0,0,0,0,0,0,-3,8,174,-5,0,0,91,90,59
33969,0,1,0,0,0,0,0,0,0,0,0,0,0,0,0,0,-2,7,175,-5,0,0,91,90,59
34069,0,1,0,0,0,0,0,0,0,0,0,0,0,0,0,0,-3,7,175,-5,0,0,90,90,59
34170,0,1,0,0,0,0,0,0,0,0,0,0,0,0,0,0,-2,7,176,-5,0,0,90,90,59
34270,0,1,0,0,0,0,0,0,0,0,0,0,0,0,0,0,-3,8,176,-6,0,0,89,90,59
34371,0,1,0,0,0,0,0,0,0,0,0,0,0,0,0,0,-2,8,175,-6,0,0,89,90,59
34471,0,1,0,0,0,0,0,0,0,0,0,0,0,0,0,0,-3,8,174,-6,-1,0,88,90,59
34572,0,1,0,0,0,0,0,0,0,0,0,0,0,0,0,0,-4,8,173,-5,-1,0,88,90,59
34673,0,1,0,0,0,0,0,0,0,0,0,0,0,0,0,0,-4,8,173,-5,0,0,88,90,59
34773,0,1,0,0,0,0,0,0,0,0,0,0,0,0,0,0,-3,8,174,-4,0,0,87,90,59
34874,0,1,0,0,0,0,0,0,0,0,0,0,0,0,0,0,-3,7,174,-3,0,0,87,90,59
34975,0,1,0,0,0,0,0,0,0,0,0,0,0,0,0,0,-3,7,175,-3,0,0,87,90,59
35075,0,1,0,0,0,0,0,0,0,0,0,0,0,0,0,0,-4,7,175,-3,0,0,87,90,59
35177,0,1,0,0,0,0,0,0,0,0,0,0,0,0,0,0,-4,6,174,-3,0,0,87,90,59
35277,0,1,0,0,0,0,0,0,0,0,0,0,0,0,0,0,-4,6,169,-2,0,0,87,90,59
35378,0,1,0,0,0,0,0,0,0,0,0,0,0,0,0,0,0,8,152,-2,1,0,87,90,59
35478,0,1,0,0,0,0,0,0,0,0,0,0,0,0,0,0,0,6,140,-1,0,0,86,90,59
35579,0,1,0,0,0,0,0,0,0,0,0,0,0,0,0,0,-2,3,127,-1,0,0,87,90,59
35679,0,1,0,0,0,0,0,0,0,0,0,0,0,0,0,0,-2,1,118,-2,0,0,87,90,59
35780,0,1,0,0,0,0,0,0,0,0,0,0,0,0,0,0,-2,1,112,-2,0,0,87,90,59
35881,0,1,0,0,0,0,0,0,0,0,0,0,0,0,0,0,-3,0,106,-2,0,0,87,90,59
35981,0,1,0,0,0,0,0,0,0,0,0,0,0,0,0,0,-3,1,104,-2,0,0,87,90,59
36082,0,1,0,0,0,0,0,0,0,0,0,0,0,0,0,0,-4,0,107,-2,0,0,87,90,59
36183,0,1,0,0,0,0,0,0,0,0,0,0,0,0,0,0,-4,1,107,-2,2,0,87,90,59
36284,0,1,0,0,0,0,0,0,0,0,0,0,0,0,0,0,-4,0,105,-2,3,0,87,90,59
36385,0,1,0,0,0,0,0,0,0,0,0,0,0,0,0,0,-4,2,103,-1,3,0,87,90,59
36488,0,1,0,0,0,0,0,0,0,0,0,0,0,0,0,0,-4,3,102,-1,4,0,87,90,59
36589,0,1,0,0,0,0,0,0,0,0,0,0,0,0,0,0,-4,4,100,-1,5,0,86,90,59
36691,0,1,0,0,0,0,0,0,0,0,0,0,0,0,0,0,-4,4,98,-1,6,0,86,90,60
36792,0,1,0,0,0,0,0,0,0,0,0,0,0,0,0,0,-4,5,95,-1,6,0,86,90,60
36893,0,1,0,0,0,0,0,0,0,0,0,0,0,0,0,0,-3,5,93,-1,7,0,86,90,60
36994,0,1,0,0,0,0,0,0,0,0,0,0,0,0,0,0,-4,5,91,-1,7,0,87,90,60
37095,0,1,0,0,0,0,0,0,0,0,0,0,0,0,0,0,-4,5,90,-1,7,0,87,90,60
37195,0,1,0,0,0,0,0,0,0,0,0,0,0,0,0,0,-3,5,91,-1,7,0,88,90,60
37296,0,1,0,0,0,0,0,0,0,0,0,0,0,0,0,0,-3,5,91,-2,7,0,87,90,60
37396,0,1,0,0,0,0,0,0,0,0,0,0,0,0,0,0,-3,5,90,-2,7,0,82,90,60
37497,0,1,0,0,0,0,0,0,0,0,0,0,0,0,0,0,-3,6,89,-2,7,0,83,90,60
37598,0,1,0,0,0,0,0,0,0,0,0,0,0,0,0,0,-1,6,87,-2,8,0,86,90,60
37698,0,1,0,0,0,0,0,0,0,0,0,0,0,0,0,0,-1,7,86,-2,7,0,87,90,60
37799,0,1,0,0,0,0,0,0,0,0,0,0,0,0,0,0,-1,7,85,-1,7,0,87,90,60
37899,0,1,0,0,0,0,0,0,0,0,0,0,0,0,0,0,-1,8,84,-1,7,0,88,90,60
38000,0,1,0,0,0,0,0,0,0,0,0,0,0,0,0,0,-1,8,83,-1,7,0,89,90,60
38100,0,1,0,0,0,0,0,0,0,0,0,0,0,0,0,0,0,9,83,-1,7,0,87,90,60
38201,0,1,0,0,0,0,0,0,0,0,0,0,0,0,0,0,0,8,83,-1,6,0,86,90,60
38302,0,1,0,0,0,0,0,0,0,0,0,0,0,0,0,0,0,8,83,0,6,0,87,90,60
38403,0,1,0,0,0,0,0,0,0,0,0,0,0,0,0,0,0,8,83,0,5,0,87,90,60
38504,0,1,0,0,0,0,0,0,0,0,0,0,0,0,0,0,-1,8,83,0,5,0,88,90,60
38605,0,1,0,0,0,0,0,0,0,0,0,0,0,0,0,0,-1,8,83,0,5,0,89,90,60
38706,0,1,0,0,0,0,0,0,0,0,0,0,0,0,0,0,-1,7,84,-1,4,0,88,90,60
38806,0,1,0,0,0,0,0,0,0,0,0,0,0,0,0,0,-1,8,85,-1,3,0,88,90,60
38907,0,1,0,0,0,0,0,0,0,0,0,0,0,0,0,0,-2,8,84,-1,2,0,86,90,60
39008,0,1,0,0,0,0,0,0,0,0,0,0,0,0,0,0,-2,7,76,-1,2,0,86,90,60
39109,0,1,0,0,0,0,0,0,0,0,0,0,0,0,0,0,-3,7,68,0,1,0,86,90,60
39210,0,1,0,0,0,0,0,0,0,0,0,0,0,0,0,0,-2,6,52,0,1,0,86,90,60
39310,0,1,0,0,0,0,0,0,0,0,0,0,0,0,0,0,0,6,38,-1,1,0,86,90,60
39411,0,1,0,0,0,0,0,0,0,0,0,0,0,0,0,0,1,6,26,0,1,0,86,90,60
39512,0,1,0,0,0,0,0,0,0,0,0,0,0,0,0,0,1,3,20,0,1,0,87,90,60
39613,0,1,0,0,0,0,0,0,0,0,0,0,0,0,0,0,1,2,15,0,1,0,87,90,60
39713,0,1,0,0,0,0,0,0,0,0,0,0,0,0,0,0,2,1,9,0,0,0,88,90,60
39814,0,1,0,0,0,0,0,0,0,0,0,0,0,0,0,0,2,1,9,0,0,0,88,90,60
39915,0,1,0,0,0,0,0,0,0,0,0,0,0,0,0,0,2,1,8,0,0,0,88,90,60
40016,0,1,0,0,0,0,0,0,0,0,0,0,0,0,0,0,1,2,8,0,0,0,87,90,60
40117,0,1,0,0,0,0,0,0,0,0,0,0,0,0,0,0,1,2,9,0,0,0,87,90,60
40217,0,1,0,0,0,0,0,0,0,0,0,0,0,0,0,0,0,2,9,0,0,0,87,90,60
40318,0,1,0,0,0,0,0,0,0,0,0,0,0,0,0,0,0,1,9,0,0,0,88,90,60
40419,0,1,0,0,0,0,0,0,0,0,0,0,0,0,0,0,0,1,9,0,0,0,87,90,60
40520,0,1,0,0,0,0,0,0,0,0,0,0,0,0,0,0,0,1,9,0,0,0,87,90,60
40623,0,2,0,0,0,0,0,0,0,0,0,0,0,0,0,0,0,1,9,0,0,0,87,90,60
40725,0,2,0,0,0,0,0,0,0,0,0,0,0,0,0,0,0,1,9,0,0,0,87,90,60
40825,0,2,0,0,0,0,0,0,0,0,0,0,0,0,0,0,1,1,9,0,0,0,87,90,60
40936,0,2,0,0,0,0,0,0,0,0,0,0,0,0,0,0,0,1,9,0,0,0,87,90,60
41037,0,2,0,0,0,0,0,0,0,0,0,0,0,0,0,0,0,1,10,0,0,0,87,90,60
41138,0,2,0,0,0,0,0,0,0,0,0,0,0,0,0,0,0,1,9,0,0,0,87,90,60
41238,0,2,0,0,0,0,0,0,0,0,0,0,0,0,0,0,0,1,7,1,0,0,86,90,60
41339,0,2,0,0,0,0,0,0,0,0,0,0,0,0,0,0,0,1,9,3,0,0,86,90,60
41439,0,2,0,0,0,0,0,0,0,0,0,0,0,0,0,0,0,1,9,3,0,0,86,90,60
41540,0,2,0,0,0,0,0,0,0,0,0,0,0,0,0,0,0,2,8,4,0,0,85,90,60
41641,0,2,0,0,0,0,0,0,0,0,0,0,0,0,0,0,0,3,6,5,0,0,85,90,60
41742,0,2,0,0,0,0,0,0,0,0,0,0,0,0,0,0,0,3,4,6,0,0,84,90,60
41842,0,2,0,0,0,0,0,0,0,0,0,0,0,0,0,0,0,4,4,6,0,0,84,90,60
41943,0,2,0,0,0,0,0,0,0,0,0,0,0,0,0,0,0,5,4,7,0,0,84,90,60
42043,0,2,0,0,0,0,0,0,0,0,0,0,0,0,0,0,-1,5,4,7,1,0,84,90,60
42144,0,2,0,0,0,0,0,0,0,0,0,0,0,0,0,0,-2,5,2,7,1,0,85,90,60
42244,0,2,0,0,0,0,0,0,0,0,0,0,0,0,0,0,-2,5,2,8,0,0,85,90,60
42345,0,2,0,0,0,0,0,0,0,0,0,0,0,0,0,0,-2,4,0,8,0,0,86,90,60
42446,0,2,0,0,0,0,0,0,0,0,0,0,0,0,0,0,-2,5,0,8,0,0,87,90,60
42546,0,2,0,0,0,0,0,0,0,0,0,0,0,0,0,0,-2,6,0,8,0,0,85,90,60
42647,0,2,0,0,0,0,0,0,0,0,0,0,0,0,0,0,-1,6,-2,8,0,0,80,90,60
42748,0,2,0,0,0,0,0,0,0,0,0,0,0,0,0,0,-1,7,-3,8,0,0,83,90,61
42849,0,2,0,0,0,0,0,0,0,0,0,0,0,0,0,0,-2,7,-6,8,0,0,85,90,61
42950,0,2,0,0,0,0,0,0,0,0,0,0,0,0,0,0,-2,7,-7,8,0,0,86,90,61
43050,0,2,0,0,0,0,0,0,0,0,0,0,0,0,0,0,-1,7,-8,8,0,-1,86,90,61
43151,0,2,0,0,0,0,0,0,0,0,0,0,0,0,0,0,-1,7,-9,8,0,0,88,90,61
43252,0,2,0,0,0,0,0,0,0,0,0,0,0,0,0,0,0,7,-8,8,0,0,88,90,61
43353,0,2,0,0,0,0,0,0,0,0,0,0,0,0,0,0,0,7,-7,8,0,0,88,90,61
43453,0,2,0,0,0,0,0,0,0,0,0,0,0,0,0,0,-1,6,-6,7,0,0,88,90,61
43554,0,2,0,0,0,0,0,0,0,0,0,0,0,0,0,0,-2,5,-5,7,1,0,88,90,61
43655,0,2,0,0,0,0,0,0,0,0,0,0,0,0,0,0,-2,5,-3,7,1,0,89,90,61
43756,0,2,0,0,0,0,0,0,0,0,0,0,0,0,0,0,-2,4,-2,7,1,0,84,90,61
43856,0,2,0,0,0,0,0,0,0,0,0,0,0,0,0,0,-2,4,-3,7,0,0,85,90,61
43957,0,2,0,0,0,0,0,0,0,0,0,0,0,0,0,0,-3,5,-3,7,0,0,87,90,61
44058,0,2,0,0,0,0,0,0,0,0,0,0,0,0,0,0,-3,5,-5,6,0,0,87,90,61
44159,0,2,0,0,0,0,0,0,0,0,0,0,0,0,0,0,-4,5,-6,6,0,0,88,90,61
44266,0,2,0,0,0,0,0,0,0,0,0,0,0,0,0,0,-4,5,-6,6,0,0,88,90,61
44367,0,2,0,0,0,0,0,0,0,0,0,0,0,0,0,0,-3,4,-8,5,0,0,88,90,61
44467,0,2,0,0,0,0,0,0,0,0,0,0,0,0,0,0,-3,4,-9,4,0,0,88,90,61
44568,0,2,0,0,0,0,0,0,0,0,0,0,0,0,0,0,-2,4,-23,3,0,0,87,90,61
44669,0,2,0,0,0,0,0,0,0,0,0,0,0,0,0,0,-2,4,-23,3,0,0,87,90,61
44769,0,2,0,0,0,0,0,0,0,0,0,0,0,0,0,0,-3,3,-32,2,0,0,87,90,62
44870,0,2,0,0,0,0,0,0,0,0,0,0,0,0,0,0,-4,2,-41,2,0,0,88,90,62
44971,0,2,0,0,0,0,0,0,0,0,0,0,0,0,0,0,-4,2,-62,1,0,0,88,90,62
45072,0,2,0,0,0,0,0,0,0,0,0,0,0,0,0,0,-4,2,-70,1,0,0,88,90,62
45173,0,2,0,0,0,0,0,0,0,0,0,0,0,0,0,0,-4,2,-77,0,0,0,88,90,62
45273,0,2,0,0,0,0,0,0,0,0,0,0,0,0,0,0,-5,3,-81,0,0,0,87,90,62
45374,0,2,0,0,0,0,0,0,0,0,0,0,0,0,0,0,-5,4,-81,0,-1,0,87,90,62
45474,0,2,0,0,0,0,0,0,0,0,0,0,0,0,0,0,-6,4,-82,0,-3,0,86,90,62
45575,0,2,0,0,0,0,0,0,0,0,0,0,0,0,0,0,-6,4,-83,0,-4,0,86,90,62
45676,0,2,0,0,0,0,0,0,0,0,0,0,0,0,0,0,-6,4,-83,0,-4,0,86,90,62
45776,0,2,0,0,0,0,0,0,0,0,0,0,0,0,0,0,-5,5,-84,0,-5,0,86,90,62
45877,0,2,0,0,0,0,0,0,0,0,0,0,0,0,0,0,-5,4,-87,0,-6,0,85,90,62
45977,0,2,0,0,0,0,0,0,0,0,0,0,0,0,0,0,-5,4,-88,0,-7,0,85,90,62
46078,0,2,0,0,0,0,0,0,0,0,0,0,0,0,0,0,-5,4,-89,0,-7,0,85,90,62
46179,0,2,0,0,0,0,0,0,0,0,0,0,0,0,0,0,-5,4,-92,0,-8,0,85,90,62
46279,0,2,0,0,0,0,0,0,0,0,0,0,0,0,0,0,-6,4,-93,-1,-8,0,85,90,62
46380,0,2,0,0,0,0,0,0,0,0,0,0,0,0,0,0,-6,4,-92,0,-8,0,85,90,62
46481,0,2,0,0,0,0,0,0,0,0,0,0,0,0,0,0,-5,4,-93,0,-8,0,86,90,62
46582,0,2,0,0,0,0,0,0,0,0,0,0,0,0,0,0,-5,4,-94,0,-8,0,86,90,62
46683,0,2,0,0,0,0,0,0,0,0,0,0,0,0,0,0,-5,4,-94,0,-8,0,85,90,62
46794,0,2,0,0,0,0,0,0,0,0,0,0,0,0,0,0,-5,4,-94,0,-7,0,84,90,61
46895,0,2,0,0,0,0,0,0,0,0,0,0,0,0,0,0,-4,5,-95,0,-7,0,83,89,61
46997,0,2,0,0,0,0,0,0,0,0,0,0,0,0,0,0,-5,5,-95,0,-7,0,83,89,61
47098,0,2,0,0,0,0,0,0,0,0,0,0,0,0,0,0,-4,5,-96,0,-7,0,84,89,61
47199,0,2,0,0,0,0,0,0,0,0,0,0,0,0,0,0,-4,6,-96,0,-6,0,84,89,61
47302,0,2,0,0,0,0,0,0,0,0,0,0,0,0,0,0,-3,6,-96,0,-7,0,84,89,61
47403,0,2,0,0,0,0,0,0,0,0,0,0,0,0,0,0,-2,5,-96,0,-7,0,85,89,61
47504,0,2,0,0,0,0,0,0,0,0,0,0,0,0,0,0,-2,4,-94,0,-6,0,85,89,61
47605,0,2,0,0,0,0,0,0,0,0,0,0,0,0,0,0,-2,4,-94,0,-5,0,85,89,61
47707,0,2,0,0,0,0,0,0,0,0,0,0,0,0,0,0,-3,3,-95,0,-4,0,86,89,62
47808,0,2,0,0,0,0,0,0,0,0,0,0,0,0,0,0,-3,3,-97,0,-3,0,85,89,62
47909,0,2,0,0,0,0,0,0,0,0,0,0,0,0,0,0,-4,3,-99,0,-2,0,85,89,62
48009,0,2,0,0,0,0,0,0,0,0,0,0,0,0,0,0,-5,3,-102,0,-2,0,86,89,62
48110,0,2,0,0,0,0,0,0,0,0,0,0,0,0,0,0,-6,2,-108,0,-2,0,86,89,62
48211,0,2,0,0,0,0,0,0,0,0,0,0,0,0,0,0,-5,2,-122,-1,-1,0,85,89,62
48312,0,2,0,0,0,0,0,0,0,0,0,0,0,0,0,0,-4,2,-138,-1,-1,0,85,89,62
48413,0,2,0,0,0,0,0,0,0,0,0,0,0,0,0,0,-5,2,-151,-1,0,0,85,89,62
48514,0,2,0,0,0,0,0,0,0,0,0,0,0,0,0,0,-6,2,-161,-1,0,0,85,89,62
48616,0,2,0,0,0,0,0,0,0,0,0,0,0,0,0,0,-7,3,-162,-1,-1,0,84,89,62
48717,0,2,0,0,0,0,0,0,0,0,0,0,0,0,0,0,-8,3,-161,-2,-1,0,85,89,62
48817,0,2,0,0,0,0,0,0,0,0,0,0,0,0,0,0,-9,3,-161,-3,0,0,85,89,62
48918,0,2,0,0,0,0,0,0,0,0,0,0,0,0,0,0,-8,4,-165,-4,0,0,85,89,62
49019,0,2,0,0,0,0,0,0,0,0,0,0,0,0,0,0,-9,4,-166,-5,0,0,85,89,62
49119,0,2,0,0,0,0,0,0,0,0,0,0,0,0,0,0,-9,4,-168,-6,0,0,85,89,62
49221,0,2,0,0,0,0,0,0,0,0,0,0,0,0,0,0,-9,5,-171,-6,0,0,85,89,62
49321,0,2,0,0,0,0,0,0,0,0,0,0,0,0,0,0,-8,4,-173,-7,0,0,85,89,62
49422,0,2,0,0,0,0,0,0,0,0,0,0,0,0,0,0,-8,4,-173,-7,0,0,85,89,62
49522,0,2,0,0,0,0,0,0,0,0,0,0,0,0,0,0,-6,5,-175,-8,0,0,85,89,62
49623,0,2,0,0,0,0,0,0,0,0,0,0,0,0,0,0,-7,5,-177,-8,0,0,85,89,62
49723,0,2,0,0,0,0,0,0,0,0,0,0,0,0,0,0,-5,5,-178,-8,0,0,86,89,62
49824,0,2,0,0,0,0,0,0,0,0,0,0,0,0,0,0,-5,5,179,-8,0,0,86,89,62
49925,0,2,0,0,0,0,0,0,0,0,0,0,0,0,0,0,-4,4,178,-8,0,0,86,89,62
50027,0,2,0,0,0,0,0,0,0,0,0,0,0,0,0,0,-2,5,176,-8,0,0,83,89,62
50128,0,2,0,0,0,0,0,0,0,0,0,0,0,0,0,0,-1,5,174,-8,-1,0,83,89,62
50230,0,2,0,0,0,0,0,0,0,0,0,0,0,0,0,0,0,6,173,-8,0,0,86,89,62
50336,0,2,0,0,0,0,0,0,0,0,0,0,0,0,0,0,0,7,171,-8,-1,0,87,89,62
50437,0,2,0,0,0,0,0,0,0,0,0,0,0,0,0,0,0,7,169,-7,-1,0,87,89,62
50538,0,2,0,0,0,0,0,0,0,0,0,0,0,0,0,0,0,6,169,-7,0,0,88,89,62
50639,0,2,0,0,0,0,0,0,0,0,0,0,0,0,0,0,0,6,168,-7,0,0,88,89,62
50739,0,2,0,0,0,0,0,0,0,0,0,0,0,0,0,0,0,6,168,-7,0,0,87,89,62
50840,0,2,0,0,0,0,0,0,0,0,0,0,0,0,0,0,0,5,168,-7,0,0,87,89,62
50940,0,2,0,0,0,0,0,0,0,0,0,0,0,0,0,0,0,5,169,-8,0,0,87,89,62
51041,0,2,0,0,0,0,0,0,0,0,0,0,0,0,0,0,0,6,170,-8,1,0,88,89,62
51142,0,2,0,0,0,0,0,0,0,0,0,0,0,0,0,0,0,6,170,-7,0,0,88,89,62
51243,0,2,0,0,0,0,0,0,0,0,0,0,0,0,0,0,-1,6,170,-7,0,0,89,89,62
51344,0,2,0,0,0,0,0,0,0,0,0,0,0,0,0,0,0,5,170,-7,0,0,89,89,62
51444,0,2,0,0,0,0,0,0,0,0,0,0,0,0,0,0,0,5,170,-7,0,0,88,89,62
51545,0,2,0,0,0,0,0,0,0,0,0,0,0,0,0,0,0,5,170,-7,0,0,85,89,62
51645,0,2,0,0,0,0,0,0,0,0,0,0,0,0,0,0,0,5,171,-7,-1,0,85,89,62
51746,0,2,0,0,0,0,0,0,0,0,0,0,0,0,0,0,-1,6,171,-7,-1,0,85,89,63
51847,0,2,0,0,0,0,0,0,0,0,0,0,0,0,0,0,-2,6,171,-6,-1,0,86,89,63
51947,0,2,0,0,0,0,0,0,0,0,0,0,0,0,0,0,-2,6,172,-6,0,0,87,89,63
52048,0,2,0,0,0,0,0,0,0,0,0,0,0,0,0,0,-2,6,172,-5,0,0,87,89,63
52149,0,2,0,0,0,0,0,0,0,0,0,0,0,0,0,0,-2,6,172,-4,0,0,87,89,63
52249,0,2,0,0,0,0,0,0,0,0,0,0,0,0,0,0,-2,5,172,-4,0,0,88,89,63
52350,0,2,0,0,0,0,0,0,0,0,0,0,0,0,0,0,-2,4,173,-3,0,0,87,89,63
52452,0,2,0,0,0,0,0,0,0,0,0,0,0,0,0,0,-2,4,174,-2,0,0,87,89,63
52556,0,2,0,0,0,0,0,0,0,0,0,0,0,0,0,0,-2,3,175,-2,0,0,88,89,63
52656,0,2,0,0,0,0,0,0,0,0,0,0,0,0,0,0,-3,3,174,-1,0,0,88,89,63
52757,0,2,0,0,0,0,0,0,0,0,0,0,0,0,0,0,-3,2,172,-1,0,0,87,89,62
52858,0,2,0,0,0,0,0,0,0,0,0,0,0,0,0,0,-3,2,165,-1,0,0,87,89,62
52959,0,2,0,0,0,0,0,0,0,0,0,0,0,0,0,0,-3,2,153,-1,0,0,87,89,62
53059,0,2,0,0,0,0,0,0,0,0,0,0,0,0,0,0,-3,0,139,-1,0,0,87,89,62
53160,0,2,0,0,0,0,0,0,0,0,0,0,0,0,0,0,-3,0,139,-1,0,0,87,89,62
53261,0,2,0,0,0,0,0,0,0,0,0,0,0,0,0,0,-3,0,139,-1,0,0,87,89,62
53363,0,2,0,0,0,0,0,0,0,0,0,0,0,0,0,0,-4,0,106,-1,0,0,87,89,62
53464,0,2,0,0,0,0,0,0,0,0,0,0,0,0,0,0,-5,0,105,-1,0,0,86,89,62
53564,0,2,0,0,0,0,0,0,0,0,0,0,0,0,0,0,-5,0,104,-1,1,0,86,89,62
53665,0,2,0,0,0,0,0,0,0,0,0,0,0,0,0,0,-6,1,105,0,2,0,86,89,62
53765,0,2,0,0,0,0,0,0,0,0,0,0,0,0,0,0,-6,2,103,-1,3,0,86,89,63
53866,0,2,0,0,0,0,0,0,0,0,0,0,0,0,0,0,-6,3,100,-1,4,0,86,89,63
53967,0,2,0,0,0,0,0,0,0,0,0,0,0,0,0,0,-6,3,99,0,5,0,87,89,63
54072,0,2,0,0,0,0,0,0,0,0,0,0,0,0,0,0,-6,3,97,0,5,0,87,89,63
54173,0,2,0,0,0,0,0,0,0,0,0,0,0,0,0,0,-5,4,94,-1,5,0,87,89,63
54273,0,2,0,0,0,0,0,0,0,0,0,0,0,0,0,0,-5,4,93,-1,6,0,86,89,63
54374,0,2,0,0,0,0,0,0,0,0,0,0,0,0,0,0,-6,4,91,-1,6,0,87,89,63
54475,0,2,0,0,0,0,0,0,0,0,0,0,0,0,0,0,-6,4,90,-1,6,0,87,89,63
54575,0,2,0,0,0,0,0,0,0,0,0,0,0,0,0,0,-6,3,89,-1,6,0,87,89,63
54676,0,2,0,0,0,0,0,0,0,0,0,0,0,0,0,0,-6,3,88,0,6,0,88,89,63
54777,0,2,0,0,0,0,0,0,0,0,0,0,0,0,0,0,-5,3,87,0,6,0,85,89,63
54878,0,2,0,0,0,0,0,0,0,0,0,0,0,0,0,0,-5,3,86,-1,6,0,78,89,63
54978,0,2,0,0,0,0,0,0,0,0,0,0,0,0,0,0,-4,4,85,-1,6,0,77,89,63
55079,0,2,0,0,0,0,0,0,0,0,0,0,0,0,0,0,-4,5,84,-1,6,0,83,89,63
55180,0,2,0,0,0,0,0,0,0,0,0,0,0,0,0,0,-4,6,82,-1,6,0,85,89,63
55280,0,2,0,0,0,0,0,0,0,0,0,0,0,0,0,0,-3,6,79,-1,7,0,87,89,63
55382,0,2,0,0,0,0,0,0,0,0,0,0,0,0,0,0,-3,5,78,-1,6,0,88,89,63
55483,0,2,0,0,0,0,0,0,0,0,0,0,0,0,0,0,-1,6,78,0,6,0,88,89,63
55584,0,2,0,0,0,0,0,0,0,0,0,0,0,0,0,0,-1,6,77,0,6,0,87,89,63
55685,0,2,0,0,0,0,0,0,0,0,0,0,0,0,0,0,0,5,77,0,6,0,87,89,63
55786,0,2,0,0,0,0,0,0,0,0,0,0,0,0,0,0,0,5,78,0,6,0,87,89,63
55887,0,2,0,0,0,0,0,0,0,0,0,0,0,0,0,0,0,5,78,0,6,0,87,89,63
55988,0,2,0,0,0,0,0,0,0,0,0,0,0,0,0,0,-1,6,79,0,5,0,87,89,63
56088,0,2,0,0,0,0,0,0,0,0,0,0,0,0,0,0,-1,6,78,0,5,0,88,89,63
56189,0,2,0,0,0,0,0,0,0,0,0,0,0,0,0,0,-1,6,78,0,5,0,87,89,63
56296,0,2,0,0,0,0,0,0,0,0,0,0,0,0,0,0,-1,6,78,0,4,0,86,89,63
56396,0,2,0,0,0,0,0,0,0,0,0,0,0,0,0,0,-2,6,77,0,4,0,85,89,63
56498,0,2,0,0,0,0,0,0,0,0,0,0,0,0,0,0,-2,6,73,0,3,0,85,89,63
56598,0,2,0,0,0,0,0,0,0,0,0,0,0,0,0,0,-2,5,65,0,3,0,86,89,63
56699,0,2,0,0,0,0,0,0,0,0,0,0,0,0,0,0,-1,5,51,0,1,0,86,89,63
56800,0,2,0,0,0,0,0,0,0,0,0,0,0,0,0,0,-1,4,37,0,0,0,86,89,62
56901,0,2,0,0,0,0,0,0,0,0,0,0,0,0,0,0,-1,1,28,0,1,0,87,89,62
57002,0,2,0,0,0,0,0,0,0,0,0,0,0,0,0,0,-1,0,20,0,0,0,87,89,62
57104,0,2,0,0,0,0,0,0,0,0,0,0,0,0,0,0,-1,0,13,0,0,0,87,89,62
57205,0,2,0,0,0,0,0,0,0,0,0,0,0,0,0,0,-1,0,7,0,0,0,87,89,62
57305,0,2,0,0,0,0,0,0,0,0,0,0,0,0,0,0,-1,0,4,0,0,0,87,89,62
57406,0,2,0,0,0,0,0,0,0,0,0,0,0,0,0,0,-1,0,4,0,0,0,87,89,62
57507,0,2,0,0,0,0,0,0,0,0,0,0,0,0,0,0,-2,0,4,0,0,0,87,89,62
57608,0,2,0,0,0,0,0,0,0,0,0,0,0,0,0,0,-2,0,5,0,0,0,86,89,62
57708,0,2,0,0,0,0,0,0,0,0,0,0,0,0,0,0,-2,0,5,0,0,0,87,89,62
57809,0,3,0,0,0,0,0,0,0,0,0,0,0,0,0,0,-2,0,5,0,0,0,87,89,63
57910,0,3,0,0,0,0,0,0,0,0,0,0,0,0,0,0,-2,0,5,0,0,0,87,89,63
58011,0,3,0,0,0,0,0,0,0,0,0,0,0,0,0,0,-2,0,5,0,0,0,87,89,63
58112,0,3,0,0,0,0,0,0,0,0,0,0,0,0,0,0,-2,0,6,0,0,0,87,89,63
58212,0,3,0,0,0,0,0,0,0,0,0,0,0,0,0,0,-2,0,6,0,0,0,87,89,63
58313,0,3,0,0,0,0,0,0,0,0,0,0,0,0,0,0,-2,0,6,0,0,0,87,89,63
58414,0,3,0,0,0,0,0,0,0,0,0,0,0,0,0,0,-2,0,5,0,0,0,87,89,63
58515,0,3,0,0,0,0,0,0,0,0,0,0,0,0,0,0,-2,0,5,0,0,0,86,89,63
58616,0,3,0,0,0,0,0,0,0,0,0,0,0,0,0,0,-2,0,5,0,0,0,86,89,63
58717,0,3,0,0,0,0,0,0,0,0,0,0,0,0,0,0,-3,1,4,1,0,0,85,89,63
58818,0,3,0,0,0,0,0,0,0,0,0,0,0,0,0,0,-3,1,3,2,0,0,85,89,63
58919,0,3,0,0,0,0,0,0,0,0,0,0,0,0,0,0,-3,2,1,4,0,0,85,89,63
59019,0,3,0,0,0,0,0,0,0,0,0,0,0,0,0,0,-3,3,0,5,0,0,84,89,63
59121,0,3,0,0,0,0,0,0,0,0,0,0,0,0,0,0,-4,3,-1,6,0,0,83,89,63
59226,0,3,0,0,0,0,0,0,0,0,0,0,0,0,0,0,-4,3,-3,6,0,0,82,89,63
59326,0,3,0,0,0,0,0,0,0,0,0,0,0,0,0,0,-4,3,-4,7,0,0,82,89,63
59427,0,3,0,0,0,0,0,0,0,0,0,0,0,0,0,0,-4,4,-5,8,0,0,83,89,63
59528,0,3,0,0,0,0,0,0,0,0,0,0,0,0,0,0,-4,4,-5,9,0,-1,83,89,63
59629,0,3,0,0,0,0,0,0,0,0,0,0,0,0,0,0,-2,4,-3,8,0,0,84,89,63
59730,0,3,0,0,0,0,0,0,0,0,0,0,0,0,0,0,-3,5,-4,8,0,0,84,89,63
59831,0,3,0,0,0,0,0,0,0,0,0,0,0,0,0,0,-2,5,-4,8,0,0,78,89,63
59932,0,3,0,0,0,0,0,0,0,0,0,0,0,0,0,0,-2,6,-6,8,0,0,81,89,63
60032,0,3,0,0,0,0,0,0,0,0,0,0,0,0,0,0,-2,6,-8,8,0,0,83,89,63
60133,0,3,0,0,0,0,0,0,0,0,0,0,0,0,0,0,-1,6,-9,7,0,0,84,89,63
60234,0,3,0,0,0,0,0,0,0,0,0,0,0,0,0,0,-1,6,-10,7,0,0,84,89,63
60335,0,3,0,0,0,0,0,0,0,0,0,0,0,0,0,0,-1,6,-10,8,0,0,84,89,63
60441,0,3,0,0,0,0,0,0,0,0,0,0,0,0,0,0,0,5,-9,8,0,0,84,89,63
60542,0,3,0,0,0,0,0,0,0,0,0,0,0,0,0,0,0,5,-8,8,0,0,83,89,63
60642,0,3,0,0,0,0,0,0,0,0,0,0,0,0,0,0,-1,5,-6,8,0,-1,85,89,63
60743,0,3,0,0,0,0,0,0,0,0,0,0,0,0,0,0,-1,5,-6,8,0,-1,85,89,63
60844,0,3,0,0,0,0,0,0,0,0,0,0,0,0,0,0,0,5,-6,8,0,0,86,89,65
60944,0,3,0,0,0,0,0,0,0,0,0,0,0,0,0,0,0,4,-5,8,0,0,83,89,65
61045,0,3,0,0,0,0,0,0,0,0,0,0,0,0,0,0,0,4,-5,8,0,0,86,89,65
61146,0,3,0,0,0,0,0,0,0,0,0,0,0,0,0,0,0,4,-5,8,0,0,86,89,65
61247,0,3,0,0,0,0,0,0,0,0,0,0,0,0,0,0,-1,3,-7,7,0,0,86,89,65
61348,0,3,0,0,0,0,0,0,0,0,0,0,0,0,0,0,0,3,-7,7,0,0,87,89,65
61450,0,3,0,0,0,0,0,0,0,0,0,0,0,0,0,0,0,3,-7,7,0,0,87,89,65
61550,0,3,0,0,0,0,0,0,0,0,0,0,0,0,0,0,0,3,-7,7,0,0,87,89,65
61651,0,3,0,0,0,0,0,0,0,0,0,0,0,0,0,0,0,3,-5,5,0,0,87,89,65
61751,0,3,0,0,0,0,0,0,0,0,0,0,0,0,0,0,0,3,-5,5,0,0,87,89,65
61852,0,3,0,0,0,0,0,0,0,0,0,0,0,0,0,0,0,3,-4,4,0,0,88,89,64
61953,0,3,0,0,0,0,0,0,0,0,0,0,0,0,0,0,0,3,-4,4,0,0,88,89,64
62053,0,3,0,0,0,0,0,0,0,0,0,0,0,0,0,0,0,3,-4,4,0,0,88,89,64
62154,0,3,0,0,0,0,0,0,0,0,0,0,0,0,0,0,0,3,-5,3,0,0,87,89,64
62255,0,3,0,0,0,0,0,0,0,0,0,0,0,0,0,0,-1,3,-11,3,0,0,87,89,64
62356,0,3,0,0,0,0,0,0,0,0,0,0,0,0,0,0,-1,3,-22,2,0,0,85,89,64
62457,0,3,0,0,0,0,0,0,0,0,0,0,0,0,0,0,-1,1,-38,2,0,0,86,89,64
62559,0,3,0,0,0,0,0,0,0,0,0,0,0,0,0,0,-2,0,-53,1,0,0,86,89,64
62660,0,3,0,0,0,0,0,0,0,0,0,0,0,0,0,0,-3,0,-64,1,0,0,86,89,64
62761,0,3,0,0,0,0,0,0,0,0,0,0,0,0,0,0,-4,0,-72,1,0,0,86,89,64
62861,0,3,0,0,0,0,0,0,0,0,0,0,0,0,0,0,-5,0,-72,1,-1,0,86,89,64
62962,0,3,0,0,0,0,0,0,0,0,0,0,0,0,0,0,-5,1,-74,1,-3,0,86,89,64
63063,0,3,0,0,0,0,0,0,0,0,0,0,0,0,0,0,-6,2,-76,0,-4,0,86,89,64
63163,0,3,0,0,0,0,0,0,0,0,0,0,0,0,0,0,-7,3,-78,0,-5,0,85,89,64
63267,0,3,0,0,0,0,0,0,0,0,0,0,0,0,0,0,-7,4,-81,0,-6,0,85,89,64
63367,0,3,0,0,0,0,0,0,0,0,0,0,0,0,0,0,-6,4,-84,0,-7,0,85,89,64
63468,0,3,0,0,0,0,0,0,0,0,0,0,0,0,0,0,-6,4,-86,0,-8,0,85,89,64
63569,0,3,0,0,0,0,0,0,0,0,0,0,0,0,0,0,-6,4,-87,0,-8,0,85,89,64
63670,0,3,0,0,0,0,0,0,0,0,0,0,0,0,0,0,-6,3,-88,0,-8,0,85,89,64
63770,0,3,0,0,0,0,0,0,0,0,0,0,0,0,0,0,-6,4,-88,0,-8,0,84,89,64
63876,0,3,0,0,0,0,0,0,0,0,0,0,0,0,0,0,-5,4,-89,0,-8,0,85,89,65
63976,0,3,0,0,0,0,0,0,0,0,0,0,0,0,0,0,-5,3,-89,0,-8,0,85,89,65
64077,0,3,0,0,0,0,0,0,0,0,0,0,0,0,0,0,-4,3,-91,0,-7,0,85,89,65
64178,0,3,0,0,0,0,0,0,0,0,0,0,0,0,0,0,-4,3,-92,0,-7,0,84,89,65
64279,0,3,0,0,0,0,0,0,0,0,0,0,0,0,0,0,-5,3,-91,0,-7,0,84,89,65
64380,0,3,0,0,0,0,0,0,0,0,0,0,0,0,0,0,-5,5,-92,0,-7,0,84,89,65
64481,0,3,0,0,0,0,0,0,0,0,0,0,0,0,0,0,-5,5,-93,0,-7,0,84,89,65
64582,0,3,0,0,0,0,0,0,0,0,0,0,0,0,0,0,-4,5,-93,0,-7,0,85,89,65
64683,0,3,0,0,0,0,0,0,0,0,0,0,0,0,0,0,-4,5,-93,0,-7,0,85,89,65
64784,0,3,0,0,0,0,0,0,0,0,0,0,0,0,0,0,-3,5,-94,0,-6,0,84,89,65
64887,0,3,0,0,0,0,0,0,0,0,0,0,0,0,0,0,-3,4,-94,0,-6,0,84,89,65
64992,0,3,0,0,0,0,0,0,0,0,0,0,0,0,0,0,-1,4,-93,0,-5,0,85,89,65
65096,0,3,0,0,0,0,0,0,0,0,0,0,0,0,0,0,-2,4,-94,0,-4,0,85,89,65
65197,0,3,0,0,0,0,0,0,0,0,0,0,0,0,0,0,-2,4,-95,0,-4,0,86,89,65
65298,0,3,0,0,0,0,0,0,0,0,0,0,0,0,0,0,-2,3,-98,0,-4,0,85,89,65
65399,0,3,0,0,0,0,0,0,0,0,0,0,0,0,0,0,-2,3,-105,0,-3,0,85,89,65
65499,0,3,0,0,0,0,0,0,0,0,0,0,0,0,0,0,-2,2,-118,0,-2,0,85,89,65
65600,0,3,0,0,0,0,0,0,0,0,0,0,0,0,0,0,-2,2,-133,0,-2,0,86,89,65
65701,0,3,0,0,0,0,0,0,0,0,0,0,0,0,0,0,-1,2,-145,0,-1,0,86,89,65
65802,0,3,0,0,0,0,0,0,0,0,0,0,0,0,0,0,0,1,-155,0,-2,0,86,89,64
65903,0,3,0,0,0,0,0,0,0,0,0,0,0,0,0,0,-2,1,-158,0,-1,0,85,89,64
66003,0,3,0,0,0,0,0,0,0,0,0,0,0,0,0,0,-4,2,-157,-1,-1,0,86,89,64
66104,0,3,0,0,0,0,0,0,0,0,0,0,0,0,0,0,-6,2,-158,-3,-1,0,85,89,64
66204,0,3,0,0,0,0,0,0,0,0,0,0,0,0,0,0,-6,3,-162,-4,-1,0,84,89,64
66305,0,3,0,0,0,0,0,0,0,0,0,0,0,0,0,0,-6,3,-162,-4,-1,0,84,89,64
66406,0,3,0,0,0,0,0,0,0,0,0,0,0,0,0,0,-7,3,-166,-6,0,0,85,89,64
66506,0,3,0,0,0,0,0,0,0,0,0,0,0,0,0,0,-6,4,-171,-7,0,0,85,89,64
66607,0,3,0,0,0,0,0,0,0,0,0,0,0,0,0,0,-5,4,-175,-8,0,0,85,89,64
66707,0,3,0,0,0,0,0,0,0,0,0,0,0,0,0,0,-4,4,-177,-8,0,0,85,89,64
66808,0,3,0,0,0,0,0,0,0,0,0,0,0,0,0,0,-5,3,-179,-8,0,0,85,89,65
66908,0,3,0,0,0,0,0,0,0,0,0,0,0,0,0,0,-5,4,178,-8,0,0,86,89,65
67009,0,3,0,0,0,0,0,0,0,0,0,0,0,0,0,0,-4,4,176,-8,0,0,86,89,65
67110,0,3,0,0,0,0,0,0,0,0,0,0,0,0,0,0,-4,4,174,-7,0,0,86,89,65
67211,0,3,0,0,0,0,0,0,0,0,0,0,0,0,0,0,-4,4,173,-8,0,0,83,89,65
67311,0,3,0,0,0,0,0,0,0,0,0,0,0,0,0,0,-4,4,173,-8,0,0,83,89,65
67412,0,3,0,0,0,0,0,0,0,0,0,0,0,0,0,0,-2,5,171,-7,0,0,83,89,65
67513,0,3,0,0,0,0,0,0,0,0,0,0,0,0,0,0,-1,7,166,-7,0,0,86,89,65
67613,0,3,0,0,0,0,0,0,0,0,0,0,0,0,0,0,-1,7,166,-7,0,0,86,89,65
67714,0,3,0,0,0,0,0,0,0,0,0,0,0,0,0,0,0,6,164,-6,0,0,87,89,65
67814,0,3,0,0,0,0,0,0,0,0,0,0,0,0,0,0,0,6,164,-6,0,0,87,89,65
67915,0,3,0,0,0,0,0,0,0,0,0,0,0,0,0,0,0,5,165,-7,0,0,86,89,64
68015,0,3,0,0,0,0,0,0,0,0,0,0,0,0,0,0,0,5,166,-7,0,0,86,89,64
68116,0,3,0,0,0,0,0,0,0,0,0,0,0,0,0,0,1,5,167,-8,0,0,87,89,64
68216,0,3,0,0,0,0,0,0,0,0,0,0,0,0,0,0,0,4,168,-7,1,0,87,89,64
68317,0,3,0,0,0,0,0,0,0,0,0,0,0,0,0,0,0,4,168,-7,1,-1,88,89,64
68418,0,3,0,0,0,0,0,0,0,0,0,0,0,0,0,0,0,4,169,-7,0,-1,89,89,64
68518,0,3,0,0,0,0,0,0,0,0,0,0,0,0,0,0,1,4,171,-6,0,0,90,89,64
68620,0,3,0,0,0,0,0,0,0,0,0,0,0,0,0,0,1,3,172,-7,0,0,90,89,64
68721,0,3,0,0,0,0,0,0,0,0,0,0,0,0,0,0,1,3,173,-7,0,0,87,89,64
68821,0,3,0,0,0,0,0,0,0,0,0,0,0,0,0,0,1,3,172,-7,0,0,83,89,64
68922,0,3,0,0,0,0,0,0,0,0,0,0,0,0,0,0,0,3,171,-7,0,0,85,89,64
69023,0,3,0,0,0,0,0,0,0,0,0,0,0,0,0,0,-1,3,171,-7,-1,0,86,89,64
69124,0,3,0,0,0,0,0,0,0,0,0,0,0,0,0,0,-1,3,171,-7,0,0,87,89,64
69224,0,3,0,0,0,0,0,0,0,0,0,0,0,0,0,0,-1,4,172,-5,0,0,87,89,64
69325,0,3,0,0,0,0,0,0,0,0,0,0,0,0,0,0,-1,3,172,-4,0,0,87,89,64
69426,0,3,0,0,0,0,0,0,0,0,0,0,0,0,0,0,-2,3,172,-3,0,0,87,89,64
69532,0,3,0,0,0,0,0,0,0,0,0,0,0,0,0,0,-3,2,172,-2,0,0,86,89,64
69632,0,3,0,0,0,0,0,0,0,0,0,0,0,0,0,0,-4,2,172,-2,0,0,86,89,64
69733,0,3,0,0,0,0,0,0,0,0,0,0,0,0,0,0,-4,1,173,-2,0,0,86,89,64
69834,0,3,0,0,0,0,0,0,0,0,0,0,0,0,0,0,-4,1,174,-2,0,0,86,89,65
69935,0,3,0,0,0,0,0,0,0,0,0,0,0,0,0,0,-4,1,174,-1,0,0,86,89,65
70036,0,3,0,0,0,0,0,0,0,0,0,0,0,0,0,0,-4,1,175,-1,0,0,86,89,65
70137,0,3,0,0,0,0,0,0,0,0,0,0,0,0,0,0,-4,0,171,-1,0,0,85,89,65
70237,0,3,0,0,0,0,0,0,0,0,0,0,0,0,0,0,-3,0,160,-1,0,0,85,89,65
70338,0,3,0,0,0,0,0,0,0,0,0,0,0,0,0,0,-3,0,160,-1,0,0,85,89,65
70440,0,3,0,0,0,0,0,0,0,0,0,0,0,0,0,0,-6,-1,125,-1,0,0,87,89,65
70541,0,3,0,0,0,0,0,0,0,0,0,0,0,0,0,0,-6,-1,125,-1,0,0,87,89,65
70641,0,3,0,0,0,0,0,0,0,0,0,0,0,0,0,0,-6,-2,114,-1,0,0,87,89,65
70742,0,3,0,0,0,0,0,0,0,0,0,0,0,0,0,0,-6,-2,106,-1,0,0,88,89,65
70843,0,3,0,0,0,0,0,0,0,0,0,0,0,0,0,0,-7,-1,103,-1,3,0,86,88,65
70944,0,3,0,0,0,0,0,0,0,0,0,0,0,0,0,0,-7,-1,103,-1,3,0,86,88,65
71045,0,3,0,0,0,0,0,0,0,0,0,0,0,0,0,0,-7,-1,103,0,4,0,85,88,65
71146,0,3,0,0,0,0,0,0,0,0,0,0,0,0,0,0,-7,0,100,0,6,0,85,88,65
71248,0,3,0,0,0,0,0,0,0,0,0,0,0,0,0,0,-4,0,94,0,7,0,85,88,65
71348,0,3,0,0,0,0,0,0,0,0,0,0,0,0,0,0,-3,0,92,0,8,0,86,88,65
71449,0,3,0,0,0,0,0,0,0,0,0,0,0,0,0,0,-3,0,91,0,8,0,86,88,65
71550,0,3,0,0,0,0,0,0,0,0,0,0,0,0,0,0,-2,0,89,0,8,0,86,88,65
71651,0,3,0,0,0,0,0,0,0,0,0,0,0,0,0,0,-2,1,87,0,7,0,87,88,65
71752,0,3,0,0,0,0,0,0,0,0,0,0,0,0,0,0,-2,1,86,0,7,0,87,88,65
71853,0,3,0,0,0,0,0,0,0,0,0,0,0,0,0,0,-1,1,86,0,7,0,85,88,66
71954,0,3,0,0,0,0,0,0,0,0,0,0,0,0,0,0,0,2,85,0,8,0,79,88,66
72054,0,3,0,0,0,0,0,0,0,0,0,0,0,0,0,0,0,2,84,-1,8,0,81,88,66
72156,0,3,0,0,0,0,0,0,0,0,0,0,0,0,0,0,0,3,83,0,8,0,86,88,66
72256,0,3,0,0,0,0,0,0,0,0,0,0,0,0,0,0,0,4,81,0,8,0,88,88,66
72357,0,3,0,0,0,0,0,0,0,0,0,0,0,0,0,0,0,4,80,0,8,0,89,88,66
72458,0,3,0,0,0,0,0,0,0,0,0,0,0,0,0,0,1,5,81,0,7,0,89,88,66
72558,0,3,0,0,0,0,0,0,0,0,0,0,0,0,0,0,1,5,81,0,7,0,89,88,66
72659,0,3,0,0,0,0,0,0,0,0,0,0,0,0,0,0,1,4,80,0,6,0,89,88,66
72760,0,3,0,0,0,0,0,0,0,0,0,0,0,0,0,0,0,4,81,0,6,1,88,88,66
72860,0,3,0,0,0,0,0,0,0,0,0,0,0,0,0,0,0,4,81,0,6,1,87,88,66
72961,0,3,0,0,0,0,0,0,0,0,0,0,0,0,0,0,0,4,81,1,5,0,87,88,66
73062,0,3,0,0,0,0,0,0,0,0,0,0,0,0,0,0,0,4,80,0,5,0,88,88,66
73163,0,3,0,0,0,0,0,0,0,0,0,0,0,0,0,0,0,4,79,0,4,0,87,88,66
73264,0,3,0,0,0,0,0,0,0,0,0,0,0,0,0,0,-1,3,78,0,3,0,87,88,66
73365,0,3,0,0,0,0,0,0,0,0,0,0,0,0,0,0,0,3,74,0,3,0,86,88,66
73466,0,3,0,0,0,0,0,0,0,0,0,0,0,0,0,0,-1,3,66,0,2,0,86,88,66
73567,0,3,0,0,0,0,0,0,0,0,0,0,0,0,0,0,0,3,53,0,2,0,86,88,66
73668,0,3,0,0,0,0,0,0,0,0,0,0,0,0,0,0,0,2,42,0,1,0,86,88,66
73773,0,3,0,0,0,0,0,0,0,0,0,0,0,0,0,0,-1,2,32,0,1,0,86,88,66
73874,0,3,0,0,0,0,0,0,0,0,0,0,0,0,0,0,-1,1,21,0,1,0,87,88,66
73974,0,3,0,0,0,0,0,0,0,0,0,0,0,0,0,0,-2,0,15,0,0,0,88,88,66
74076,0,3,0,0,0,0,0,0,0,0,0,0,0,0,0,0,-2,0,8,1,0,0,88,88,66
74177,0,3,0,0,0,0,0,0,0,0,0,0,0,0,0,0,-2,0,3,1,0,0,87,88,66
74277,0,3,0,0,0,0,0,0,0,0,0,0,0,0,0,0,-3,0,2,1,0,0,87,88,66
74378,0,3,0,0,0,0,0,0,0,0,0,0,0,0,0,0,-3,0,1,1,0,0,88,88,66
74479,0,3,0,0,0,0,0,0,0,0,0,0,0,0,0,0,-3,0,1,1,0,0,87,88,66
74579,0,4,0,0,0,0,0,0,0,0,0,0,0,0,0,0,-3,0,1,0,0,0,87,88,66
74680,0,4,0,0,0,0,0,0,0,0,0,0,0,0,0,0,-3,0,1,0,0,0,88,88,66
74781,0,4,0,0,0,0,0,0,0,0,0,0,0,0,0,0,-3,0,1,0,0,0,88,88,66
74882,0,5,0,0,0,0,0,0,0,0,0,0,0,0,0,0,-3,0,2,0,0,0,88,88,66
74983,0,5,0,0,0,0,0,0,0,0,0,0,0,0,0,0,-2,0,2,0,0,0,88,88,66
75084,0,5,0,0,0,0,0,0,0,0,0,0,0,0,0,0,-2,0,3,0,0,0,87,88,66
75185,0,5,0,0,0,0,0,0,0,0,0,0,0,0,0,0,-2,0,3,0,0,0,87,88,66
75285,0,5,0,0,0,0,0,0,0,0,0,0,0,0,0,0,-2,0,3,0,0,0,88,88,66
75386,0,5,0,0,0,0,0,0,0,0,0,0,0,0,0,0,-2,0,3,0,0,0,87,88,66
75486,0,5,0,0,0,0,0,0,0,0,0,0,0,0,0,0,-2,0,3,0,0,0,87,88,66
75587,0,5,0,0,0,0,0,0,0,0,0,0,0,0,0,0,-2,0,3,0,0,0,87,88,66
75688,0,5,0,0,0,0,0,0,0,0,0,0,0,0,0,0,-2,0,3,0,0,0,87,88,66
75788,0,5,0,0,0,0,0,0,0,0,0,0,0,0,0,0,-2,0,3,0,0,0,87,88,66
75889,0,5,0,0,0,0,0,0,0,0,0,0,0,0,0,0,-3,1,3,0,0,0,86,88,66
75989,0,5,0,0,0,0,0,0,0,0,0,0,0,0,0,0,-3,1,2,1,0,0,86,88,66
76090,0,5,0,0,0,0,0,0,0,0,0,0,0,0,0,0,-3,2,2,3,0,0,85,88,66
76190,0,5,0,0,0,0,0,0,0,0,0,0,0,0,0,0,-2,3,2,4,0,0,84,88,66
76291,0,5,0,0,0,0,0,0,0,0,0,0,0,0,0,0,-2,4,0,5,0,1,83,88,66
76398,0,5,0,0,0,0,0,0,0,0,0,0,0,0,0,0,-2,4,-1,7,0,0,82,88,66
76499,0,5,0,0,0,0,0,0,0,0,0,0,0,0,0,0,-2,4,-2,8,0,0,82,88,66
76600,0,5,0,0,0,0,0,0,0,0,0,0,0,0,0,0,-2,3,-2,9,0,0,82,88,66
76700,0,5,0,0,0,0,0,0,0,0,0,0,0,0,0,0,-1,2,-1,9,0,0,83,88,66
76801,0,5,0,0,0,0,0,0,0,0,0,0,0,0,0,0,-2,2,-3,9,0,0,84,88,66
76901,0,5,0,0,0,0,0,0,0,0,0,0,0,0,0,0,-2,2,-3,10,0,-1,85,88,66
77002,0,5,0,0,0,0,0,0,0,0,0,0,0,0,0,0,-2,2,-3,9,0,0,86,88,66
77103,0,5,0,0,0,0,0,0,0,0,0,0,0,0,0,0,-1,2,-4,10,0,0,86,88,66
77203,0,5,0,0,0,0,0,0,0,0,0,0,0,0,0,0,-1,2,-4,10,0,0,86,88,66
77304,0,5,0,0,0,0,0,0,0,0,0,0,0,0,0,0,0,2,-4,10,0,0,86,88,66
77405,0,5,0,0,0,0,0,0,0,0,0,0,0,0,0,0,-1,3,-5,9,0,0,87,88,66
77506,0,5,0,0,0,0,0,0,0,0,0,0,0,0,0,0,-1,3,-5,10,0,0,87,88,66
77607,0,5,0,0,0,0,0,0,0,0,0,0,0,0,0,0,-1,3,-6,9,0,-1,88,88,66
77708,0,5,0,0,0,0,0,0,0,0,0,0,0,0,0,0,0,3,-7,10,0,0,88,88,66
77809,0,5,0,0,0,0,0,0,0,0,0,0,0,0,0,0,0,3,-7,10,0,0,88,88,66
77909,0,5,0,0,0,0,0,0,0,0,0,0,0,0,0,0,0,2,-8,10,-1,0,88,88,66
78010,0,5,0,0,0,0,0,0,0,0,0,0,0,0,0,0,0,2,-7,9,0,0,88,88,66
78110,0,5,0,0,0,0,0,0,0,0,0,0,0,0,0,0,0,2,-7,10,0,0,88,88,66
78211,0,5,0,0,0,0,0,0,0,0,0,0,0,0,0,0,0,3,-6,9,0,-1,90,88,66
78312,0,5,0,0,0,0,0,0,0,0,0,0,0,0,0,0,1,2,-5,9,0,0,88,88,66
78413,0,5,0,0,0,0,0,0,0,0,0,0,0,0,0,0,1,2,-5,9,0,0,89,88,66
78514,0,5,0,0,0,0,0,0,0,0,0,0,0,0,0,0,2,2,-6,9,0,0,90,88,66
78615,0,5,0,0,0,0,0,0,0,0,0,0,0,0,0,0,1,3,-6,8,0,0,90,88,66
78716,0,5,0,0,0,0,0,0,0,0,0,0,0,0,0,0,0,2,-7,7,0,0,90,88,66
78816,0,5,0,0,0,0,0,0,0,0,0,0,0,0,0,0,0,2,-7,7,-1,0,90,88,66
78917,0,5,0,0,0,0,0,0,0,0,0,0,0,0,0,0,0,0,-8,6,-1,0,90,88,67
79018,0,5,0,0,0,0,0,0,0,0,0,0,0,0,0,0,1,0,-9,5,-1,0,89,88,67
79119,0,5,0,0,0,0,0,0,0,0,0,0,0,0,0,0,0,0,-13,4,-1,0,90,88,67
79220,0,5,0,0,0,0,0,0,0,0,0,0,0,0,0,0,0,0,-23,3,0,0,89,88,67
79321,0,5,0,0,0,0,0,0,0,0,0,0,0,0,0,0,0,0,-36,3,0,0,89,88,67
79422,0,5,0,0,0,0,0,0,0,0,0,0,0,0,0,0,-1,0,-53,2,0,0,89,88,67
79523,0,5,0,0,0,0,0,0,0,0,0,0,0,0,0,0,-3,0,-65,1,0,0,89,88,67
79624,0,5,0,0,0,0,0,0,0,0,0,0,0,0,0,0,-5,0,-70,2,0,0,90,88,67
79725,0,5,0,0,0,0,0,0,0,0,0,0,0,0,0,0,-6,1,-74,1,-1,0,89,88,67
79825,0,5,0,0,0,0,0,0,0,0,0,0,0,0,0,0,-6,1,-75,1,-3,0,89,88,67
79927,0,5,0,0,0,0,0,0,0,0,0,0,0,0,0,0,-6,2,-76,1,-5,0,87,88,66
80028,0,5,0,0,0,0,0,0,0,0,0,0,0,0,0,0,-6,3,-79,0,-6,0,86,88,66
80128,0,5,0,0,0,0,0,0,0,0,0,0,0,0,0,0,-5,3,-81,0,-7,0,86,88,66
80229,0,5,0,0,0,0,0,0,0,0,0,0,0,0,0,0,-4,3,-83,0,-7,0,86,88,66
80330,0,5,0,0,0,0,0,0,0,0,0,0,0,0,0,0,-4,2,-85,0,-8,0,86,88,66
80431,0,5,0,0,0,0,0,0,0,0,0,0,0,0,0,0,-3,2,-87,0,-8,0,86,88,66
80531,0,5,0,0,0,0,0,0,0,0,0,0,0,0,0,0,-3,1,-88,0,-9,0,86,88,66
80632,0,5,0,0,0,0,0,0,0,0,0,0,0,0,0,0,-3,2,-88,0,-9,0,86,88,66
80733,0,5,0,0,0,0,0,0,0,0,0,0,0,0,0,0,-3,2,-87,-1,-9,0,85,88,66
80833,0,5,0,0,0,0,0,0,0,0,0,0,0,0,0,0,-2,3,-87,-1,-9,0,86,88,66
80934,0,5,0,0,0,0,0,0,0,0,0,0,0,0,0,0,-1,2,-88,0,-9,0,86,88,66
81036,0,5,0,0,0,0,0,0,0,0,0,0,0,0,0,0,-1,2,-89,0,-9,0,87,88,66
81137,0,5,0,0,0,0,0,0,0,0,0,0,0,0,0,0,-1,3,-90,0,-8,0,86,88,66
81239,0,5,0,0,0,0,0,0,0,0,0,0,0,0,0,0,0,3,-90,0,-9,0,86,88,66
81339,0,5,0,0,0,0,0,0,0,0,0,0,0,0,0,0,0,4,-91,0,-8,0,86,88,66
81441,0,5,0,0,0,0,0,0,0,0,0,0,0,0,0,0,0,4,-92,0,-8,0,86,88,66
81541,0,5,0,0,0,0,0,0,0,0,0,0,0,0,0,0,0,3,-93,0,-8,-1,86,88,66
81642,0,5,0,0,0,0,0,0,0,0,0,0,0,0,0,0,0,3,-93,0,-7,0,88,88,66
81743,0,5,0,0,0,0,0,0,0,0,0,0,0,0,0,0,0,2,-94,0,-6,0,88,88,66
81844,0,5,0,0,0,0,0,0,0,0,0,0,0,0,0,0,1,2,-93,0,-5,0,89,88,66
81945,0,5,0,0,0,0,0,0,0,0,0,0,0,0,0,0,1,2,-92,0,-5,0,89,88,67
82046,0,5,0,0,0,0,0,0,0,0,0,0,0,0,0,0,1,2,-93,0,-4,0,89,88,67
82147,0,5,0,0,0,0,0,0,0,0,0,0,0,0,0,0,0,2,-95,0,-3,0,89,88,67
82253,0,5,0,0,0,0,0,0,0,0,0,0,0,0,0,0,0,1,-97,0,-3,0,89,88,67
82353,0,5,0,0,0,0,0,0,0,0,0,0,0,0,0,0,0,0,-106,0,-2,0,88,88,67
82455,0,5,0,0,0,0,0,0,0,0,0,0,0,0,0,0,-1,0,-121,0,-2,0,88,88,67
82556,0,5,0,0,0,0,0,0,0,0,0,0,0,0,0,0,-2,-1,-133,0,-2,0,88,88,67
82657,0,5,0,0,0,0,0,0,0,0,0,0,0,0,0,0,-2,-3,-147,-1,-2,0,89,88,67
82761,0,5,0,0,0,0,0,0,0,0,0,0,0,0,0,0,-4,-3,-157,-2,-1,0,90,88,67
82862,0,5,0,0,0,0,0,0,0,0,0,0,0,0,0,0,-6,-2,-156,-3,0,0,89,88,67
82963,0,5,0,0,0,0,0,0,0,0,0,0,0,0,0,0,-6,-1,-160,-5,-1,0,88,88,67
83064,0,5,0,0,0,0,0,0,0,0,0,0,0,0,0,0,-6,0,-161,-7,-1,0,88,88,67
83165,0,5,0,0,0,0,0,0,0,0,0,0,0,0,0,0,-6,0,-165,-8,-1,0,88,88,67
83265,0,5,0,0,0,0,0,0,0,0,0,0,0,0,0,0,-5,1,-168,-8,-1,0,88,88,67
83373,0,5,0,0,0,0,0,0,0,0,0,0,0,0,0,0,-5,2,-171,-9,0,0,88,88,67
83474,0,5,0,0,0,0,0,0,0,0,0,0,0,0,0,0,-4,2,-173,-9,0,0,88,88,67
83575,0,5,0,0,0,0,0,0,0,0,0,0,0,0,0,0,-4,2,-177,-8,0,0,88,88,67
83676,0,5,0,0,0,0,0,0,0,0,0,0,0,0,0,0,-4,2,-179,-8,0,0,88,88,67
83777,0,5,0,0,0,0,0,0,0,0,0,0,0,0,0,0,-2,3,178,-9,0,0,88,88,67
83878,0,5,0,0,0,0,0,0,0,0,0,0,0,0,0,0,-2,3,178,-9,0,0,88,88,67
83979,0,5,0,0,0,0,0,0,0,0,0,0,0,0,0,0,-1,4,175,-9,0,0,83,88,67
84079,0,5,0,0,0,0,0,0,0,0,0,0,0,0,0,0,0,4,172,-8,0,0,87,88,67
84180,0,5,0,0,0,0,0,0,0,0,0,0,0,0,0,0,0,6,168,-7,0,0,89,88,67
84281,0,5,0,0,0,0,0,0,0,0,0,0,0,0,0,0,0,6,167,-7,0,0,89,88,67
84383,0,5,0,0,0,0,0,0,0,0,0,0,0,0,0,0,0,6,167,-7,0,0,90,88,67
84484,0,5,0,0,0,0,0,0,0,0,0,0,0,0,0,0,1,6,167,-7,0,0,89,88,67
84585,0,5,0,0,0,0,0,0,0,0,0,0,0,0,0,0,2,6,167,-8,0,0,89,88,67
84686,0,5,0,0,0,0,0,0,0,0,0,0,0,0,0,0,2,5,168,-8,0,0,89,88,67
84787,0,5,0,0,0,0,0,0,0,0,0,0,0,0,0,0,1,5,169,-8,1,0,89,88,67
84888,0,5,0,0,0,0,0,0,0,0,0,0,0,0,0,0,1,5,169,-7,1,-1,90,88,67
84989,0,5,0,0,0,0,0,0,0,0,0,0,0,0,0,0,2,6,170,-7,0,-1,92,88,67
85089,0,5,0,0,0,0,0,0,0,0,0,0,0,0,0,0,2,5,171,-7,0,0,92,88,67
85190,0,5,0,0,0,0,0,0,0,0,0,0,0,0,0,0,3,4,170,-7,0,0,90,88,67
85291,0,5,0,0,0,0,0,0,0,0,0,0,0,0,0,0,3,4,170,-7,0,1,87,88,67
85392,0,5,0,0,0,0,0,0,0,0,0,0,0,0,0,0,2,4,170,-7,0,1,90,88,67
85493,0,5,0,0,0,0,0,0,0,0,0,0,0,0,0,0,1,4,169,-7,0,0,90,88,67
85594,0,5,0,0,0,0,0,0,0,0,0,0,0,0,0,0,1,4,169,-7,0,0,90,88,67
85696,0,5,0,0,0,0,0,0,0,0,0,0,0,0,0,0,1,3,169,-5,0,0,90,88,67
85797,0,5,0,0,0,0,0,0,0,0,0,0,0,0,0,0,1,3,169,-4,0,0,90,88,67
85898,0,5,0,0,0,0,0,0,0,0,0,0,0,0,0,0,1,3,170,-3,0,0,90,88,67
85999,0,5,0,0,0,0,0,0,0,0,0,0,0,0,0,0,1,2,170,-3,0,0,90,88,67
86099,0,5,0,0,0,0,0,0,0,0,0,0,0,0,0,0,1,2,171,-2,0,0,89,88,67
86200,0,5,0,0,0,0,0,0,0,0,0,0,0,0,0,0,0,1,170,-1,0,0,89,88,67
86301,0,5,0,0,0,0,0,0,0,0,0,0,0,0,0,0,0,1,170,-1,0,0,89,88,67
86403,0,5,0,0,0,0,0,0,0,0,0,0,0,0,0,0,0,1,160,-1,0,0,88,88,67
86504,0,5,0,0,0,0,0,0,0,0,0,0,0,0,0,0,-1,0,148,0,0,0,88,88,67
86605,0,5,0,0,0,0,0,0,0,0,0,0,0,0,0,0,-1,0,148,0,0,0,88,88,67
86706,0,5,0,0,0,0,0,0,0,0,0,0,0,0,0,0,-3,-1,115,-1,0,0,89,88,67
86807,0,5,0,0,0,0,0,0,0,0,0,0,0,0,0,0,-3,-1,115,-1,0,0,89,88,67
86908,0,5,0,0,0,0,0,0,0,0,0,0,0,0,0,0,-4,-2,107,-1,0,0,89,88,67
87009,0,5,0,0,0,0,0,0,0,0,0,0,0,0,0,0,-5,-1,100,-2,1,0,89,88,67
87109,0,5,0,0,0,0,0,0,0,0,0,0,0,0,0,0,-6,-1,104,-1,3,0,89,88,67
87213,0,5,0,0,0,0,0,0,0,0,0,0,0,0,0,0,-4,0,99,0,7,0,88,88,67
87315,0,5,0,0,0,0,0,0,0,0,0,0,0,0,0,0,-2,2,95,0,8,0,88,88,67
87416,0,5,0,0,0,0,0,0,0,0,0,0,0,0,0,0,-1,3,92,0,9,0,88,88,67
87517,0,5,0,0,0,0,0,0,0,0,0,0,0,0,0,0,-1,3,90,0,9,0,88,88,67
87618,0,5,0,0,0,0,0,0,0,0,0,0,0,0,0,0,-1,4,89,0,9,0,87,88,67
87719,0,5,0,0,0,0,0,0,0,0,0,0,0,0,0,0,-3,4,88,0,8,0,88,88,67
87826,0,5,0,0,0,0,0,0,0,0,0,0,0,0,0,0,-3,4,88,0,8,0,88,88,67
87926,0,5,0,0,0,0,0,0,0,0,0,0,0,0,0,0,-2,4,87,0,8,0,89,88,68
88027,0,5,0,0,0,0,0,0,0,0,0,0,0,0,0,0,-2,4,85,0,8,0,88,88,68
88128,0,5,0,0,0,0,0,0,0,0,0,0,0,0,0,0,-2,5,83,0,8,0,83,88,68
88228,0,5,0,0,0,0,0,0,0,0,0,0,0,0,0,0,-2,5,82,0,8,0,85,88,68
88336,0,5,0,0,0,0,0,0,0,0,0,0,0,0,0,0,-3,6,81,0,7,0,87,88,68
88438,0,5,0,0,0,0,0,0,0,0,0,0,0,0,0,0,-2,6,80,0,7,0,89,88,68
88539,0,5,0,0,0,0,0,0,0,0,0,0,0,0,0,0,-2,5,80,0,7,0,89,88,68
88640,0,5,0,0,0,0,0,0,0,0,0,0,0,0,0,0,-1,5,80,0,6,0,89,88,68
88740,0,5,0,0,0,0,0,0,0,0,0,0,0,0,0,0,0,5,81,0,6,0,90,88,68
88841,0,5,0,0,0,0,0,0,0,0,0,0,0,0,0,0,0,5,81,0,6,0,89,88,68
88942,0,5,0,0,0,0,0,0,0,0,0,0,0,0,0,0,0,4,81,0,6,0,88,88,67
89046,0,5,0,0,0,0,0,0,0,0,0,0,0,0,0,0,0,3,81,0,6,0,88,88,67
89147,0,5,0,0,0,0,0,0,0,0,0,0,0,0,0,0,-1,3,81,1,5,0,88,88,67
89248,0,5,0,0,0,0,0,0,0,0,0,0,0,0,0,0,-1,2,79,0,4,0,89,88,67
89349,0,5,0,0,0,0,0,0,0,0,0,0,0,0,0,0,-2,1,77,0,3,0,88,88,67
89450,0,5,0,0,0,0,0,0,0,0,0,0,0,0,0,0,-3,1,75,0,3,0,88,88,67
89551,0,5,0,0,0,0,0,0,0,0,0,0,0,0,0,0,-4,0,69,0,2,0,87,88,67
89653,0,5,0,0,0,0,0,0,0,0,0,0,0,0,0,0,-4,0,59,0,2,0,87,88,67
89754,0,5,0,0,0,0,0,0,0,0,0,0,0,0,0,0,-3,1,41,0,2,-1,88,88,67
89855,0,5,0,0,0,0,0,0,0,0,0,0,0,0,0,0,-2,0,30,0,2,-1,89,88,67
89957,0,5,0,0,0,0,0,0,0,0,0,0,0,0,0,0,-3,-2,19,1,1,0,90,88,68
90058,0,5,0,0,0,0,0,0,0,0,0,0,0,0,0,0,-3,-2,11,1,1,0,90,88,68
90159,0,5,0,0,0,0,0,0,0,0,0,0,0,0,0,0,-3,-1,6,2,1,0,89,88,68
90260,0,5,0,0,0,0,0,0,0,0,0,0,0,0,0,0,-4,0,6,4,0,0,88,88,68
90361,0,5,0,0,0,0,0,0,0,0,0,0,0,0,0,0,-4,1,5,5,0,0,87,88,68
90462,0,5,0,0,0,0,0,0,0,0,0,0,0,0,0,0,-4,1,3,7,0,0,87,88,68
90563,0,5,0,0,0,0,0,0,0,0,0,0,0,0,0,0,-4,2,0,8,0,0,87,88,68
90664,0,5,0,0,0,0,0,0,0,0,0,0,0,0,0,0,-3,2,-1,8,0,0,86,88,68
90764,0,5,0,0,0,0,0,0,0,0,0,0,0,0,0,0,-2,2,-2,9,0,0,86,88,68
90865,0,5,0,0,0,0,0,0,0,0,0,0,0,0,0,0,-2,2,-3,9,0,0,87,88,68
90966,0,5,0,0,0,0,0,0,0,0,0,0,0,0,0,0,-2,3,-3,9,0,0,87,88,68
91067,0,5,0,0,0,0,0,0,0,0,0,0,0,0,0,0,-1,3,-2,10,0,0,88,88,68
91168,0,5,0,0,0,0,0,0,0,0,0,0,0,0,0,0,-2,4,-3,9,0,0,88,88,68
91268,0,5,0,0,0,0,0,0,0,0,0,0,0,0,0,0,-2,4,-5,9,0,0,89,88,68
91369,0,5,0,0,0,0,0,0,0,0,0,0,0,0,0,0,-2,4,-6,9,0,0,85,88,68
91470,0,5,0,0,0,0,0,0,0,0,0,0,0,0,0,0,-2,4,-6,10,0,0,87,88,68
91571,0,5,0,0,0,0,0,0,0,0,0,0,0,0,0,0,-1,5,-6,10,0,0,88,88,68
91672,0,5,0,0,0,0,0,0,0,0,0,0,0,0,0,0,-1,5,-8,10,0,0,89,88,68
91773,0,5,0,0,0,0,0,0,0,0,0,0,0,0,0,0,-2,4,-10,9,0,0,90,88,68
91874,0,5,0,0,0,0,0,0,0,0,0,0,0,0,0,0,-1,4,-10,10,0,0,91,88,68
91975,0,5,0,0,0,0,0,0,0,0,0,0,0,0,0,0,0,4,-10,10,0,0,91,88,68
92077,0,5,0,0,0,0,0,0,0,0,0,0,0,0,0,0,0,4,-9,10,0,0,90,88,68
92178,0,5,0,0,0,0,0,0,0,0,0,0,0,0,0,0,0,4,-8,9,-1,0,91,88,68
92279,0,5,0,0,0,0,0,0,0,0,0,0,0,0,0,0,0,4,-8,10,-1,0,91,88,68
92380,0,5,0,0,0,0,0,0,0,0,0,0,0,0,0,0,0,4,-6,9,0,0,91,88,68
92481,0,5,0,0,0,0,0,0,0,0,0,0,0,0,0,0,0,4,-7,9,0,0,91,88,68
92582,0,5,0,0,0,0,0,0,0,0,0,0,0,0,0,0,0,4,-7,9,0,0,85,88,68
92683,0,5,0,0,0,0,0,0,0,0,0,0,0,0,0,0,1,4,-8,9,0,0,90,88,68
92783,0,5,0,0,0,0,0,0,0,0,0,0,0,0,0,0,1,4,-9,8,0,0,91,88,68
92884,0,5,0,0,0,0,0,0,0,0,0,0,0,0,0,0,1,3,-11,8,0,0,91,88,68
92984,0,5,0,0,0,0,0,0,0,0,0,0,0,0,0,0,0,2,-12,7,0,0,91,88,68
93085,0,5,0,0,0,0,0,0,0,0,0,0,0,0,0,0,0,3,-12,6,-1,0,91,88,68
93185,0,5,0,0,0,0,0,0,0,0,0,0,0,0,0,0,0,2,-13,5,-1,0,91,88,68
93286,0,5,0,0,0,0,0,0,0,0,0,0,0,0,0,0,0,1,-13,5,-1,0,91,88,68
93387,0,5,0,0,0,0,0,0,0,0,0,0,0,0,0,0,0,1,-15,4,-1,0,91,88,68
93488,0,5,0,0,0,0,0,0,0,0,0,0,0,0,0,0,-1,0,-19,3,0,0,91,88,68
93589,0,5,0,0,0,0,0,0,0,0,0,0,0,0,0,0,-1,1,-31,3,0,0,90,88,68
93690,0,5,0,0,0,0,0,0,0,0,0,0,0,0,0,0,0,1,-49,3,0,0,89,88,68
93791,0,5,0,0,0,0,0,0,0,0,0,0,0,0,0,0,-2,0,-63,2,0,0,89,88,68
93891,0,5,0,0,0,0,0,0,0,0,0,0,0,0,0,0,-3,0,-73,3,0,0,89,88,68
93992,0,5,0,0,0,0,0,0,0,0,0,0,0,0,0,0,-4,0,-79,2,-1,0,90,88,69
94094,0,5,0,0,0,0,0,0,0,0,0,0,0,0,0,0,-5,0,-76,1,-2,0,89,88,69
94195,0,5,0,0,0,0,0,0,0,0,0,0,0,0,0,0,-7,1,-77,1,-4,0,88,88,69
94296,0,5,0,0,0,0,0,0,0,0,0,0,0,0,0,0,-7,2,-80,0,-6,0,87,88,69
94397,0,5,0,0,0,0,0,0,0,0,0,0,0,0,0,0,-6,3,-83,0,-7,0,87,88,69
94498,0,5,0,0,0,0,0,0,0,0,0,0,0,0,0,0,-6,4,-85,0,-8,0,87,88,69
94599,0,5,0,0,0,0,0,0,0,0,0,0,0,0,0,0,-5,4,-87,0,-9,0,86,88,69
94700,0,5,0,0,0,0,0,0,0,0,0,0,0,0,0,0,-4,5,-88,0,-9,0,86,88,69
94800,0,5,0,0,0,0,0,0,0,0,0,0,0,0,0,0,-4,5,-89,0,-9,0,86,88,69
94901,0,5,0,0,0,0,0,0,0,0,0,0,0,0,0,0,-3,5,-90,0,-10,0,86,88,69
95002,0,5,0,0,0,0,0,0,0,0,0,0,0,0,0,0,-3,5,-89,0,-9,0,86,88,69
95103,0,5,0,0,0,0,0,0,0,0,0,0,0,0,0,0,-3,6,-91,0,-9,0,85,88,69
95204,0,5,0,0,0,0,0,0,0,0,0,0,0,0,0,0,-3,5,-91,0,-9,0,84,88,69
95305,0,5,0,0,0,0,0,0,0,0,0,0,0,0,0,0,-2,5,-91,0,-9,0,84,88,69
95406,0,5,0,0,0,0,0,0,0,0,0,0,0,0,0,0,-1,5,-93,0,-8,0,86,88,69
95507,0,5,0,0,0,0,0,0,0,0,0,0,0,0,0,0,-1,5,-94,0,-8,0,86,88,69
95607,0,5,0,0,0,0,0,0,0,0,0,0,0,0,0,0,-1,5,-95,0,-8,0,87,88,69
95708,0,5,0,0,0,0,0,0,0,0,0,0,0,0,0,0,0,5,-95,0,-7,-1,88,88,69
95809,0,5,0,0,0,0,0,0,0,0,0,0,0,0,0,0,1,5,-95,0,-7,0,88,88,69
95910,0,5,0,0,0,0,0,0,0,0,0,0,0,0,0,0,2,5,-94,0,-6,0,89,88,69
96011,0,5,0,0,0,0,0,0,0,0,0,0,0,0,0,0,1,5,-94,0,-5,0,89,88,69
96112,0,5,0,0,0,0,0,0,0,0,0,0,0,0,0,0,2,5,-93,0,-5,0,89,88,69
96213,0,5,0,0,0,0,0,0,0,0,0,0,0,0,0,0,1,5,-94,0,-4,0,89,88,69
96313,0,5,0,0,0,0,0,0,0,0,0,0,0,0,0,0,1,4,-95,0,-4,0,89,88,69
96415,0,5,0,0,0,0,0,0,0,0,0,0,0,0,0,0,0,3,-100,0,-2,0,88,88,69
96515,0,5,0,0,0,0,0,0,0,0,0,0,0,0,0,0,0,2,-113,0,-2,0,87,88,69
96616,0,5,0,0,0,0,0,0,0,0,0,0,0,0,0,0,-2,1,-126,0,-1,0,87,88,69
96717,0,5,0,0,0,0,0,0,0,0,0,0,0,0,0,0,-1,1,-139,0,-1,0,88,88,69
96818,0,5,0,0,0,0,0,0,0,0,0,0,0,0,0,0,-1,0,-151,0,-1,0,88,88,69
96919,0,5,0,0,0,0,0,0,0,0,0,0,0,0,0,0,-2,0,-155,-1,-1,0,88,88,69
97020,0,5,0,0,0,0,0,0,0,0,0,0,0,0,0,0,-4,0,-160,-4,-1,0,88,88,69
97121,0,5,0,0,0,0,0,0,0,0,0,0,0,0,0,0,-4,0,-160,-4,-1,0,88,88,69
97221,0,5,0,0,0,0,0,0,0,0,0,0,0,0,0,0,-4,1,-162,-5,0,0,87,88,69
97322,0,5,0,0,0,0,0,0,0,0,0,0,0,0,0,0,-3,2,-165,-6,0,0,87,88,69
97423,0,5,0,0,0,0,0,0,0,0,0,0,0,0,0,0,-2,3,-168,-7,0,0,87,88,69
97524,0,5,0,0,0,0,0,0,0,0,0,0,0,0,0,0,-1,4,-173,-7,0,0,87,88,69
97626,0,5,0,0,0,0,0,0,0,0,0,0,0,0,0,0,-1,4,-173,-7,0,0,87,88,69
97726,0,5,0,0,0,0,0,0,0,0,0,0,0,0,0,0,-2,4,-174,-7,-1,0,88,88,69
97827,0,5,0,0,0,0,0,0,0,0,0,0,0,0,0,0,-4,4,-176,-7,0,0,88,88,69
97928,0,5,0,0,0,0,0,0,0,0,0,0,0,0,0,0,-4,4,-176,-8,0,0,88,88,69
98029,0,5,0,0,0,0,0,0,0,0,0,0,0,0,0,0,-3,5,-179,-8,0,0,88,88,69
98130,0,5,0,0,0,0,0,0,0,0,0,0,0,0,0,0,-2,6,177,-8,0,0,88,88,69
98230,0,5,0,0,0,0,0,0,0,0,0,0,0,0,0,0,-2,6,175,-8,0,0,85,88,69
98331,0,5,0,0,0,0,0,0,0,0,0,0,0,0,0,0,-1,6,173,-8,0,0,88,88,69
98432,0,5,0,0,0,0,0,0,0,0,0,0,0,0,0,0,-1,8,171,-7,0,0,89,88,69
98533,0,5,0,0,0,0,0,0,0,0,0,0,0,0,0,0,0,8,169,-8,0,0,89,88,69
98633,0,5,0,0,0,0,0,0,0,0,0,0,0,0,0,0,0,7,167,-7,0,0,88,88,69
98734,0,5,0,0,0,0,0,0,0,0,0,0,0,0,0,0,1,7,166,-6,0,0,89,88,69
98834,0,5,0,0,0,0,0,0,0,0,0,0,0,0,0,0,1,6,166,-6,0,0,88,88,69
98935,0,5,0,0,0,0,0,0,0,0,0,0,0,0,0,0,2,5,165,-7,0,0,88,88,69
99036,0,5,0,0,0,0,0,0,0,0,0,0,0,0,0,0,2,4,167,-7,0,0,89,88,69
99137,0,5,0,0,0,0,0,0,0,0,0,0,0,0,0,0,2,4,167,-8,1,-1,89,88,69
99239,0,5,0,0,0,0,0,0,0,0,0,0,0,0,0,0,2,4,168,-7,1,-1,90,88,69
99340,0,5,0,0,0,0,0,0,0,0,0,0,0,0,0,0,2,4,169,-6,0,0,92,88,69
99441,0,5,0,0,0,0,0,0,0,0,0,0,0,0,0,0,2,4,170,-6,0,0,92,88,69
99541,0,5,0,0,0,0,0,0,0,0,0,0,0,0,0,0,2,4,170,-6,0,0,91,88,69
99642,0,5,0,0,0,0,0,0,0,0,0,0,0,0,0,0,3,4,170,-6,0,0,86,88,69
99743,0,5,0,0,0,0,0,0,0,0,0,0,0,0,0,0,3,4,170,-7,0,0,83,88,69
99843,0,5,0,0,0,0,0,0,0,0,0,0,0,0,0,0,2,4,170,-7,-1,0,87,88,69
99944,0,5,0,0,0,0,0,0,0,0,0,0,0,0,0,0,1,3,170,-6,-1,0,89,88,69
100045,0,5,0,0,0,0,0,0,0,0,0,0,0,0,0,0,1,2,169,-6,0,0,89,88,70
100146,0,5,0,0,0,0,0,0,0,0,0,0,0,0,0,0,2,2,169,-4,0,0,89,88,70
100247,0,5,0,0,0,0,0,0,0,0,0,0,0,0,0,0,1,2,169,-3,0,0,90,88,70
100348,0,5,0,0,0,0,0,0,0,0,0,0,0,0,0,0,1,2,169,-2,0,0,90,88,70
100449,0,5,0,0,0,0,0,0,0,0,0,0,0,0,0,0,1,2,170,-1,0,0,90,88,70
100550,0,5,0,0,0,0,0,0,0,0,0,0,0,0,0,0,1,2,170,-1,0,0,90,88,70
100651,0,5,0,0,0,0,0,0,0,0,0,0,0,0,0,0,1,1,167,0,0,0,90,88,70
100752,0,5,0,0,0,0,0,0,0,0,0,0,0,0,0,0,2,0,152,0,1,0,89,88,70
100853,0,5,0,0,0,0,0,0,0,0,0,0,0,0,0,0,3,-3,134,0,1,0,89,88,70
100953,0,5,0,0,0,0,0,0,0,0,0,0,0,0,0,0,1,-5,122,0,0,0,90,88,70
101055,0,5,0,0,0,0,0,0,0,0,0,0,0,0,0,0,0,-5,112,0,1,0,89,88,69
101156,0,5,0,0,0,0,0,0,0,0,0,0,0,0,0,0,0,-3,109,0,3,0,89,88,69
101256,0,5,0,0,0,0,0,0,0,0,0,0,0,0,0,0,-2,-1,108,0,5,0,88,88,69
101357,0,5,0,0,0,0,0,0,0,0,0,0,0,0,0,0,-1,0,103,-1,7,0,88,88,69
101458,0,5,0,0,0,0,0,0,0,0,0,0,0,0,0,0,-1,1,102,0,8,0,88,88,69
101559,0,5,0,0,0,0,0,0,0,0,0,0,0,0,0,0,-1,1,102,0,8,0,88,88,69
101659,0,5,0,0,0,0,0,0,0,0,0,0,0,0,0,0,0,3,99,-1,9,0,89,88,69
101761,0,5,0,0,0,0,0,0,0,0,0,0,0,0,0,0,0,3,96,0,8,0,89,88,69
101861,0,5,0,0,0,0,0,0,0,0,0,0,0,0,0,0,0,3,96,0,8,0,90,88,69
101961,0,5,0,0,0,0,0,0,0,0,0,0,0,0,0,0,0,3,96,0,8,0,90,88,69
102063,0,5,0,0,0,0,0,0,0,0,0,0,0,0,0,0,0,3,94,0,8,0,90,88,69
102164,0,5,0,0,0,0,0,0,0,0,0,0,0,0,0,0,0,3,92,0,8,0,88,88,69
102265,0,5,0,0,0,0,0,0,0,0,0,0,0,0,0,0,0,4,90,0,8,0,84,88,69
102365,0,5,0,0,0,0,0,0,0,0,0,0,0,0,0,0,0,4,87,0,7,0,88,88,69
102466,0,5,0,0,0,0,0,0,0,0,0,0,0,0,0,0,1,5,85,0,7,0,88,88,69
102567,0,5,0,0,0,0,0,0,0,0,0,0,0,0,0,0,1,4,83,0,7,0,89,88,69
102668,0,5,0,0,0,0,0,0,0,0,0,0,0,0,0,0,2,5,83,0,7,0,90,88,69
102769,0,5,0,0,0,0,0,0,0,0,0,0,0,0,0,0,3,5,82,0,7,0,90,88,69
102871,0,5,0,0,0,0,0,0,0,0,0,0,0,0,0,0,3,5,82,0,7,0,89,88,69
102971,0,5,0,0,0,0,0,0,0,0,0,0,0,0,0,0,4,4,81,0,7,0,91,88,69
103072,0,5,0,0,0,0,0,0,0,0,0,0,0,0,0,0,2,4,81,1,6,0,90,88,70
103172,0,5,0,0,0,0,0,0,0,0,0,0,0,0,0,0,2,5,80,1,6,0,90,88,70
103273,0,5,0,0,0,0,0,0,0,0,0,0,0,0,0,0,2,5,80,0,6,0,91,88,70
103374,0,5,0,0,0,0,0,0,0,0,0,0,0,0,0,0,2,5,79,0,5,0,90,88,70
103474,0,5,0,0,0,0,0,0,0,0,0,0,0,0,0,0,1,4,76,0,5,1,89,88,70
103575,0,5,0,0,0,0,0,0,0,0,0,0,0,0,0,0,0,3,60,0,3,0,87,88,70
103676,0,5,0,0,0,0,0,0,0,0,0,0,0,0,0,0,0,3,44,0,2,0,87,88,70
103777,0,5,0,0,0,0,0,0,0,0,0,0,0,0,0,0,0,3,44,0,2,0,87,88,70
103878,0,5,0,0,0,0,0,0,0,0,0,0,0,0,0,0,0,3,23,1,2,0,88,88,70
103979,0,5,0,0,0,0,0,0,0,0,0,0,0,0,0,0,2,2,14,1,1,0,88,88,70
104080,0,5,0,0,0,0,0,0,0,0,0,0,0,0,0,0,2,1,9,1,1,0,89,88,70
