timestamp,trackMode,telSeqId,personCount,personConfidence,faceXPx,faceYPx,faceRadiusPx,angle_err,estimatedDistance,estimatedXPos,estimatedYPos,estimatedZPos,Uyaw,Uz,Ux,Uy,pitch,roll,yaw,vx,vy,vz,tof,batt,temp
7081,0,0,0,0,0,0,0,0,0,0,0,0,0,0,0,0,0,-1,0,0,0,0,10,55,66
7183,0,0,0,0,0,0,0,0,0,0,0,0,0,0,0,0,0,-1,0,0,0,0,10,55,67
7285,0,0,0,0,0,0,0,0,0,0,0,0,0,0,0,0,0,-1,0,0,0,0,10,55,67
7386,0,0,0,0,0,0,0,0,0,0,0,0,0,0,0,0,0,-1,0,0,0,0,10,55,67
7487,0,0,0,0,0,0,0,0,0,0,0,0,0,0,0,0,0,-1,0,0,0,0,10,55,67
7589,0,0,0,0,0,0,0,0,0,0,0,0,0,0,0,0,0,-1,0,0,0,0,10,55,67
7690,0,0,0,0,0,0,0,0,0,0,0,0,0,0,0,0,0,-1,0,0,0,0,10,55,67
7791,0,0,0,0,0,0,0,0,0,0,0,0,0,0,0,0,0,-1,0,0,0,0,10,55,67
7893,0,0,0,0,0,0,0,0,0,0,0,0,0,0,0,0,0,-1,0,0,0,0,10,55,67
7994,0,0,0,0,0,0,0,0,0,0,0,0,0,0,0,0,0,-1,0,0,0,0,10,55,67
8095,0,0,0,0,0,0,0,0,0,0,0,0,0,0,0,0,0,-1,0,0,0,0,10,55,67
8197,0,0,0,0,0,0,0,0,0,0,0,0,0,0,0,0,0,-1,0,0,0,0,10,55,67
8298,0,0,0,0,0,0,0,0,0,0,0,0,0,0,0,0,0,-1,0,0,0,0,10,55,67
8400,0,0,0,0,0,0,0,0,0,0,0,0,0,0,0,0,0,-1,0,0,0,0,10,54,67
8506,0,0,0,0,0,0,0,0,0,0,0,0,0,0,0,0,0,-1,0,0,0,0,10,54,67
8608,0,0,0,0,0,0,0,0,0,0,0,0,0,0,0,0,0,-1,0,0,0,0,10,54,67
8709,0,0,0,0,0,0,0,0,0,0,0,0,0,0,0,0,0,-1,0,0,0,0,10,54,67
8810,0,0,0,0,0,0,0,0,0,0,0,0,0,0,0,0,0,-1,0,0,0,0,10,54,67
8911,0,0,0,0,0,0,0,0,0,0,0,0,0,0,0,0,0,-1,0,0,0,0,10,54,67
9013,0,0,0,0,0,0,0,0,0,0,0,0,0,0,0,0,0,-1,0,0,0,0,10,54,67
9114,0,0,0,0,0,0,0,0,0,0,0,0,0,0,0,0,0,-1,0,0,0,0,10,54,67
9216,0,0,0,0,0,0,0,0,0,0,0,0,0,0,0,0,0,-1,0,0,0,0,10,54,67
9317,0,0,0,0,0,0,0,0,0,0,0,0,0,0,0,0,0,-1,0,0,0,0,10,54,67
9418,0,0,0,0,0,0,0,0,0,0,0,0,0,0,0,0,0,-1,0,0,0,0,10,54,67
9519,0,0,0,0,0,0,0,0,0,0,0,0,0,0,0,0,0,-1,0,0,0,0,10,54,67
9620,0,0,0,0,0,0,0,0,0,0,0,0,0,0,0,0,0,-1,0,0,0,0,10,54,67
9725,0,0,0,0,0,0,0,0,0,0,0,0,0,0,0,0,0,-1,0,0,0,0,10,54,67
9826,0,0,0,0,0,0,0,0,0,0,0,0,0,0,0,0,0,-1,0,0,0,0,10,54,67
9927,0,0,0,0,0,0,0,0,0,0,0,0,0,0,0,0,0,-1,0,0,0,0,10,54,67
10028,0,0,0,0,0,0,0,0,0,0,0,0,0,0,0,0,0,-1,0,0,0,0,10,54,67
10129,0,0,0,0,0,0,0,0,0,0,0,0,0,0,0,0,0,-1,0,0,0,0,10,54,67
10230,0,0,0,0,0,0,0,0,0,0,0,0,0,0,0,0,0,-1,0,0,0,0,10,54,67
10331,0,0,0,0,0,0,0,0,0,0,0,0,0,0,0,0,0,-1,0,0,0,0,10,54,67
10432,0,0,0,0,0,0,0,0,0,0,0,0,0,0,0,0,0,-1,0,0,0,0,10,54,67
10533,0,0,0,0,0,0,0,0,0,0,0,0,0,0,0,0,0,-1,0,0,0,0,10,54,67
10636,0,0,0,0,0,0,0,0,0,0,0,0,0,0,0,0,0,-1,0,0,0,0,10,54,67
10737,0,0,0,0,0,0,0,0,0,0,0,0,0,0,0,0,0,-1,0,0,0,0,10,54,67
10838,0,0,0,0,0,0,0,0,0,0,0,0,0,0,0,0,0,-1,0,0,0,0,10,54,67
10939,0,0,0,0,0,0,0,0,0,0,0,0,0,0,0,0,0,-1,0,0,0,0,10,54,67
11041,0,0,0,0,0,0,0,0,0,0,0,0,0,0,0,0,0,-1,0,0,0,0,10,54,67
11142,0,0,0,0,0,0,0,0,0,0,0,0,0,0,0,0,0,-1,0,0,0,0,10,54,67
11243,0,0,0,0,0,0,0,0,0,0,0,0,0,0,0,0,0,-1,0,0,0,0,10,54,67
11344,0,0,0,0,0,0,0,0,0,0,0,0,0,0,0,0,0,-1,0,0,0,0,10,54,67
11446,0,0,0,0,0,0,0,0,0,0,0,0,0,0,0,0,0,-1,0,0,0,0,10,54,67
11547,0,0,0,0,0,0,0,0,0,0,0,0,0,0,0,0,0,-1,0,0,0,0,10,54,67
11648,0,0,0,0,0,0,0,0,0,0,0,0,0,0,0,0,0,-1,0,0,0,0,10,54,67
11750,0,0,0,0,0,0,0,0,0,0,0,0,0,0,0,0,0,-1,0,0,0,0,10,54,67
11851,0,0,0,0,0,0,0,0,0,0,0,0,0,0,0,0,0,-1,0,0,0,0,10,54,67
11952,0,0,0,0,0,0,0,0,0,0,0,0,0,0,0,0,0,-1,0,0,0,0,10,54,67
12053,0,0,0,0,0,0,0,0,0,0,0,0,0,0,0,0,0,-1,0,0,0,0,10,54,67
12154,0,0,0,0,0,0,0,0,0,0,0,0,0,0,0,0,0,-1,0,0,0,0,10,54,68
12255,0,0,0,0,0,0,0,0,0,0,0,0,0,0,0,0,0,-1,0,0,0,0,10,54,68
12355,0,0,0,0,0,0,0,0,0,0,0,0,0,0,0,0,0,-1,0,0,0,0,10,54,68
12458,0,0,0,0,0,0,0,0,0,0,0,0,0,0,0,0,0,-1,0,0,0,0,10,54,68
12559,0,0,0,0,0,0,0,0,0,0,0,0,0,0,0,0,0,-1,0,0,0,0,10,54,68
12660,0,0,0,0,0,0,0,0,0,0,0,0,0,0,0,0,0,-1,0,0,0,0,10,54,68
12761,0,0,0,0,0,0,0,0,0,0,0,0,0,0,0,0,0,-1,0,0,0,0,10,54,68
12862,0,0,0,0,0,0,0,0,0,0,0,0,0,0,0,0,0,-1,0,0,0,0,10,54,68
12964,0,0,0,0,0,0,0,0,0,0,0,0,0,0,0,0,0,-1,0,0,0,0,10,54,68
13065,0,0,0,0,0,0,0,0,0,0,0,0,0,0,0,0,0,-1,0,0,0,0,10,54,67
13166,0,0,0,0,0,0,0,0,0,0,0,0,0,0,0,0,0,-1,0,0,0,0,10,54,67
13266,0,0,0,0,0,0,0,0,0,0,0,0,0,0,0,0,0,-1,0,0,0,0,10,54,67
13367,0,0,0,0,0,0,0,0,0,0,0,0,0,0,0,0,0,-1,0,0,0,0,10,54,67
13468,0,0,0,0,0,0,0,0,0,0,0,0,0,0,0,0,0,-1,0,0,0,0,10,54,67
13569,0,0,0,0,0,0,0,0,0,0,0,0,0,0,0,0,0,-1,0,0,0,0,10,54,67
13670,0,0,0,0,0,0,0,0,0,0,0,0,0,0,0,0,0,-1,0,0,0,0,10,54,67
13771,0,0,0,0,0,0,0,0,0,0,0,0,0,0,0,0,0,-1,0,0,0,0,10,54,67
13872,0,0,0,0,0,0,0,0,0,0,0,0,0,0,0,0,0,-1,0,0,0,0,10,54,67
13973,0,0,0,0,0,0,0,0,0,0,0,0,0,0,0,0,0,-1,0,0,0,0,10,54,67
14075,0,0,0,0,0,0,0,0,0,0,0,0,0,0,0,0,0,-1,0,0,0,0,10,54,67
14176,0,0,0,0,0,0,0,0,0,0,0,0,0,0,0,0,0,-1,0,0,0,0,10,54,67
14276,0,0,0,0,0,0,0,0,0,0,0,0,0,0,0,0,0,-1,0,0,0,0,10,54,67
14377,0,0,0,0,0,0,0,0,0,0,0,0,0,0,0,0,0,-1,0,0,0,0,10,54,67
14486,0,0,0,0,0,0,0,0,0,0,0,0,0,0,0,0,0,-1,0,0,0,0,10,54,67
14587,0,0,0,0,0,0,0,0,0,0,0,0,0,0,0,0,0,-1,0,0,0,0,10,54,67
14688,0,1,0,0,0,0,0,0,0,0,0,0,0,0,0,0,0,-1,0,0,0,0,10,54,67
14789,0,1,0,0,0,0,0,0,0,0,0,0,0,0,0,0,0,-1,0,0,0,0,10,54,67
14890,0,1,0,0,0,0,0,0,0,0,0,0,0,0,0,0,0,-1,0,0,0,0,10,54,67
14990,0,1,0,0,0,0,0,0,0,0,0,0,0,0,0,0,0,-1,0,0,0,0,10,54,67
15091,0,1,0,0,0,0,0,0,0,0,0,0,0,0,0,0,0,-1,0,0,0,0,10,54,67
15192,0,1,0,0,0,0,0,0,0,0,0,0,0,0,0,0,0,-1,0,0,0,0,10,54,68
15293,0,1,0,0,0,0,0,0,0,0,0,0,0,0,0,0,0,-1,0,0,0,0,10,54,68
15394,0,1,0,0,0,0,0,0,0,0,0,0,0,0,0,0,0,-1,0,0,0,0,10,54,68
15495,0,1,0,0,0,0,0,0,0,0,0,0,0,0,0,0,0,-1,0,0,0,0,10,54,68
15596,0,1,0,0,0,0,0,0,0,0,0,0,0,0,0,0,0,0,0,0,0,0,10,54,68
15697,0,1,0,0,0,0,0,0,0,0,0,0,0,0,0,0,0,0,0,0,0,0,10,54,68
15798,0,1,0,0,0,0,0,0,0,0,0,0,0,0,0,0,0,-1,0,0,0,0,10,54,68
15899,0,1,0,0,0,0,0,0,0,0,0,0,0,0,0,0,0,-1,0,0,0,0,10,54,68
16000,0,1,0,0,0,0,0,0,0,0,0,0,0,0,0,0,0,-1,0,0,0,0,10,54,68
16101,0,1,0,0,0,0,0,0,0,0,0,0,0,0,0,0,0,-1,0,0,0,0,10,54,69
16202,0,1,0,0,0,0,0,0,0,0,0,0,0,0,0,0,0,-1,0,0,0,0,10,54,69
16303,0,1,0,0,0,0,0,0,0,0,0,0,0,0,0,0,0,-1,0,0,0,0,10,54,69
16404,0,1,0,0,0,0,0,0,0,0,0,0,0,0,0,0,0,-1,0,0,0,0,10,54,69
16505,0,1,0,0,0,0,0,0,0,0,0,0,0,0,0,0,0,-1,0,0,0,0,10,54,69
16605,0,1,0,0,0,0,0,0,0,0,0,0,0,0,0,0,0,0,0,0,0,0,10,54,69
16706,0,1,0,0,0,0,0,0,0,0,0,0,0,0,0,0,0,-1,0,0,0,0,10,54,69
16807,0,1,0,0,0,0,0,0,0,0,0,0,0,0,0,0,0,-1,0,0,0,0,10,54,69
16908,0,1,0,0,0,0,0,0,0,0,0,0,0,0,0,0,0,-1,0,0,0,0,10,54,69
17009,0,1,0,0,0,0,0,0,0,0,0,0,0,0,0,0,0,0,0,0,0,0,10,54,69
17110,0,1,0,0,0,0,0,0,0,0,0,0,0,0,0,0,0,0,0,0,0,0,10,54,69
17211,0,1,0,0,0,0,0,0,0,0,0,0,0,0,0,0,2,-1,5,0,0,-2,10,54,68
17311,0,1,0,0,0,0,0,0,0,0,0,0,0,0,0,0,1,0,3,0,0,-2,10,54,68
17412,0,1,0,0,0,0,0,0,0,0,0,0,0,0,0,0,1,0,4,0,0,-3,10,54,68
17513,0,1,0,0,0,0,0,0,0,0,0,0,0,0,0,0,1,0,5,0,0,-4,10,54,68
17614,0,1,0,0,0,0,0,0,0,0,0,0,0,0,0,0,0,0,7,0,0,-4,10,54,68
17714,0,1,0,0,0,0,0,0,0,0,0,0,0,0,0,0,0,0,7,0,0,-5,10,54,68
17815,0,1,0,0,0,0,0,0,0,0,0,0,0,0,0,0,0,1,7,0,0,-6,10,54,68
17916,0,1,0,0,0,0,0,0,0,0,0,0,0,0,0,0,0,1,7,0,0,-7,34,54,68
18017,0,1,0,0,0,0,0,0,0,0,0,0,0,0,0,0,1,2,7,0,0,-7,42,54,68
18118,0,1,0,0,0,0,0,0,0,0,0,0,0,0,0,0,2,3,7,0,0,-7,50,54,69
18219,0,1,0,0,0,0,0,0,0,0,0,0,0,0,0,0,1,3,7,-1,0,-6,57,54,69
18319,0,1,0,0,0,0,0,0,0,0,0,0,0,0,0,0,0,4,7,-1,0,-5,63,54,69
18422,0,1,0,0,0,0,0,0,0,0,0,0,0,0,0,0,0,3,6,0,0,-5,69,54,69
18523,0,1,0,0,0,0,0,0,0,0,0,0,0,0,0,0,0,4,7,0,0,-5,75,54,69
18623,0,1,0,0,0,0,0,0,0,0,0,0,0,0,0,0,0,4,7,0,0,-4,80,54,69
18724,0,1,0,0,0,0,0,0,0,0,0,0,0,0,0,0,1,5,7,0,0,-4,85,54,69
18825,0,1,0,0,0,0,0,0,0,0,0,0,0,0,0,0,1,5,7,0,0,-3,89,54,69
18926,0,1,0,0,0,0,0,0,0,0,0,0,0,0,0,0,0,4,7,0,0,-2,93,54,69
19027,0,1,0,0,0,0,0,0,0,0,0,0,0,0,0,0,0,4,7,0,0,-2,96,54,69
19128,0,1,0,0,0,0,0,0,0,0,0,0,0,0,0,0,0,4,8,0,0,-2,99,54,70
19229,0,1,0,0,0,0,0,0,0,0,0,0,0,0,0,0,0,4,8,0,0,-1,102,54,70
19330,0,1,0,0,0,0,0,0,0,0,0,0,0,0,0,0,-1,4,8,0,0,0,103,54,70
19431,0,1,0,0,0,0,0,0,0,0,0,0,0,0,0,0,-1,3,8,0,0,0,103,54,70
19533,0,1,0,0,0,0,0,0,0,0,0,0,0,0,0,0,-1,3,7,1,0,0,102,54,70
19634,0,1,0,0,0,0,0,0,0,0,0,0,0,0,0,0,-1,3,6,1,0,0,103,54,70
19736,0,1,0,0,0,0,0,0,0,0,0,0,0,0,0,0,-1,2,7,2,0,0,103,54,70
19836,0,1,0,0,0,0,0,0,0,0,0,0,0,0,0,0,-1,2,6,2,0,0,103,54,70
19938,0,1,0,0,0,0,0,0,0,0,0,0,0,0,0,0,-2,2,5,2,0,0,103,54,70
20039,0,1,0,0,0,0,0,0,0,0,0,0,0,0,0,0,-2,2,3,3,0,0,103,54,70
20139,0,1,0,0,0,0,0,0,0,0,0,0,0,0,0,0,-1,2,2,4,0,0,103,54,69
20240,0,1,0,0,0,0,0,0,0,0,0,0,0,0,0,0,-1,3,1,4,0,0,103,54,69
20341,0,1,0,0,0,0,0,0,0,0,0,0,0,0,0,0,0,3,0,5,0,0,103,54,69
20442,0,1,0,0,0,0,0,0,0,0,0,0,0,0,0,0,0,2,0,5,0,0,102,54,69
20543,0,1,0,0,0,0,0,0,0,0,0,0,0,0,0,0,0,3,0,6,0,0,102,54,69
20644,0,1,0,0,0,0,0,0,0,0,0,0,0,0,0,0,0,3,-1,6,0,0,102,54,69
20745,0,1,0,0,0,0,0,0,0,0,0,0,0,0,0,0,0,3,-1,6,0,0,102,54,69
20847,0,1,0,0,0,0,0,0,0,0,0,0,0,0,0,0,1,3,-3,6,0,0,104,54,69
20950,0,1,0,0,0,0,0,0,0,0,0,0,0,0,0,0,0,3,-5,6,0,0,104,54,69
21051,0,1,0,0,0,0,0,0,0,0,0,0,0,0,0,0,0,2,-5,6,0,0,104,54,69
21152,0,1,0,0,0,0,0,0,0,0,0,0,0,0,0,0,0,2,-5,6,0,0,103,54,70
21253,0,1,0,0,0,0,0,0,0,0,0,0,0,0,0,0,0,2,-6,6,-1,0,102,54,70
21354,0,1,0,0,0,0,0,0,0,0,0,0,0,0,0,0,0,2,-6,7,0,0,102,54,70
21454,0,1,0,0,0,0,0,0,0,0,0,0,0,0,0,0,0,2,-5,7,-1,0,103,54,70
21556,0,1,0,0,0,0,0,0,0,0,0,0,0,0,0,0,0,2,-5,8,0,0,104,54,70
21657,0,1,0,0,0,0,0,0,0,0,0,0,0,0,0,0,0,2,-5,7,-1,0,104,54,70
21758,0,1,0,0,0,0,0,0,0,0,0,0,0,0,0,0,0,2,-6,7,0,0,104,54,70
21859,0,1,0,0,0,0,0,0,0,0,0,0,0,0,0,0,0,2,-6,8,0,0,103,54,70
21960,0,1,0,0,0,0,0,0,0,0,0,0,0,0,0,0,0,2,-6,8,0,0,102,54,70
22061,0,1,0,0,0,0,0,0,0,0,0,0,0,0,0,0,0,3,-5,8,0,0,101,54,70
22161,0,1,0,0,0,0,0,0,0,0,0,0,0,0,0,0,0,4,-5,8,0,0,102,54,70
22262,0,1,0,0,0,0,0,0,0,0,0,0,0,0,0,0,0,3,-6,8,0,0,102,54,70
22362,0,1,0,0,0,0,0,0,0,0,0,0,0,0,0,0,0,3,-7,8,-1,0,103,54,70
22463,0,1,1,62,291,47,23,-13,336,-76,-48,324,0,0,0,0,1,3,-7,8,-1,0,103,54,70
22564,0,1,1,63,271,46,23,-15,335,-83,-48,321,0,0,0,0,1,2,-7,8,-1,0,103,54,70
22665,0,1,1,63,248,42,23,-16,330,-91,-54,314,0,0,0,0,2,2,-6,8,-1,0,102,54,70
22765,0,1,1,62,268,32,23,-15,330,-83,-52,315,0,0,0,0,1,2,-5,8,-1,0,103,54,70
22866,0,1,1,69,280,38,24,-14,325,-77,-44,312,0,0,0,0,0,2,-5,8,-1,0,103,54,70
22967,0,1,1,71,285,40,24,-14,320,-74,-48,308,0,0,0,0,1,2,-5,8,-1,0,104,54,70
23068,0,1,1,67,252,48,23,-16,335,-91,-47,319,0,0,0,0,1,2,-5,8,0,0,104,54,70
23169,0,1,1,71,236,31,25,-17,309,-89,-54,292,0,0,0,0,2,1,-4,9,0,0,103,54,71
23270,0,1,1,69,227,31,26,-18,290,-87,-56,273,0,0,0,0,3,1,-4,9,0,0,103,54,71
23371,0,1,1,66,206,27,27,-19,286,-92,-61,267,0,0,0,0,4,1,-4,9,0,0,103,54,71
23472,0,1,1,64,204,29,27,-19,286,-93,-56,266,0,0,0,0,3,1,-4,9,0,0,104,54,71
23573,0,1,1,67,178,37,27,-21,281,-100,-53,260,0,0,0,0,3,1,-5,9,0,0,105,54,71
23674,0,1,1,67,178,37,27,-21,281,-100,-53,260,0,0,0,0,3,1,-6,9,-1,0,105,54,71
23775,0,1,1,61,171,28,27,-22,281,-102,-55,258,0,0,0,0,4,1,-6,9,-1,0,105,54,71
23876,0,1,1,62,116,32,28,-25,277,-117,-58,247,0,0,0,0,4,0,-6,10,-1,0,105,54,71
23977,0,1,1,64,114,29,28,-26,272,-116,-58,243,0,0,0,0,4,0,-4,9,-1,0,104,54,71
24078,0,1,1,62,121,32,29,-25,264,-110,-55,236,0,0,0,0,4,1,-4,9,-1,0,105,54,71
24179,0,1,1,62,107,28,28,-26,277,-120,-59,246,0,0,0,0,4,1,-4,9,-1,-1,105,54,70
24279,0,1,0,62,107,28,0,-26,277,-120,-59,246,0,0,0,0,4,1,-5,9,-1,0,106,54,70
24380,0,1,0,62,107,28,0,-26,277,-120,-59,246,0,0,0,0,5,0,-5,9,0,0,106,54,70
24481,0,1,0,62,107,28,0,-26,277,-120,-59,246,0,0,0,0,6,0,-5,10,0,0,105,54,70
24582,0,1,0,62,107,28,0,-26,277,-120,-59,246,0,0,0,0,6,0,-5,10,0,0,105,54,70
24683,0,1,0,62,107,28,0,-26,277,-120,-59,246,0,0,0,0,6,1,-4,9,0,0,105,54,70
24783,0,1,0,62,107,28,0,-26,277,-120,-59,246,0,0,0,0,5,1,-4,9,0,0,105,54,70
24884,0,1,0,62,107,28,0,-26,277,-120,-59,246,0,0,0,0,6,2,-6,9,-1,0,108,54,70
24985,0,1,0,62,107,28,0,-26,277,-120,-59,246,0,0,0,0,6,2,-6,9,0,0,108,54,70
25090,0,1,0,62,107,28,0,-26,277,-120,-59,246,0,0,0,0,7,1,-6,9,0,1,107,54,70
25191,0,1,0,62,107,28,0,-26,277,-120,-59,246,0,0,0,0,7,1,-5,9,0,0,107,54,71
25292,0,1,0,62,107,28,0,-26,277,-120,-59,246,0,0,0,0,6,1,-3,9,0,0,106,54,71
25393,0,1,0,62,107,28,0,-26,277,-120,-59,246,0,0,0,0,5,1,-3,9,0,0,107,53,71
25494,0,1,0,62,107,28,0,-26,277,-120,-59,246,0,0,0,0,6,1,-2,9,0,0,107,53,71
25595,0,1,0,62,107,28,0,-26,277,-120,-59,246,0,0,0,0,6,1,-2,9,0,0,106,53,71
25696,0,1,0,62,107,28,0,-26,277,-120,-59,246,0,0,0,0,6,1,-2,10,0,0,106,53,71
25796,0,1,0,62,107,28,0,-26,277,-120,-59,246,0,0,0,0,8,2,-2,10,0,0,108,53,71
25898,0,1,0,62,107,28,0,-26,277,-120,-59,246,0,0,0,0,7,2,-1,10,1,0,109,53,71
25999,0,1,0,62,107,28,0,-26,277,-120,-59,246,0,0,0,0,7,2,-1,10,0,0,110,53,71
26099,0,1,0,62,107,28,0,-26,277,-120,-59,246,0,0,0,0,7,2,-2,9,0,0,110,53,71
26201,0,1,0,62,107,28,0,-26,277,-120,-59,246,0,0,0,0,7,2,-3,10,0,0,110,53,70
26302,0,1,1,64,235,320,19,-17,407,-118,7,383,0,0,0,0,8,1,-3,10,0,0,111,53,70
26403,0,1,0,64,235,320,0,-17,407,-118,7,383,0,0,0,0,8,1,-3,10,0,0,111,53,70
26505,0,1,0,64,235,320,0,-17,407,-118,7,383,0,0,0,0,7,0,-3,9,0,0,110,53,70
26606,0,1,0,64,235,320,0,-17,407,-118,7,383,0,0,0,0,7,0,-3,9,0,0,111,53,70
26707,0,1,0,64,235,320,0,-17,407,-118,7,383,0,0,0,0,7,1,-2,8,0,0,112,53,70
26808,0,1,0,64,235,320,0,-17,407,-118,7,383,0,0,0,0,7,1,-3,8,0,0,112,53,70
26909,0,1,0,64,235,320,0,-17,407,-118,7,383,0,0,0,0,7,1,-3,8,0,0,111,53,70
27010,0,1,0,64,235,320,0,-17,407,-118,7,383,0,0,0,0,8,1,-3,8,0,0,111,53,70
27110,0,1,0,64,235,320,0,-17,407,-118,7,383,0,0,0,0,9,2,-3,8,0,0,112,53,70
27211,0,1,0,64,235,320,0,-17,407,-118,7,383,0,0,0,0,9,2,-3,7,0,0,113,53,71
27312,0,1,0,64,235,320,0,-17,407,-118,7,383,0,0,0,0,9,1,-4,7,0,0,113,53,71
27413,0,1,0,64,235,320,0,-17,407,-118,7,383,0,0,0,0,8,1,-4,6,0,0,113,53,71
27514,0,1,0,64,235,320,0,-17,407,-118,7,383,0,0,0,0,8,1,-4,5,0,0,113,53,71
27615,0,1,0,64,235,320,0,-17,407,-118,7,383,0,0,0,0,8,1,-4,5,0,0,112,53,71
27716,0,1,0,64,235,320,0,-17,407,-118,7,383,0,0,0,0,8,1,-3,5,0,0,112,53,71
27817,0,1,0,64,235,320,0,-17,407,-118,7,383,0,0,0,0,7,1,-2,4,0,0,112,53,71
27917,0,1,0,64,235,320,0,-17,407,-118,7,383,0,0,0,0,7,1,-2,3,0,0,111,53,71
28018,0,1,0,64,235,320,0,-17,407,-118,7,383,0,0,0,0,6,1,-2,3,0,0,110,53,71
28119,0,1,0,64,235,320,0,-17,407,-118,7,383,0,0,0,0,6,1,-3,3,0,0,110,53,71
28219,0,1,0,64,235,320,0,-17,407,-118,7,383,0,0,0,0,6,1,-3,3,0,0,110,53,70
28320,0,1,0,64,235,320,0,-17,407,-118,7,383,0,0,0,0,6,1,-4,2,0,0,110,53,70
28420,0,1,0,64,235,320,0,-17,407,-118,7,383,0,0,0,0,6,1,-5,2,0,0,111,53,70
28521,0,1,0,64,235,320,0,-17,407,-118,7,383,0,0,0,0,6,1,-6,2,0,0,111,53,70
28622,0,1,0,64,235,320,0,-17,407,-118,7,383,0,0,0,0,6,1,-7,1,0,0,111,53,70
28723,0,1,0,64,235,320,0,-17,407,-118,7,383,0,0,0,0,6,1,-7,1,0,0,110,53,70
28824,0,1,0,64,235,320,0,-17,407,-118,7,383,0,0,0,0,6,1,-7,1,0,0,110,53,70
28925,0,1,0,64,235,320,0,-17,407,-118,7,383,0,0,0,0,6,2,-7,1,0,0,110,53,70
29026,0,1,0,64,235,320,0,-17,407,-118,7,383,0,0,0,0,6,2,-7,1,0,1,109,53,70
29126,0,1,0,64,235,320,0,-17,407,-118,7,383,0,0,0,0,5,2,-7,1,0,2,107,53,71
29227,0,1,0,64,235,320,0,-17,407,-118,7,383,0,0,0,0,5,3,-6,1,0,3,103,53,71
29327,0,1,0,64,235,320,0,-17,407,-118,7,383,0,0,0,0,4,3,-6,1,0,4,99,53,71
29428,0,1,0,64,235,320,0,-17,407,-118,7,383,0,0,0,0,3,3,-6,1,0,5,94,53,71
29528,0,1,0,64,235,320,0,-17,407,-118,7,383,0,0,0,0,2,2,-6,1,0,6,87,53,71
29629,0,1,0,64,235,320,0,-17,407,-118,7,383,0,0,0,0,2,2,-6,1,0,6,87,53,71
29730,0,1,0,64,235,320,0,-17,407,-118,7,383,0,0,0,0,2,2,-6,2,0,7,79,53,71
29832,0,1,0,64,235,320,0,-17,407,-118,7,383,0,0,0,0,3,2,-6,2,0,8,70,53,71
29932,0,1,0,64,235,320,0,-17,407,-118,7,383,0,0,0,0,2,2,-6,1,0,9,61,53,71
30034,0,1,0,64,235,320,0,-17,407,-118,7,383,0,0,0,0,3,2,-5,1,0,9,51,53,71
30136,0,1,0,64,235,320,0,-17,407,-118,7,383,0,0,0,0,2,1,-6,1,0,9,41,53,71
30237,0,1,0,64,235,320,0,-17,407,-118,7,383,0,0,0,0,2,1,-6,0,0,8,31,53,71
30338,0,1,0,64,235,320,0,-17,407,-118,7,383,0,0,0,0,1,0,-6,0,0,7,10,53,71
30438,0,1,0,64,235,320,0,-17,407,-118,7,383,0,0,0,0,0,0,-6,0,0,6,10,52,71
30540,0,1,0,64,235,320,0,-17,407,-118,7,383,0,0,0,0,-1,0,-5,0,0,4,10,52,71
30640,0,1,0,64,235,320,0,-17,407,-118,7,383,0,0,0,0,-2,0,-5,1,0,3,10,52,71
30741,0,1,0,64,235,320,0,-17,407,-118,7,383,0,0,0,0,-3,-1,-5,1,0,2,10,52,71
30841,0,1,0,64,235,320,0,-17,407,-118,7,383,0,0,0,0,-4,-1,-5,1,0,1,10,52,71
30942,0,1,0,64,235,320,0,-17,407,-118,7,383,0,0,0,0,-4,-2,-5,1,0,0,10,52,71
31043,0,1,0,64,235,320,0,-17,407,-118,7,383,0,0,0,0,-2,-2,-5,2,0,0,10,52,71
31144,0,1,0,64,235,320,0,-17,407,-118,7,383,0,0,0,0,-1,0,-5,2,0,0,10,52,71
31245,0,1,0,64,235,320,0,-17,407,-118,7,383,0,0,0,0,-1,0,-5,3,0,0,10,52,71
31346,0,1,0,64,235,320,0,-17,407,-118,7,383,0,0,0,0,-1,0,-5,3,0,0,10,52,71
31447,0,1,0,64,235,320,0,-17,407,-118,7,383,0,0,0,0,-1,0,-5,3,-1,0,10,52,71
31548,0,1,0,64,235,320,0,-17,407,-118,7,383,0,0,0,0,-1,0,-5,3,-1,0,10,52,71
31650,0,1,0,64,235,320,0,-17,407,-118,7,383,0,0,0,0,-1,0,-5,4,-1,0,10,52,71
31751,0,1,0,64,235,320,0,-17,407,-118,7,383,0,0,0,0,-1,0,-5,4,-1,0,10,52,71
31852,0,1,0,64,235,320,0,-17,407,-118,7,383,0,0,0,0,-1,0,-5,4,-1,0,10,52,71
31953,0,1,0,64,235,320,0,-17,407,-118,7,383,0,0,0,0,-1,0,-5,4,-1,0,10,52,71
32054,0,1,0,64,235,320,0,-17,407,-118,7,383,0,0,0,0,-1,0,-5,4,-1,0,10,52,71
32155,0,1,0,64,235,320,0,-17,407,-118,7,383,0,0,0,0,-1,0,-5,4,-1,0,10,52,71
32255,0,1,0,64,235,320,0,-17,407,-118,7,383,0,0,0,0,-1,0,-5,0,0,0,10,52,71
32356,0,1,0,64,235,320,0,-17,407,-118,7,383,0,0,0,0,-1,0,-5,0,0,0,10,52,71
32457,0,1,0,64,235,320,0,-17,407,-118,7,383,0,0,0,0,-1,0,-5,0,0,0,10,52,71
32558,0,1,0,64,235,320,0,-17,407,-118,7,383,0,0,0,0,-1,0,-5,0,0,0,10,52,71
32659,0,2,0,64,235,320,0,-17,407,-118,7,383,0,0,0,0,-1,0,-5,0,0,0,10,52,71
32760,0,2,0,64,235,320,0,-17,407,-118,7,383,0,0,0,0,-1,0,-5,0,0,0,10,52,71
32861,0,2,0,64,235,320,0,-17,407,-118,7,383,0,0,0,0,-1,0,-5,0,0,0,10,52,71
32962,0,2,0,64,235,320,0,-17,407,-118,7,383,0,0,0,0,-1,0,-5,0,0,0,10,52,71
33062,0,2,0,64,235,320,0,-17,407,-118,7,383,0,0,0,0,-1,0,-5,0,0,0,10,52,71
33164,0,2,0,64,235,320,0,-17,407,-118,7,383,0,0,0,0,0,0,-5,0,0,0,10,52,71
33264,0,2,0,64,235,320,0,-17,407,-118,7,383,0,0,0,0,0,0,-5,0,0,0,10,52,71
33365,0,2,0,64,235,320,0,-17,407,-118,7,383,0,0,0,0,0,0,-5,0,0,0,10,52,71
33466,0,2,0,64,235,320,0,-17,407,-118,7,383,0,0,0,0,0,0,-5,0,0,0,10,52,71
33567,0,2,0,64,235,320,0,-17,407,-118,7,383,0,0,0,0,0,0,-5,0,0,0,10,52,71
33668,0,2,0,64,235,320,0,-17,407,-118,7,383,0,0,0,0,0,0,-5,0,0,0,10,52,71
33769,0,2,0,64,235,320,0,-17,407,-118,7,383,0,0,0,0,0,0,-5,0,0,0,10,52,71
33870,0,2,0,64,235,320,0,-17,407,-118,7,383,0,0,0,0,0,0,-5,0,0,0,10,52,71
33970,0,2,0,64,235,320,0,-17,407,-118,7,383,0,0,0,0,0,0,-5,0,0,0,10,52,71
34071,0,2,0,64,235,320,0,-17,407,-118,7,383,0,0,0,0,0,0,-5,0,0,0,10,52,71
34172,0,2,0,64,235,320,0,-17,407,-118,7,383,0,0,0,0,0,0,-5,0,0,0,10,52,71
34273,0,2,0,64,235,320,0,-17,407,-118,7,383,0,0,0,0,0,0,-5,0,0,0,10,52,71
34373,0,2,0,64,235,320,0,-17,407,-118,7,383,0,0,0,0,0,0,-5,0,0,0,10,52,71
34474,0,2,0,64,235,320,0,-17,407,-118,7,383,0,0,0,0,0,0,-5,0,0,0,10,52,71
34574,0,2,0,64,235,320,0,-17,407,-118,7,383,0,0,0,0,0,0,-5,0,0,0,10,52,71
34675,0,2,0,64,235,320,0,-17,407,-118,7,383,0,0,0,0,0,0,-5,0,0,0,10,52,71
34776,0,2,0,64,235,320,0,-17,407,-118,7,383,0,0,0,0,0,0,-5,0,0,0,10,52,71
34877,0,2,0,64,235,320,0,-17,407,-118,7,383,0,0,0,0,0,0,-5,0,0,0,10,52,71
34978,0,2,0,64,235,320,0,-17,407,-118,7,383,0,0,0,0,0,0,-5,0,0,0,10,52,71
35080,0,2,0,64,235,320,0,-17,407,-118,7,383,0,0,0,0,0,0,-5,0,0,0,10,52,71
35181,0,2,0,64,235,320,0,-17,407,-118,7,383,0,0,0,0,0,0,-5,0,0,0,10,52,71
35282,0,2,0,64,235,320,0,-17,407,-118,7,383,0,0,0,0,0,0,-5,0,0,0,10,52,71
35382,0,2,0,64,235,320,0,-17,407,-118,7,383,0,0,0,0,0,0,-5,0,0,0,10,52,71
35483,0,2,0,64,235,320,0,-17,407,-118,7,383,0,0,0,0,0,0,-5,0,0,0,10,52,71
35584,0,2,0,64,235,320,0,-17,407,-118,7,383,0,0,0,0,0,0,-5,0,0,0,10,52,71
35685,0,2,0,64,235,320,0,-17,407,-118,7,383,0,0,0,0,0,0,-5,0,0,0,10,52,71
35785,0,2,0,64,235,320,0,-17,407,-118,7,383,0,0,0,0,0,0,-5,0,0,0,10,52,71
35886,0,2,0,64,235,320,0,-17,407,-118,7,383,0,0,0,0,0,0,-5,0,0,0,10,52,71
35987,0,2,0,64,235,320,0,-17,407,-118,7,383,0,0,0,0,0,0,-5,0,0,0,10,52,71
36088,0,2,0,64,235,320,0,-17,407,-118,7,383,0,0,0,0,0,0,-5,0,0,0,10,52,71
36189,0,2,0,64,235,320,0,-17,407,-118,7,383,0,0,0,0,0,0,-5,0,0,0,10,52,71
36290,0,2,0,64,235,320,0,-17,407,-118,7,383,0,0,0,0,0,0,-5,0,0,0,10,52,71
36391,0,2,0,64,235,320,0,-17,407,-118,7,383,0,0,0,0,0,0,-5,0,0,0,10,52,71
36492,0,2,0,64,235,320,0,-17,407,-118,7,383,0,0,0,0,0,0,-5,0,0,0,10,52,71
36592,0,2,0,64,235,320,0,-17,407,-118,7,383,0,0,0,0,0,0,-5,0,0,0,10,52,71
36694,0,2,0,64,235,320,0,-17,407,-118,7,383,0,0,0,0,0,0,-5,0,0,0,10,52,71
36797,0,2,0,64,235,320,0,-17,407,-118,7,383,0,0,0,0,0,0,-5,0,0,0,10,52,71
36897,0,2,0,64,235,320,0,-17,407,-118,7,383,0,0,0,0,0,0,-5,0,0,0,10,52,71
36998,0,2,0,64,235,320,0,-17,407,-118,7,383,0,0,0,0,0,0,-5,0,0,0,10,52,71
37098,0,2,0,64,235,320,0,-17,407,-118,7,383,0,0,0,0,0,0,-5,0,0,0,10,52,71
37199,0,2,0,64,235,320,0,-17,407,-118,7,383,0,0,0,0,0,0,-5,0,0,0,10,52,71
37302,0,2,0,64,235,320,0,-17,407,-118,7,383,0,0,0,0,0,0,-5,0,0,0,10,52,72
37403,0,2,0,64,235,320,0,-17,407,-118,7,383,0,0,0,0,0,0,-5,0,0,0,10,52,72
37504,0,2,0,64,235,320,0,-17,407,-118,7,383,0,0,0,0,0,0,-5,0,0,0,10,52,72
37604,0,2,0,64,235,320,0,-17,407,-118,7,383,0,0,0,0,0,0,-5,0,0,0,10,52,72
37705,0,2,0,64,235,320,0,-17,407,-118,7,383,0,0,0,0,0,0,-5,0,0,0,10,52,72
37806,0,2,0,64,235,320,0,-17,407,-118,7,383,0,0,0,0,0,0,-5,0,0,0,10,52,72
37907,0,2,0,64,235,320,0,-17,407,-118,7,383,0,0,0,0,0,0,-5,0,0,0,10,52,72
38007,0,2,0,64,235,320,0,-17,407,-118,7,383,0,0,0,0,0,0,-5,0,0,0,10,52,72
38108,0,3,0,64,235,320,0,-17,407,-118,7,383,0,0,0,0,0,0,-5,0,0,0,10,52,72
38208,0,3,0,64,235,320,0,-17,407,-118,7,383,0,0,0,0,0,0,-5,0,0,0,10,52,72
38309,0,3,0,64,235,320,0,-17,407,-118,7,383,0,0,0,0,0,0,-5,0,0,0,10,52,71
38409,0,3,0,64,235,320,0,-17,407,-118,7,383,0,0,0,0,0,0,-5,0,0,0,10,52,71
38511,0,3,0,64,235,320,0,-17,407,-118,7,383,0,0,0,0,0,0,-5,0,0,0,10,52,71
38612,0,3,0,64,235,320,0,-17,407,-118,7,383,0,0,0,0,0,0,-5,0,0,0,10,52,71
38712,0,3,0,64,235,320,0,-17,407,-118,7,383,0,0,0,0,0,0,-5,0,0,0,10,52,71
38813,0,3,0,64,235,320,0,-17,407,-118,7,383,0,0,0,0,0,0,-5,0,0,0,10,52,71
38914,0,3,0,64,235,320,0,-17,407,-118,7,383,0,0,0,0,0,0,-5,0,0,0,10,52,71
39014,0,3,0,64,235,320,0,-17,407,-118,7,383,0,0,0,0,0,0,-5,0,0,0,10,52,71
39116,0,3,0,64,235,320,0,-17,407,-118,7,383,0,0,0,0,0,0,-5,0,0,0,10,52,71
39217,0,3,0,64,235,320,0,-17,407,-118,7,383,0,0,0,0,0,0,-5,0,0,0,10,52,71
39319,0,3,0,64,235,320,0,-17,407,-118,7,383,0,0,0,0,0,0,-5,0,0,0,10,52,72
39420,0,3,0,64,235,320,0,-17,407,-118,7,383,0,0,0,0,0,0,-5,0,0,0,10,52,72
39521,0,3,0,64,235,320,0,-17,407,-118,7,383,0,0,0,0,0,0,-5,0,0,0,10,52,72
39622,0,3,0,64,235,320,0,-17,407,-118,7,383,0,0,0,0,0,0,-5,0,0,0,10,52,72
39722,0,3,0,64,235,320,0,-17,407,-118,7,383,0,0,0,0,0,0,-5,0,0,0,10,52,72
39823,0,3,0,64,235,320,0,-17,407,-118,7,383,0,0,0,0,0,0,-5,0,0,0,10,52,72
39924,0,3,0,64,235,320,0,-17,407,-118,7,383,0,0,0,0,-1,0,-2,0,0,0,10,52,72
40024,0,3,0,64,235,320,0,-17,407,-118,7,383,0,0,0,0,0,0,-3,0,0,-1,10,52,72
40125,0,3,0,64,235,320,0,-17,407,-118,7,383,0,0,0,0,0,0,-5,0,0,-2,10,52,72
40226,0,3,0,64,235,320,0,-17,407,-118,7,383,0,0,0,0,0,0,-6,0,0,-3,10,52,72
40327,0,3,0,64,235,320,0,-17,407,-118,7,383,0,0,0,0,0,1,-5,0,0,-3,10,52,72
40427,0,3,0,64,235,320,0,-17,407,-118,7,383,0,0,0,0,-1,1,-4,0,0,-4,10,52,72
40528,0,3,0,64,235,320,0,-17,407,-118,7,383,0,0,0,0,0,2,-4,0,0,-4,10,52,72
40628,0,3,0,64,235,320,0,-17,407,-118,7,383,0,0,0,0,-1,3,-4,0,0,-5,10,52,72
40729,0,3,0,64,235,320,0,-17,407,-118,7,383,0,0,0,0,-2,4,-4,0,0,-5,30,52,72
40831,0,3,0,64,235,320,0,-17,407,-118,7,383,0,0,0,0,-2,4,-4,0,0,-5,30,52,72
40932,0,3,0,64,235,320,0,-17,407,-118,7,383,0,0,0,0,-1,5,-6,0,0,-4,42,52,72
41033,0,3,0,64,235,320,0,-17,407,-118,7,383,0,0,0,0,-1,6,-7,0,0,-4,48,52,72
41134,0,3,0,64,235,320,0,-17,407,-118,7,383,0,0,0,0,-1,7,-7,0,0,-4,54,52,72
41235,0,3,0,64,235,320,0,-17,407,-118,7,383,0,0,0,0,-1,7,-7,0,0,-4,54,52,72
41336,0,3,0,64,235,320,0,-17,407,-118,7,383,0,0,0,0,-1,7,-8,0,0,-3,60,52,73
41436,0,3,0,64,235,320,0,-17,407,-118,7,383,0,0,0,0,-1,7,-8,0,0,-3,69,52,73
41537,0,3,0,64,235,320,0,-17,407,-118,7,383,0,0,0,0,-2,7,-7,0,0,-2,79,52,73
41638,0,3,0,64,235,320,0,-17,407,-118,7,383,0,0,0,0,-2,7,-6,0,0,-2,82,52,73
41739,0,3,0,64,235,320,0,-17,407,-118,7,383,0,0,0,0,-1,7,-7,0,0,-1,85,52,73
41841,0,3,0,64,235,320,0,-17,407,-118,7,383,0,0,0,0,0,6,-7,0,0,0,86,52,73
41942,0,3,0,64,235,320,0,-17,407,-118,7,383,0,0,0,0,0,5,-7,0,0,0,87,52,73
42043,0,3,0,64,235,320,0,-17,407,-118,7,383,0,0,0,0,0,5,-8,0,0,0,87,52,73
42144,0,3,0,64,235,320,0,-17,407,-118,7,383,0,0,0,0,0,5,-8,0,0,0,87,52,73
42245,0,3,0,64,235,320,0,-17,407,-118,7,383,0,0,0,0,0,5,-7,0,0,0,87,52,73
42346,0,3,0,64,235,320,0,-17,407,-118,7,383,0,0,0,0,-1,5,-7,0,0,0,87,52,73
42446,0,3,0,64,235,320,0,-17,407,-118,7,383,0,0,0,0,-1,4,-6,0,0,0,87,52,73
42547,0,3,0,64,235,320,0,-17,407,-118,7,383,0,0,0,0,-1,5,-5,0,0,0,87,52,73
42648,0,3,0,64,235,320,0,-17,407,-118,7,383,0,0,0,0,0,5,-3,0,0,0,87,52,73
42749,0,3,0,64,235,320,0,-17,407,-118,7,383,0,0,0,0,0,5,-1,0,0,0,87,52,73
42850,0,3,0,64,235,320,0,-17,407,-118,7,383,0,0,0,0,0,5,1,0,0,0,86,52,73
42951,0,3,0,64,235,320,0,-17,407,-118,7,383,0,0,0,0,0,5,3,0,0,0,86,52,73
43051,0,3,0,64,235,320,0,-17,407,-118,7,383,0,0,0,0,0,5,7,0,0,0,86,52,73
43152,0,3,0,64,235,320,0,-17,407,-118,7,383,0,0,0,0,0,4,10,0,0,0,86,52,73
43253,0,3,0,64,235,320,0,-17,407,-118,7,383,0,0,0,0,0,5,14,0,1,0,86,52,73
43353,0,3,0,64,235,320,0,-17,407,-118,7,383,0,0,0,0,0,5,19,0,1,0,86,52,73
43454,0,3,0,64,235,320,0,-17,407,-118,7,383,0,0,0,0,-1,5,25,0,1,0,85,52,73
43555,0,3,0,64,235,320,0,-17,407,-118,7,383,0,0,0,0,0,6,30,0,1,0,84,52,73
43657,0,3,0,64,235,320,0,-17,407,-118,7,383,0,0,0,0,0,6,36,0,1,0,84,52,73
43758,0,3,0,64,235,320,0,-17,407,-118,7,383,0,0,0,0,0,6,42,0,1,0,84,52,73
43859,0,3,0,64,235,320,0,-17,407,-118,7,383,0,0,0,0,-1,6,47,0,1,0,84,52,73
43959,0,3,0,64,235,320,0,-17,407,-118,7,383,0,0,0,0,-1,6,47,0,1,0,84,52,73
44060,0,3,0,64,235,320,0,-17,407,-118,7,383,0,0,0,0,-1,6,58,0,0,0,85,52,73
44161,0,3,0,64,235,320,0,-17,407,-118,7,383,0,0,0,0,-1,6,65,0,0,0,85,52,73
44262,0,3,0,64,235,320,0,-17,407,-118,7,383,0,0,0,0,-1,5,73,0,0,0,85,52,72
44363,0,3,0,64,235,320,0,-17,407,-118,7,383,0,0,0,0,-1,5,80,0,0,0,85,52,72
44464,0,3,0,64,235,320,0,-17,407,-118,7,383,0,0,0,0,-1,5,80,0,0,0,85,52,72
44564,0,3,0,64,235,320,0,-17,407,-118,7,383,0,0,0,0,-4,4,97,0,-1,0,85,51,72
44665,0,3,0,64,235,320,0,-17,407,-118,7,383,0,0,0,0,-5,4,105,0,-1,0,86,51,72
44766,0,3,0,64,235,320,0,-17,407,-118,7,383,0,0,0,0,-5,3,113,0,-1,0,86,51,72
44867,0,3,0,64,235,320,0,-17,407,-118,7,383,0,0,0,0,-5,3,121,0,-1,0,85,51,72
44968,0,3,0,64,235,320,0,-17,407,-118,7,383,0,0,0,0,-5,3,128,0,-1,0,85,51,72
45069,0,3,0,64,235,320,0,-17,407,-118,7,383,0,0,0,0,-4,3,136,0,-1,0,86,51,72
45169,0,3,0,64,235,320,0,-17,407,-118,7,383,0,0,0,0,-3,3,143,0,-1,0,86,51,72
45270,0,3,0,64,235,320,0,-17,407,-118,7,383,0,0,0,0,-2,3,150,0,-1,0,86,51,73
45371,0,3,0,64,235,320,0,-17,407,-118,7,383,0,0,0,0,-1,3,156,0,-1,0,86,51,73
45472,0,3,0,64,235,320,0,-17,407,-118,7,383,0,0,0,0,-1,3,161,0,-1,0,87,51,73
45573,0,3,0,64,235,320,0,-17,407,-118,7,383,0,0,0,0,-1,3,166,1,-1,0,87,51,73
45673,0,3,0,64,235,320,0,-17,407,-118,7,383,0,0,0,0,-1,3,170,1,-1,0,87,51,73
45774,0,3,0,64,235,320,0,-17,407,-118,7,383,0,0,0,0,-1,2,173,1,-1,0,87,51,73
45875,0,3,0,64,235,320,0,-17,407,-118,7,383,0,0,0,0,-1,2,175,1,0,0,86,51,73
45976,0,3,0,64,235,320,0,-17,407,-118,7,383,0,0,0,0,-1,2,177,0,0,0,85,51,73
46077,0,3,0,64,235,320,0,-17,407,-118,7,383,0,0,0,0,-2,2,178,0,0,0,85,51,73
46177,0,3,0,64,235,320,0,-17,407,-118,7,383,0,0,0,0,-1,2,178,0,0,0,85,51,73
46278,0,3,0,64,235,320,0,-17,407,-118,7,383,0,0,0,0,-2,2,179,0,0,0,84,51,73
46379,0,3,0,64,235,320,0,-17,407,-118,7,383,0,0,0,0,-2,2,179,0,0,0,84,51,73
46480,0,3,0,64,235,320,0,-17,407,-118,7,383,0,0,0,0,-2,2,179,0,0,0,83,51,73
46581,0,3,0,64,235,320,0,-17,407,-118,7,383,0,0,0,0,-2,2,-179,0,0,0,83,51,73
46682,0,3,0,64,235,320,0,-17,407,-118,7,383,0,0,0,0,-2,2,-179,-1,0,0,83,51,73
46782,0,3,0,64,235,320,0,-17,407,-118,7,383,0,0,0,0,-2,2,-179,-1,0,0,82,51,73
46883,0,3,0,64,235,320,0,-17,407,-118,7,383,0,0,0,0,-2,2,-179,-2,0,0,82,51,73
46984,0,3,0,64,235,320,0,-17,407,-118,7,383,0,0,0,0,-1,2,-178,-2,-1,0,83,51,73
47085,0,3,0,64,235,320,0,-17,407,-118,7,383,0,0,0,0,-1,2,-178,-2,-1,0,83,51,73
47186,0,3,0,64,235,320,0,-17,407,-118,7,383,0,0,0,0,0,3,-178,-3,-1,0,84,51,73
47286,0,3,0,64,235,320,0,-17,407,-118,7,383,0,0,0,0,0,3,-179,-3,-1,0,85,51,73
47387,0,3,0,64,235,320,0,-17,407,-118,7,383,0,0,0,0,0,3,-179,-3,-1,0,86,51,73
47488,0,3,0,64,235,320,0,-17,407,-118,7,383,0,0,0,0,0,4,-179,-3,-1,-1,87,51,73
47589,0,3,0,64,235,320,0,-17,407,-118,7,383,0,0,0,0,0,4,179,-4,0,-1,89,51,73
47690,0,3,0,64,235,320,0,-17,407,-118,7,383,0,0,0,0,0,3,179,-4,0,-2,91,51,73
47791,0,3,0,64,235,320,0,-17,407,-118,7,383,0,0,0,0,1,4,-179,-5,0,-3,95,51,73
47892,0,3,0,64,235,320,0,-17,407,-118,7,383,0,0,0,0,1,4,-179,-4,0,-4,98,51,73
47993,0,3,0,64,235,320,0,-17,407,-118,7,383,0,0,0,0,2,4,-179,-5,0,-4,104,51,73
48094,0,3,0,64,235,320,0,-17,407,-118,7,383,0,0,0,0,2,3,-179,-5,-1,-5,109,51,73
48194,0,3,0,64,235,320,0,-17,407,-118,7,383,0,0,0,0,4,3,179,-5,0,-4,114,51,73
48295,0,3,0,64,235,320,0,-17,407,-118,7,383,0,0,0,0,6,3,179,-6,-1,-4,119,51,73
48395,0,3,0,64,235,320,0,-17,407,-118,7,383,0,0,0,0,7,3,178,-6,-1,-4,124,51,73
48496,0,3,0,64,235,320,0,-17,407,-118,7,383,0,0,0,0,7,2,177,-6,-1,-3,127,51,73
48597,0,3,0,64,235,320,0,-17,407,-118,7,383,0,0,0,0,7,1,175,-6,-1,-4,131,51,73
48698,0,3,0,64,235,320,0,-17,407,-118,7,383,0,0,0,0,7,0,174,-6,-2,-4,136,51,73
48799,0,3,0,64,235,320,0,-17,407,-118,7,383,0,0,0,0,6,1,172,-6,-1,-5,141,51,73
48899,0,3,0,64,235,320,0,-17,407,-118,7,383,0,0,0,0,6,0,172,-6,-1,-5,146,51,73
49000,0,3,0,64,235,320,0,-17,407,-118,7,383,0,0,0,0,8,-1,172,-6,-1,-4,152,51,73
49101,0,3,0,64,235,320,0,-17,407,-118,7,383,0,0,0,0,9,-1,173,-6,-1,-4,158,51,73
49203,0,3,0,64,235,320,0,-17,407,-118,7,383,0,0,0,0,10,0,174,-6,-1,-3,162,51,73
49304,0,3,0,64,235,320,0,-17,407,-118,7,383,0,0,0,0,12,0,175,-6,-1,-3,167,51,73
49405,0,3,0,64,235,320,0,-17,407,-118,7,383,0,0,0,0,12,0,176,-6,-1,-3,171,51,73
49506,0,3,0,64,235,320,0,-17,407,-118,7,383,0,0,0,0,11,-1,178,-7,-1,-3,173,51,73
49607,0,3,0,64,235,320,0,-17,407,-118,7,383,0,0,0,0,12,0,179,-6,0,-2,177,51,73
49708,0,3,0,64,235,320,0,-17,407,-118,7,383,0,0,0,0,12,-2,-179,-7,-1,-2,179,51,73
49810,0,3,0,64,235,320,0,-17,407,-118,7,383,0,0,0,0,11,-4,-178,-7,0,-1,180,51,73
49911,0,3,0,64,235,320,0,-17,407,-118,7,383,0,0,0,0,10,-5,-178,-7,-1,0,181,51,73
50011,0,3,0,64,235,320,0,-17,407,-118,7,383,0,0,0,0,9,-5,-178,-7,0,0,180,51,73
50112,0,3,0,64,235,320,0,-17,407,-118,7,383,0,0,0,0,8,-6,-179,-8,0,0,181,51,73
50213,0,3,0,64,235,320,0,-17,407,-118,7,383,0,0,0,0,8,-7,178,-8,0,0,180,51,73
50314,0,3,0,64,235,320,0,-17,407,-118,7,383,0,0,0,0,7,-7,175,-8,0,2,179,51,73
50415,0,3,0,64,235,320,0,-17,407,-118,7,383,0,0,0,0,6,-7,173,-9,0,2,175,51,73
50516,0,3,0,64,235,320,0,-17,407,-118,7,383,0,0,0,0,5,-7,171,-9,0,3,171,51,73
50616,0,3,0,64,235,320,0,-17,407,-118,7,383,0,0,0,0,5,-8,170,-9,0,4,166,51,73
50717,0,3,0,64,235,320,0,-17,407,-118,7,383,0,0,0,0,6,-8,169,-9,0,5,162,51,73
50818,0,3,0,64,235,320,0,-17,407,-118,7,383,0,0,0,0,6,-8,168,-8,0,5,158,51,73
50920,0,3,1,62,834,303,25,25,318,131,11,285,0,0,0,0,6,-8,168,-8,0,4,152,51,73
51021,0,3,1,62,834,303,25,25,318,131,11,285,0,0,0,0,6,-7,168,-7,0,4,147,51,73
51123,0,3,0,62,834,303,0,25,318,131,11,285,0,0,0,0,6,-8,167,-7,0,5,141,51,73
51224,0,3,0,62,834,303,0,25,318,131,11,285,0,0,0,0,6,-7,165,-7,1,5,129,51,75
51325,0,3,0,62,834,303,0,25,318,131,11,285,0,0,0,0,6,-7,165,-7,1,5,129,51,75
51427,0,3,0,62,834,303,0,25,318,131,11,285,0,0,0,0,6,-6,165,-7,1,5,123,51,75
51527,0,3,0,62,834,303,0,25,318,131,11,285,0,0,0,0,5,-6,165,-7,0,5,117,51,75
51628,0,3,0,62,834,303,0,25,318,131,11,285,0,0,0,0,5,-6,164,-7,0,4,112,51,75
51729,0,3,0,62,834,303,0,25,318,131,11,285,0,0,0,0,5,-5,167,-7,1,4,103,51,75
51829,0,3,0,62,834,303,0,25,318,131,11,285,0,0,0,0,5,-5,167,-7,1,4,103,51,75
51930,0,3,0,62,834,303,0,25,318,131,11,285,0,0,0,0,8,-6,168,-6,1,3,96,51,75
52031,0,3,0,62,834,303,0,25,318,131,11,285,0,0,0,0,8,-6,168,-6,1,3,96,51,75
52132,0,3,0,62,834,303,0,25,318,131,11,285,0,0,0,0,9,-5,169,-6,1,3,93,51,75
52233,0,3,0,62,834,303,0,25,318,131,11,285,0,0,0,0,8,-5,169,-6,1,3,89,51,75
52334,0,3,0,62,834,303,0,25,318,131,11,285,0,0,0,0,7,-4,170,-6,1,3,83,51,74
52435,0,3,0,62,834,303,0,25,318,131,11,285,0,0,0,0,8,-5,170,-7,1,3,79,51,74
52536,0,3,0,62,834,303,0,25,318,131,11,285,0,0,0,0,8,-4,170,-7,1,2,77,51,74
52644,0,3,0,62,834,303,0,25,318,131,11,285,0,0,0,0,7,-3,171,-7,0,0,75,51,74
52745,0,3,0,62,834,303,0,25,318,131,11,285,0,0,0,0,6,-3,171,-8,0,0,76,51,74
52846,0,3,0,62,834,303,0,25,318,131,11,285,0,0,0,0,6,-3,171,-8,0,0,76,51,74
52947,0,3,0,62,834,303,0,25,318,131,11,285,0,0,0,0,5,-3,172,-8,1,-1,77,51,74
53048,0,3,0,62,834,303,0,25,318,131,11,285,0,0,0,0,5,-2,173,-8,2,0,78,51,74
53149,0,3,0,62,834,303,0,25,318,131,11,285,0,0,0,0,3,-2,173,-8,2,0,79,51,74
53250,0,3,0,62,834,303,0,25,318,131,11,285,0,0,0,0,2,-1,174,-8,2,-1,81,51,74
53351,0,3,0,62,834,303,0,25,318,131,11,285,0,0,0,0,0,0,175,-8,1,-2,84,51,74
53452,0,3,0,62,834,303,0,25,318,131,11,285,0,0,0,0,-1,0,176,-8,1,-4,88,51,74
53553,0,3,0,62,834,303,0,25,318,131,11,285,0,0,0,0,-2,0,177,-8,0,-4,93,51,74
53654,0,3,0,62,834,303,0,25,318,131,11,285,0,0,0,0,-1,0,177,-9,0,-5,98,51,74
53755,0,3,0,62,834,303,0,25,318,131,11,285,0,0,0,0,0,0,177,-9,0,-5,104,51,74
53855,0,3,0,62,834,303,0,25,318,131,11,285,0,0,0,0,0,1,176,-8,1,-5,109,51,74
53957,0,3,0,62,834,303,0,25,318,131,11,285,0,0,0,0,2,2,175,-8,1,-6,116,51,74
54058,0,3,0,62,834,303,0,25,318,131,11,285,0,0,0,0,4,1,173,-8,0,-6,122,51,74
54158,0,3,0,62,834,303,0,25,318,131,11,285,0,0,0,0,5,0,172,-7,0,-6,128,51,74
54259,0,3,0,62,834,303,0,25,318,131,11,285,0,0,0,0,5,0,171,-7,0,-6,134,51,74
54360,0,3,0,62,834,303,0,25,318,131,11,285,0,0,0,0,6,-1,170,-7,0,-5,140,51,75
54461,0,3,0,62,834,303,0,25,318,131,11,285,0,0,0,0,7,-1,171,-6,0,-5,146,51,75
54562,0,3,0,62,834,303,0,25,318,131,11,285,0,0,0,0,9,0,172,-6,0,-6,153,51,75
54663,0,3,0,62,834,303,0,25,318,131,11,285,0,0,0,0,12,0,174,-5,0,-5,167,51,75
54764,0,3,0,62,834,303,0,25,318,131,11,285,0,0,0,0,12,0,174,-5,0,-4,170,51,75
54864,0,3,0,62,834,303,0,25,318,131,11,285,0,0,0,0,12,0,175,-5,0,-3,174,51,75
54966,0,3,0,62,834,303,0,25,318,131,11,285,0,0,0,0,12,0,176,-6,0,-2,178,51,75
55067,0,3,0,62,834,303,0,25,318,131,11,285,0,0,0,0,14,0,176,-6,0,-2,181,51,75
55168,0,3,0,62,834,303,0,25,318,131,11,285,0,0,0,0,14,0,175,-6,0,-1,182,51,75
55268,0,3,0,62,834,303,0,25,318,131,11,285,0,0,0,0,14,0,175,-7,0,0,183,51,74
55369,0,3,0,62,834,303,0,25,318,131,11,285,0,0,0,0,14,0,175,-7,0,0,183,51,74
55470,0,3,0,62,834,303,0,25,318,131,11,285,0,0,0,0,13,0,176,-6,0,0,180,51,74
55571,0,3,0,62,834,303,0,25,318,131,11,285,0,0,0,0,13,0,177,-6,0,1,179,51,74
55672,0,3,0,62,834,303,0,25,318,131,11,285,0,0,0,0,12,-1,177,-6,0,2,176,51,74
55773,0,3,0,62,834,303,0,25,318,131,11,285,0,0,0,0,12,-2,177,-6,0,2,173,51,74
55873,0,3,0,62,834,303,0,25,318,131,11,285,0,0,0,0,11,-1,177,-6,0,3,169,51,74
55974,0,3,0,62,834,303,0,25,318,131,11,285,0,0,0,0,11,-2,177,-6,0,4,164,51,74
56075,0,3,0,62,834,303,0,25,318,131,11,285,0,0,0,0,10,-2,176,-5,0,4,158,51,74
56176,0,3,0,62,834,303,0,25,318,131,11,285,0,0,0,0,10,-2,176,-5,0,4,158,51,74
56277,0,3,0,62,834,303,0,25,318,131,11,285,0,0,0,0,9,-3,174,-4,0,5,147,51,75
56379,0,3,0,62,834,303,0,25,318,131,11,285,0,0,0,0,9,-4,173,-4,0,5,140,51,75
56480,0,3,0,62,834,303,0,25,318,131,11,285,0,0,0,0,8,-3,172,-3,0,5,134,51,75
56580,0,3,0,62,834,303,0,25,318,131,11,285,0,0,0,0,7,-3,171,-3,0,6,127,51,75
56681,0,3,0,62,834,303,0,25,318,131,11,285,0,0,0,0,6,-2,171,-3,0,6,120,51,75
56782,0,3,0,62,834,303,0,25,318,131,11,285,0,0,0,0,4,-1,171,-2,0,6,112,51,75
56883,0,3,0,62,834,303,0,25,318,131,11,285,0,0,0,0,2,0,172,-2,0,6,106,51,75
56984,0,3,0,62,834,303,0,25,318,131,11,285,0,0,0,0,2,0,173,-2,0,6,99,51,75
57084,0,3,0,62,834,303,0,25,318,131,11,285,0,0,0,0,2,0,173,-2,0,6,99,51,75
57186,0,3,0,62,834,303,0,25,318,131,11,285,0,0,0,0,1,0,173,-2,0,6,93,51,75
57287,0,3,0,62,834,303,0,25,318,131,11,285,0,0,0,0,1,0,174,-2,0,7,85,51,75
57388,0,3,0,62,834,303,0,25,318,131,11,285,0,0,0,0,2,-1,174,-1,0,7,78,51,75
57489,0,3,0,62,834,303,0,25,318,131,11,285,0,0,0,0,2,-1,174,-1,0,8,70,51,75
57590,0,3,0,62,834,303,0,25,318,131,11,285,0,0,0,0,1,0,174,-1,0,7,61,51,75
57690,0,3,0,62,834,303,0,25,318,131,11,285,0,0,0,0,1,0,174,-1,0,6,53,51,75
57791,0,3,0,62,834,303,0,25,318,131,11,285,0,0,0,0,0,0,175,0,0,6,47,51,75
57892,0,3,0,62,834,303,0,25,318,131,11,285,0,0,0,0,0,0,176,0,0,6,39,51,75
57993,0,3,0,62,834,303,0,25,318,131,11,285,0,0,0,0,-1,0,177,0,0,5,33,51,75
58093,0,3,0,62,834,303,0,25,318,131,11,285,0,0,0,0,-1,0,179,-1,0,4,10,51,75
58194,0,3,0,62,834,303,0,25,318,131,11,285,0,0,0,0,-1,-1,179,-1,0,3,10,51,75
58294,0,3,0,62,834,303,0,25,318,131,11,285,0,0,0,0,-2,-1,179,-1,0,2,10,51,75
58395,0,3,0,62,834,303,0,25,318,131,11,285,0,0,0,0,-2,-1,178,-1,0,2,10,51,75
58497,0,3,0,62,834,303,0,25,318,131,11,285,0,0,0,0,-2,-1,178,-1,0,2,10,51,75
58598,0,3,0,62,834,303,0,25,318,131,11,285,0,0,0,0,-3,-1,179,-1,0,1,10,51,75
58699,0,3,0,62,834,303,0,25,318,131,11,285,0,0,0,0,-4,-2,179,-2,0,1,10,51,75
58799,0,3,0,62,834,303,0,25,318,131,11,285,0,0,0,0,-4,-2,178,-2,0,0,10,51,75
58900,0,3,0,62,834,303,0,25,318,131,11,285,0,0,0,0,-2,-2,178,-2,0,0,10,51,75
59001,0,3,0,62,834,303,0,25,318,131,11,285,0,0,0,0,-2,-2,178,-2,0,0,10,51,75
59101,0,3,0,62,834,303,0,25,318,131,11,285,0,0,0,0,-1,0,178,-3,0,0,10,51,75
59202,0,3,0,62,834,303,0,25,318,131,11,285,0,0,0,0,-1,0,178,-3,0,0,10,51,75
59304,0,3,0,62,834,303,0,25,318,131,11,285,0,0,0,0,-1,0,178,-4,0,0,10,51,74
59406,0,3,0,62,834,303,0,25,318,131,11,285,0,0,0,0,-1,0,178,-4,0,0,10,51,74
59507,0,3,0,62,834,303,0,25,318,131,11,285,0,0,0,0,-1,0,178,-4,0,0,10,51,74
59608,0,3,0,62,834,303,0,25,318,131,11,285,0,0,0,0,-1,0,178,-4,0,0,10,51,74
59709,0,3,0,62,834,303,0,25,318,131,11,285,0,0,0,0,-1,0,178,-5,0,0,10,51,74
59810,0,3,0,62,834,303,0,25,318,131,11,285,0,0,0,0,-1,0,178,-5,0,0,10,51,74
59912,0,3,0,62,834,303,0,25,318,131,11,285,0,0,0,0,-1,0,178,-5,0,0,10,51,74
60013,0,3,0,62,834,303,0,25,318,131,11,285,0,0,0,0,-1,0,178,-5,0,0,10,51,74
60113,0,4,0,62,834,303,0,25,318,131,11,285,0,0,0,0,-1,0,178,0,0,0,10,51,74
60215,0,4,0,62,834,303,0,25,318,131,11,285,0,0,0,0,-1,0,178,0,0,0,10,51,74
60316,0,4,0,62,834,303,0,25,318,131,11,285,0,0,0,0,-1,0,178,0,0,0,10,51,74
60417,0,4,0,62,834,303,0,25,318,131,11,285,0,0,0,0,-1,0,178,0,0,0,10,51,74
60518,0,4,0,62,834,303,0,25,318,131,11,285,0,0,0,0,-1,0,178,0,0,0,10,51,74
60618,0,4,0,62,834,303,0,25,318,131,11,285,0,0,0,0,-1,0,178,0,0,0,10,51,74
60719,0,4,0,62,834,303,0,25,318,131,11,285,0,0,0,0,-1,0,178,0,0,0,10,51,74
60820,0,4,0,62,834,303,0,25,318,131,11,285,0,0,0,0,-1,0,178,0,0,0,10,51,74
60922,0,4,0,62,834,303,0,25,318,131,11,285,0,0,0,0,-1,0,178,0,0,0,10,51,74
61023,0,4,0,62,834,303,0,25,318,131,11,285,0,0,0,0,-1,0,178,0,0,0,10,51,74
61124,0,4,0,62,834,303,0,25,318,131,11,285,0,0,0,0,-1,0,178,0,0,0,10,51,74
61225,0,4,0,62,834,303,0,25,318,131,11,285,0,0,0,0,-1,0,178,0,0,0,10,51,74
61326,0,4,0,62,834,303,0,25,318,131,11,285,0,0,0,0,-1,0,178,0,0,0,10,51,75
61426,0,4,0,62,834,303,0,25,318,131,11,285,0,0,0,0,-1,0,178,0,0,0,10,51,75
61527,0,4,0,62,834,303,0,25,318,131,11,285,0,0,0,0,-1,0,178,0,0,0,10,51,75
61628,0,4,0,62,834,303,0,25,318,131,11,285,0,0,0,0,-1,0,178,0,0,0,10,51,75
61729,0,4,0,62,834,303,0,25,318,131,11,285,0,0,0,0,-1,0,178,0,0,0,10,51,75
61829,0,4,0,62,834,303,0,25,318,131,11,285,0,0,0,0,-1,0,178,0,0,0,10,51,75
61930,0,4,0,62,834,303,0,25,318,131,11,285,0,0,0,0,-1,0,178,0,0,0,10,51,75
62030,0,4,0,62,834,303,0,25,318,131,11,285,0,0,0,0,0,0,178,0,0,0,10,51,75
