timestamp,trackMode,telSeqId,personCount,personConfidence,faceXPx,faceYPx,faceRadiusPx,angle_err,estimatedDistance,estimatedXPos,estimatedYPos,estimatedZPos,Uyaw,Uz,Ux,Uy,pitch,roll,yaw,vx,vy,vz,tof,batt,temp
9109,0,0,0,0,0,0,0,0,0,0,0,0,0,0,0,0,3,6,-97,0,0,0,10,92,59
9213,0,0,0,0,0,0,0,0,0,0,0,0,0,0,0,0,3,6,-97,0,0,0,10,92,59
9314,0,0,0,0,0,0,0,0,0,0,0,0,0,0,0,0,3,6,-97,0,0,0,10,92,59
9416,0,0,0,0,0,0,0,0,0,0,0,0,0,0,0,0,3,6,-97,0,0,0,10,92,59
9517,0,0,0,0,0,0,0,0,0,0,0,0,0,0,0,0,3,6,-97,0,0,0,10,92,59
9619,0,0,0,0,0,0,0,0,0,0,0,0,0,0,0,0,3,6,-97,0,0,0,10,92,59
9720,0,0,0,0,0,0,0,0,0,0,0,0,0,0,0,0,3,6,-97,0,0,0,10,92,59
9822,0,0,0,0,0,0,0,0,0,0,0,0,0,0,0,0,3,6,-97,0,0,0,10,92,59
9923,0,0,0,0,0,0,0,0,0,0,0,0,0,0,0,0,3,6,-97,0,0,0,10,92,59
10024,0,0,0,0,0,0,0,0,0,0,0,0,0,0,0,0,3,6,-97,0,0,0,10,92,59
10126,0,0,0,0,0,0,0,0,0,0,0,0,0,0,0,0,3,6,-97,0,0,0,10,92,59
10227,0,0,0,0,0,0,0,0,0,0,0,0,0,0,0,0,3,6,-97,0,0,0,10,92,59
10329,0,0,0,0,0,0,0,0,0,0,0,0,0,0,0,0,3,6,-97,0,0,0,10,92,59
10430,0,0,0,0,0,0,0,0,0,0,0,0,0,0,0,0,3,6,-97,0,0,0,10,92,59
10531,0,0,0,0,0,0,0,0,0,0,0,0,0,0,0,0,3,6,-97,0,0,0,10,92,59
10633,0,0,0,0,0,0,0,0,0,0,0,0,0,0,0,0,3,6,-97,0,0,0,10,92,60
10734,0,0,0,0,0,0,0,0,0,0,0,0,0,0,0,0,3,6,-97,0,0,0,10,92,60
10835,0,0,0,0,0,0,0,0,0,0,0,0,0,0,0,0,3,6,-97,0,0,0,10,92,60
10937,0,0,0,0,0,0,0,0,0,0,0,0,0,0,0,0,3,6,-97,0,0,0,10,92,60
11038,0,0,0,0,0,0,0,0,0,0,0,0,0,0,0,0,3,6,-97,0,0,0,10,92,60
11139,0,0,0,0,0,0,0,0,0,0,0,0,0,0,0,0,3,6,-97,0,0,0,10,92,60
11241,0,0,0,0,0,0,0,0,0,0,0,0,0,0,0,0,3,6,-97,0,0,0,10,92,60
11342,0,0,0,0,0,0,0,0,0,0,0,0,0,0,0,0,3,6,-97,0,0,0,10,92,60
11444,0,0,0,0,0,0,0,0,0,0,0,0,0,0,0,0,3,6,-97,0,0,0,10,92,60
11545,0,0,0,0,0,0,0,0,0,0,0,0,0,0,0,0,3,6,-97,0,0,0,10,92,60
11646,0,0,0,0,0,0,0,0,0,0,0,0,0,0,0,0,3,6,-97,0,0,0,10,92,60
11747,0,0,0,0,0,0,0,0,0,0,0,0,0,0,0,0,3,6,-97,0,0,0,10,92,60
11848,0,0,0,0,0,0,0,0,0,0,0,0,0,0,0,0,3,6,-97,0,0,0,10,92,60
11948,0,0,0,0,0,0,0,0,0,0,0,0,0,0,0,0,3,6,-97,0,0,0,10,92,60
12049,0,0,0,0,0,0,0,0,0,0,0,0,0,0,0,0,3,6,-97,0,0,0,10,92,60
12150,0,0,0,0,0,0,0,0,0,0,0,0,0,0,0,0,3,6,-97,0,0,0,10,92,60
12250,0,0,0,0,0,0,0,0,0,0,0,0,0,0,0,0,3,6,-97,0,0,0,10,92,60
12352,0,0,0,0,0,0,0,0,0,0,0,0,0,0,0,0,3,6,-97,0,0,0,10,92,60
12453,0,0,0,0,0,0,0,0,0,0,0,0,0,0,0,0,3,6,-97,0,0,0,10,92,60
12554,0,0,0,0,0,0,0,0,0,0,0,0,0,0,0,0,3,6,-97,0,0,0,10,92,60
12655,0,0,0,0,0,0,0,0,0,0,0,0,0,0,0,0,3,6,-97,0,0,0,10,92,61
12756,0,0,0,0,0,0,0,0,0,0,0,0,0,0,0,0,3,6,-97,0,0,0,10,92,61
12857,0,0,0,0,0,0,0,0,0,0,0,0,0,0,0,0,3,6,-97,0,0,0,10,92,61
12958,0,0,0,0,0,0,0,0,0,0,0,0,0,0,0,0,3,6,-97,0,0,0,10,92,61
13059,0,0,0,0,0,0,0,0,0,0,0,0,0,0,0,0,3,6,-97,0,0,0,10,92,61
13160,0,0,0,0,0,0,0,0,0,0,0,0,0,0,0,0,3,6,-97,0,0,0,10,92,61
13261,0,0,0,0,0,0,0,0,0,0,0,0,0,0,0,0,3,6,-97,0,0,0,10,92,61
13362,0,0,0,0,0,0,0,0,0,0,0,0,0,0,0,0,3,6,-97,0,0,0,10,92,61
13462,0,0,0,0,0,0,0,0,0,0,0,0,0,0,0,0,3,6,-97,0,0,0,10,92,61
13563,0,0,0,0,0,0,0,0,0,0,0,0,0,0,0,0,3,6,-97,0,0,0,10,92,61
13664,0,0,0,0,0,0,0,0,0,0,0,0,0,0,0,0,3,6,-97,0,0,0,10,92,60
13765,0,0,0,0,0,0,0,0,0,0,0,0,0,0,0,0,3,6,-97,0,0,0,10,92,60
13866,0,0,0,0,0,0,0,0,0,0,0,0,0,0,0,0,3,6,-97,0,0,0,10,92,60
13967,0,0,0,0,0,0,0,0,0,0,0,0,0,0,0,0,3,6,-97,0,0,0,10,92,60
14073,0,0,0,0,0,0,0,0,0,0,0,0,0,0,0,0,3,6,-97,0,0,0,10,92,60
14174,0,0,0,0,0,0,0,0,0,0,0,0,0,0,0,0,3,6,-97,0,0,0,10,92,60
14274,0,0,0,0,0,0,0,0,0,0,0,0,0,0,0,0,3,6,-97,0,0,0,10,92,60
14375,0,0,0,0,0,0,0,0,0,0,0,0,0,0,0,0,3,6,-97,0,0,0,10,92,60
14476,0,0,0,0,0,0,0,0,0,0,0,0,0,0,0,0,3,6,-97,0,0,0,10,92,60
14577,0,0,0,0,0,0,0,0,0,0,0,0,0,0,0,0,3,6,-97,0,0,0,10,92,60
14678,0,0,0,0,0,0,0,0,0,0,0,0,0,0,0,0,3,6,-97,0,0,0,10,92,60
14779,0,0,0,0,0,0,0,0,0,0,0,0,0,0,0,0,3,6,-97,0,0,0,10,92,60
14880,0,0,0,0,0,0,0,0,0,0,0,0,0,0,0,0,3,6,-97,0,0,0,10,92,60
14981,0,0,0,0,0,0,0,0,0,0,0,0,0,0,0,0,3,6,-97,0,0,0,10,92,60
15082,0,0,0,0,0,0,0,0,0,0,0,0,0,0,0,0,3,6,-97,0,0,0,10,92,60
15183,0,0,0,0,0,0,0,0,0,0,0,0,0,0,0,0,3,6,-97,0,0,0,10,92,60
15284,0,0,0,0,0,0,0,0,0,0,0,0,0,0,0,0,3,6,-97,0,0,0,10,92,60
15385,0,0,0,0,0,0,0,0,0,0,0,0,0,0,0,0,3,6,-97,0,0,0,10,92,60
15486,0,0,0,0,0,0,0,0,0,0,0,0,0,0,0,0,3,6,-97,0,0,0,10,92,60
15587,0,0,0,0,0,0,0,0,0,0,0,0,0,0,0,0,3,6,-97,0,0,0,10,92,60
15688,0,0,0,0,0,0,0,0,0,0,0,0,0,0,0,0,3,6,-97,0,0,0,10,92,60
15789,0,0,0,0,0,0,0,0,0,0,0,0,0,0,0,0,3,6,-97,0,0,0,10,92,60
15890,0,0,0,0,0,0,0,0,0,0,0,0,0,0,0,0,3,6,-97,0,0,0,10,92,60
15990,0,0,0,0,0,0,0,0,0,0,0,0,0,0,0,0,3,6,-97,0,0,0,10,92,60
16092,0,0,0,0,0,0,0,0,0,0,0,0,0,0,0,0,3,6,-97,0,0,0,10,92,60
16192,0,0,0,0,0,0,0,0,0,0,0,0,0,0,0,0,3,6,-97,0,0,0,10,92,60
16293,0,0,0,0,0,0,0,0,0,0,0,0,0,0,0,0,3,6,-97,0,0,0,10,92,60
16394,0,0,0,0,0,0,0,0,0,0,0,0,0,0,0,0,3,6,-97,0,0,0,10,92,60
16495,0,0,0,0,0,0,0,0,0,0,0,0,0,0,0,0,3,6,-97,0,0,0,10,92,60
16596,0,0,0,0,0,0,0,0,0,0,0,0,0,0,0,0,3,6,-97,0,0,0,10,92,60
16696,0,0,0,0,0,0,0,0,0,0,0,0,0,0,0,0,3,6,-97,0,0,0,10,92,61
16798,0,0,0,0,0,0,0,0,0,0,0,0,0,0,0,0,3,6,-97,0,0,0,10,92,61
16898,0,0,0,0,0,0,0,0,0,0,0,0,0,0,0,0,3,6,-97,0,0,0,10,92,61
17000,0,0,0,0,0,0,0,0,0,0,0,0,0,0,0,0,3,6,-97,0,0,0,10,92,61
17100,0,0,0,0,0,0,0,0,0,0,0,0,0,0,0,0,3,6,-97,0,0,0,10,92,61
17201,0,0,0,0,0,0,0,0,0,0,0,0,0,0,0,0,3,6,-97,0,0,0,10,92,61
17302,0,0,0,0,0,0,0,0,0,0,0,0,0,0,0,0,3,6,-97,0,0,0,10,92,61
17410,0,0,0,0,0,0,0,0,0,0,0,0,0,0,0,0,3,6,-97,0,0,0,10,92,61
17511,0,0,0,0,0,0,0,0,0,0,0,0,0,0,0,0,3,6,-97,0,0,0,10,92,61
17612,0,0,0,0,0,0,0,0,0,0,0,0,0,0,0,0,3,6,-97,0,0,0,10,92,61
17712,0,0,0,0,0,0,0,0,0,0,0,0,0,0,0,0,3,6,-97,0,0,0,10,92,61
17813,0,0,0,0,0,0,0,0,0,0,0,0,0,0,0,0,3,6,-97,0,0,0,10,92,61
17914,0,0,0,0,0,0,0,0,0,0,0,0,0,0,0,0,3,6,-97,0,0,0,10,92,61
18015,0,0,0,0,0,0,0,0,0,0,0,0,0,0,0,0,3,6,-97,0,0,0,10,92,61
18116,0,0,0,0,0,0,0,0,0,0,0,0,0,0,0,0,3,6,-97,0,0,0,10,92,61
18216,0,0,0,0,0,0,0,0,0,0,0,0,0,0,0,0,3,6,-97,0,0,0,10,92,61
18318,0,0,0,0,0,0,0,0,0,0,0,0,0,0,0,0,3,6,-97,0,0,0,10,92,61
18419,0,0,0,0,0,0,0,0,0,0,0,0,0,0,0,0,3,6,-97,0,0,0,10,92,61
18520,0,0,0,0,0,0,0,0,0,0,0,0,0,0,0,0,3,6,-97,0,0,0,10,92,61
18621,0,0,0,0,0,0,0,0,0,0,0,0,0,0,0,0,3,6,-97,0,0,0,10,92,61
18722,0,0,0,0,0,0,0,0,0,0,0,0,0,0,0,0,2,5,-97,0,0,0,10,92,61
18823,0,0,0,0,0,0,0,0,0,0,0,0,0,0,0,0,2,4,-97,0,0,0,10,92,61
18924,0,0,0,0,0,0,0,0,0,0,0,0,0,0,0,0,1,1,-97,0,0,0,25,92,61
19024,0,0,0,0,0,0,0,0,0,0,0,0,0,0,0,0,0,0,-97,1,0,-3,28,92,61
19126,0,0,0,0,0,0,0,0,0,0,0,0,0,0,0,0,0,-2,-97,1,0,-5,27,92,61
19227,0,0,0,0,0,0,0,0,0,0,0,0,0,0,0,0,0,-2,-97,1,0,-5,27,92,61
19328,0,0,0,0,0,0,0,0,0,0,0,0,0,0,0,0,0,-2,-97,0,0,-6,28,92,61
19429,0,0,0,0,0,0,0,0,0,0,0,0,0,0,0,0,2,-2,-98,0,-1,-7,31,92,61
19530,0,0,0,0,0,0,0,0,0,0,0,0,0,0,0,0,2,-2,-98,0,-1,-7,31,92,61
19632,0,0,0,0,0,0,0,0,0,0,0,0,0,0,0,0,4,-1,-98,0,-1,-6,44,91,62
19733,0,0,0,0,0,0,0,0,0,0,0,0,0,0,0,0,4,-3,-98,1,-1,-5,48,91,62
19834,0,0,0,0,0,0,0,0,0,0,0,0,0,0,0,0,4,-3,-98,1,-1,-5,48,91,62
19935,0,0,0,0,0,0,0,0,0,0,0,0,0,0,0,0,3,-5,-98,1,0,-4,52,91,62
20036,0,0,0,0,0,0,0,0,0,0,0,0,0,0,0,0,3,-5,-97,0,0,-2,58,91,62
20138,0,0,0,0,0,0,0,0,0,0,0,0,0,0,0,0,3,-5,-97,0,0,-2,58,91,62
20239,0,0,1,68,575,43,34,7,227,26,-41,223,0,0,0,0,4,-4,-97,0,0,-1,59,91,62
20340,0,0,1,68,575,43,34,7,227,26,-41,223,0,0,0,0,4,-4,-97,0,0,-1,59,91,62
20441,0,0,1,68,575,43,34,7,227,26,-41,223,0,0,0,0,4,-3,-97,0,0,-1,60,91,62
20542,0,0,1,71,552,37,34,5,225,19,-42,222,0,0,0,0,3,-4,-97,0,0,-1,60,91,62
20644,0,0,1,69,552,33,34,5,227,19,-39,223,0,0,0,0,2,-5,-97,1,0,-1,61,91,62
20744,0,0,1,71,552,38,33,5,236,20,-40,232,0,0,0,0,2,-6,-97,1,0,-1,62,91,63
20858,0,0,1,71,552,38,33,5,236,20,-40,232,0,0,0,0,3,-6,-97,1,0,-1,63,91,63
20962,0,0,1,68,547,32,35,5,225,18,-43,221,0,0,0,0,3,-7,-98,1,0,-2,65,91,63
21063,0,0,1,70,545,36,36,5,216,16,-40,213,0,0,0,0,3,-7,-98,0,0,-2,66,91,63
21164,0,0,1,71,529,41,36,3,217,12,-40,214,0,0,0,0,3,-6,-98,1,0,-1,67,91,63
21265,0,0,1,79,532,31,34,4,233,14,-41,230,0,0,0,0,2,-7,-98,1,0,-1,69,91,63
21369,0,0,1,73,525,52,34,3,235,12,-32,233,0,0,0,0,1,-8,-98,1,0,-1,70,91,63
21470,0,0,1,71,518,51,33,3,242,11,-33,239,0,0,0,0,1,-9,-98,1,0,-1,73,91,63
21571,0,0,1,72,520,47,33,3,242,11,-34,239,0,0,0,0,1,-9,-97,0,0,-1,74,91,63
21672,0,0,1,70,506,33,38,2,212,6,-29,209,0,0,0,0,0,-9,-97,0,0,-1,75,91,63
21773,0,0,1,73,502,49,34,2,235,6,-33,233,0,0,0,0,1,-8,-97,0,0,-1,76,91,62
21874,0,0,1,73,503,46,34,2,232,6,-33,229,0,0,0,0,1,-8,-97,0,0,-1,76,91,62
21974,0,0,1,73,503,46,34,2,232,6,-33,229,0,0,0,0,1,-6,-97,0,0,-1,76,91,62
22075,0,0,1,71,499,47,33,1,241,5,-34,238,0,0,0,0,1,-7,-97,0,0,-1,77,91,62
22175,0,0,1,70,494,44,35,1,226,3,-29,224,0,0,0,0,1,-7,-97,0,0,-1,79,91,62
22277,0,0,1,70,493,43,33,1,239,3,-39,236,0,0,0,0,2,-6,-97,0,0,-1,80,91,62
22377,0,0,1,70,493,43,33,1,239,3,-39,236,0,0,0,0,3,-5,-98,0,0,-1,81,91,62
22481,0,0,1,70,493,38,32,1,245,3,-45,242,0,0,0,0,4,-6,-97,0,0,-1,83,91,62
22582,0,0,1,70,496,33,31,1,250,4,-52,247,0,0,0,0,5,-6,-98,0,0,-1,84,91,62
22683,0,0,1,72,497,44,32,1,247,5,-53,244,0,0,0,0,5,-6,-98,0,0,-1,86,91,62
22783,0,0,1,72,500,43,31,1,254,6,-55,252,0,0,0,0,4,-7,-98,0,0,-1,89,91,62
22884,0,0,1,70,496,35,39,1,200,3,-41,198,0,0,0,0,2,-7,-98,0,1,-1,91,91,62
22985,0,0,1,71,503,27,41,2,194,5,-35,192,0,0,0,0,1,-8,-98,0,0,-1,93,91,62
23090,0,0,1,72,505,27,39,2,202,6,-33,199,0,0,0,0,2,-8,-98,0,0,-2,97,91,62
23191,0,0,1,73,496,35,39,1,202,3,-35,200,0,0,0,0,3,-8,-98,0,0,-2,98,91,62
23292,0,0,1,73,496,35,39,1,202,3,-38,200,0,0,0,0,3,-8,-98,0,0,-2,100,91,62
23393,0,0,1,72,503,24,37,2,212,5,-42,209,0,0,0,0,2,-8,-98,0,1,-1,102,91,62
23493,0,0,1,73,505,23,37,2,216,6,-40,212,0,0,0,0,1,-7,-97,0,1,-2,105,91,62
23594,0,0,1,75,503,24,38,2,207,5,-34,204,0,0,0,0,1,-7,-97,0,1,-2,107,91,62
23695,0,0,1,74,505,32,40,2,197,5,-31,195,0,0,0,0,1,-7,-97,0,0,-2,111,90,62
23796,0,0,1,74,505,32,40,2,197,5,-31,195,0,0,0,0,2,-7,-97,0,0,-2,114,90,62
23897,0,0,1,73,505,34,41,2,193,5,-36,190,0,0,0,0,3,-8,-98,0,0,-2,115,90,62
23998,0,0,1,73,505,34,41,2,193,5,-36,190,0,0,0,0,5,-7,-98,0,0,-2,117,90,62
24098,0,0,1,75,503,35,42,2,185,5,-41,183,0,0,0,0,5,-7,-98,0,0,-2,120,90,62
24199,0,0,1,75,503,35,42,2,185,5,-41,183,0,0,0,0,4,-7,-98,0,0,-2,122,90,62
24300,0,0,1,71,516,37,47,3,168,7,-34,166,0,0,0,0,3,-8,-98,0,0,-2,124,90,62
24401,0,0,1,70,529,42,46,3,173,10,-31,171,0,0,0,0,4,-7,-98,0,0,-2,127,90,62
24509,0,0,1,74,505,49,49,2,161,4,-31,159,0,0,0,0,4,-7,-98,0,0,-2,127,90,62
24610,0,0,1,74,505,49,49,2,161,4,-31,159,0,0,0,0,3,-6,-98,0,1,-2,131,90,62
24710,0,0,1,76,514,41,47,2,167,6,-30,165,0,0,0,0,2,-7,-97,0,0,-1,134,90,61
24811,0,0,1,76,514,41,47,2,167,6,-30,165,0,0,0,0,3,-7,-97,0,0,-1,134,90,61
24912,0,0,1,75,530,41,45,4,174,10,-32,171,0,0,0,0,5,-7,-98,0,0,0,136,90,61
25013,0,0,1,74,543,38,43,4,183,13,-43,180,0,0,0,0,6,-7,-98,0,0,0,135,90,61
25114,0,0,1,74,543,38,43,4,183,13,-43,180,0,0,0,0,6,-7,-98,0,0,0,135,90,61
25215,0,0,1,72,550,43,42,5,189,15,-44,186,0,0,0,0,6,-7,-98,0,0,0,134,90,61
25316,0,0,1,72,550,43,42,5,189,15,-44,186,0,0,0,0,6,-7,-98,0,1,0,134,90,61
25417,0,0,1,74,553,50,44,5,180,15,-34,177,0,0,0,0,4,-7,-97,0,1,0,135,90,61
25517,0,0,1,74,553,50,44,5,180,15,-34,177,0,0,0,0,4,-7,-97,0,0,0,135,90,61
25618,0,0,1,74,553,52,45,5,174,15,-36,172,0,0,0,0,5,-7,-98,0,0,0,135,90,61
25718,0,0,1,74,553,52,45,5,174,15,-36,172,0,0,0,0,6,-7,-98,0,0,0,137,89,61
25819,0,0,1,72,550,58,46,5,172,14,-37,169,0,0,0,0,5,-8,-98,0,1,0,138,89,61
25920,0,0,1,71,550,58,46,5,173,14,-34,171,0,0,0,0,5,-9,-98,0,1,0,138,89,61
26020,0,0,1,72,553,53,47,5,172,15,-35,170,0,0,0,0,4,-9,-98,0,1,0,140,89,61
26121,0,0,1,75,553,48,47,5,172,15,-33,170,0,0,0,0,3,-8,-97,0,1,0,138,89,61
26221,0,0,1,73,550,49,47,5,168,14,-29,165,0,0,0,0,5,-7,-98,0,1,0,138,89,61
26322,0,0,1,75,550,47,46,5,172,14,-36,169,0,0,0,0,5,-7,-98,0,1,0,139,89,61
26423,0,0,1,75,550,47,46,5,172,14,-36,169,0,0,0,0,5,-8,-98,0,1,0,140,89,61
26525,0,0,1,75,550,47,46,5,172,14,-36,169,0,0,0,0,5,-7,-98,0,1,0,140,89,61
26626,0,0,1,72,550,45,44,5,180,15,-38,177,0,0,0,0,4,-7,-97,0,1,0,140,89,61
26727,0,0,1,72,550,45,44,5,180,15,-38,177,0,0,0,0,3,-7,-97,0,1,0,141,89,62
26828,0,0,1,74,539,47,45,4,174,12,-30,171,0,0,0,0,3,-7,-98,0,1,0,142,89,62
26929,0,0,1,74,539,47,45,4,174,12,-30,171,0,0,0,0,4,-7,-98,0,1,0,142,89,62
27030,0,0,1,75,546,46,45,5,174,13,-31,172,0,0,0,0,3,-7,-97,0,1,0,142,89,62
27132,0,0,1,75,546,46,45,5,174,13,-31,172,0,0,0,0,2,-7,-98,0,1,0,140,89,62
27232,0,0,1,73,546,44,43,5,180,14,-32,178,0,0,0,0,3,-5,-98,0,1,0,140,89,62
27333,0,0,1,73,550,38,43,5,180,15,-33,177,0,0,0,0,3,-5,-98,0,0,0,140,89,62
27434,0,0,1,73,550,39,44,5,178,15,-33,176,0,0,0,0,3,-6,-97,0,0,0,141,89,62
27534,0,0,1,73,550,45,44,5,177,15,-35,175,0,0,0,0,4,-5,-97,0,0,0,140,89,62
27635,0,0,1,74,553,48,47,5,166,14,-35,164,0,0,0,0,5,-5,-98,0,0,0,138,89,62
27736,0,0,1,74,556,46,44,5,174,16,-34,172,0,0,0,0,4,-5,-98,1,0,0,138,88,61
27837,0,0,1,74,553,47,46,5,169,14,-33,167,0,0,0,0,4,-5,-98,1,0,0,138,88,61
27937,0,0,1,73,553,47,46,5,170,15,-30,168,0,0,0,0,3,-6,-97,1,0,0,138,88,61
28038,0,0,1,74,553,48,47,5,168,14,-29,165,0,0,0,0,3,-6,-97,1,0,0,140,88,61
28139,0,0,1,74,553,48,47,5,168,14,-29,165,0,0,0,0,3,-6,-98,2,0,0,139,88,61
28240,0,0,1,77,525,55,47,3,167,9,-28,165,0,0,0,0,3,-6,-98,2,0,0,138,88,61
28340,0,0,1,77,525,55,47,3,167,9,-28,165,0,0,0,0,4,-6,-98,2,0,0,139,88,61
28441,0,0,1,78,516,41,45,3,172,7,-34,170,0,0,0,0,4,-6,-98,2,0,0,138,88,61
28542,0,0,1,79,499,48,47,1,167,3,-32,165,0,0,0,0,4,-6,-98,1,0,0,139,88,61
28642,0,0,1,79,462,48,46,-1,170,-3,-32,168,0,0,0,0,4,-5,-98,1,0,0,138,88,61
28743,0,0,1,77,459,52,50,-1,156,-3,-29,154,0,0,0,0,3,-5,-98,1,-1,0,138,88,61
28844,0,0,1,74,437,64,50,-3,156,-8,-25,154,0,0,0,0,3,-5,-98,1,-1,0,137,88,61
28945,0,0,1,72,421,73,49,-4,159,-11,-24,157,0,0,0,0,4,-5,-98,2,-1,0,137,88,61
29046,0,0,1,68,390,78,49,-6,159,-17,-25,157,0,0,0,0,4,-5,-98,2,-1,0,137,88,61
29146,0,0,0,68,390,78,0,-6,159,-17,-25,157,0,0,0,0,4,-5,-98,2,-1,0,137,88,61
29247,0,0,0,68,390,78,0,-6,159,-17,-25,157,0,0,0,0,4,-5,-98,2,0,0,135,88,61
29348,0,0,1,68,340,65,49,-10,158,-26,-28,155,0,0,0,0,4,-5,-97,2,0,0,136,88,61
29448,0,0,2,64,309,74,51,-8,151,-19,-25,148,0,0,0,0,4,-6,-97,2,0,0,136,88,61
29550,0,0,1,67,306,75,53,-12,147,-30,-24,143,0,0,0,0,4,-6,-97,2,0,0,138,88,61
29651,0,0,1,64,293,82,57,-13,137,-30,-21,132,0,0,0,0,4,-6,-97,2,0,0,139,88,61
29751,0,0,1,68,274,75,54,-14,143,-35,-23,138,0,0,0,0,5,-7,-97,2,0,0,139,87,62
29852,0,0,1,68,248,67,60,-16,131,-36,-25,125,0,0,0,0,4,-7,-98,2,0,0,140,87,62
29953,0,0,1,71,244,102,55,-17,143,-40,-22,136,0,0,0,0,5,-8,-98,2,0,0,141,87,62
30054,0,0,1,71,244,102,55,-17,143,-40,-22,136,0,0,0,0,5,-8,-97,1,0,0,141,87,62
30155,0,0,1,69,262,74,59,-15,135,-35,-24,129,0,0,0,0,5,-8,-98,1,0,0,141,87,62
30255,0,0,1,71,274,71,57,-14,139,-34,-28,133,0,0,0,0,6,-8,-98,1,0,0,140,87,62
30356,0,0,1,70,322,116,49,-11,165,-31,-26,161,0,0,0,0,6,-9,-97,0,0,0,140,87,62
30457,0,0,1,64,331,71,54,-10,151,-27,-33,147,0,0,0,0,7,-10,-98,0,0,0,139,87,62
30558,0,0,1,61,346,78,59,-9,137,-22,-31,134,0,0,0,0,8,-10,-98,0,0,0,140,87,62
30659,0,0,1,67,397,67,54,-6,151,-15,-36,149,0,0,0,0,8,-10,-98,0,0,0,140,87,62
30760,0,0,1,67,397,67,54,-6,149,-15,-38,147,0,0,0,0,9,-9,-98,-1,0,0,138,87,62
30861,0,0,1,72,437,86,58,-3,139,-7,-33,138,0,0,0,0,9,-10,-98,-1,1,0,138,87,62
30963,0,0,1,76,505,82,56,2,146,4,-35,145,0,0,0,0,9,-10,-98,-1,1,0,137,87,62
31063,0,0,1,73,533,60,52,4,157,10,-44,155,0,0,0,0,10,-11,-98,-2,2,0,138,87,62
31165,0,0,1,66,570,72,48,6,171,18,-46,168,0,0,0,0,10,-11,-98,-2,3,0,138,87,62
31266,0,0,1,66,570,72,48,6,171,18,-46,168,0,0,0,0,10,-12,-99,-2,4,0,138,87,62
31366,0,0,1,73,607,93,51,9,165,25,-35,162,0,0,0,0,8,-12,-98,-3,5,0,136,87,62
31467,0,0,1,72,655,137,50,12,161,34,-22,157,0,0,0,0,6,-10,-98,-3,5,0,133,87,62
31568,0,0,1,72,655,137,50,12,161,34,-22,157,0,0,0,0,5,-8,-98,-3,5,0,131,87,62
31668,0,0,1,75,674,146,50,14,158,37,-17,153,0,0,0,0,5,-7,-98,-3,5,0,131,87,62
31769,0,0,1,76,675,143,50,14,158,37,-17,153,0,0,0,0,5,-7,-98,-3,5,0,131,86,61
31870,0,0,1,76,675,143,50,14,158,37,-17,153,0,0,0,0,4,-7,-98,-3,5,0,131,86,61
31971,0,0,1,74,710,91,54,16,146,40,-21,139,0,0,0,0,4,-7,-98,-3,4,0,131,86,61
32072,0,0,1,71,747,41,44,19,177,56,-35,166,0,0,0,0,4,-6,-97,-3,4,0,129,86,61
32173,0,0,1,72,767,48,46,20,170,57,-32,158,0,0,0,0,5,-6,-97,-3,3,0,129,86,61
32273,0,0,1,72,779,46,45,21,175,62,-37,162,0,0,0,0,5,-6,-97,-3,3,0,130,86,61
32375,0,0,1,71,790,46,45,22,175,64,-37,161,0,0,0,0,5,-5,-98,-3,3,0,128,86,61
32476,0,0,1,72,793,42,41,22,191,70,-41,175,0,0,0,0,5,-5,-97,-2,3,0,128,86,61
32577,0,0,1,71,807,39,38,23,204,78,-44,186,0,0,0,0,5,-5,-97,-2,3,0,128,86,61
32677,0,0,1,74,819,45,38,24,204,81,-43,184,0,0,0,0,5,-4,-97,-2,3,0,127,86,61
32778,0,0,1,71,830,43,37,25,210,86,-41,189,0,0,0,0,4,-5,-97,-1,3,0,127,86,62
32878,0,0,1,72,830,43,37,25,210,86,-41,189,0,0,0,0,4,-5,-98,-1,2,0,128,86,62
32980,0,0,1,71,836,41,35,25,222,92,-44,199,0,0,0,0,4,-6,-98,-1,2,0,129,86,62
33080,0,0,1,72,836,42,36,25,219,91,-40,196,0,0,0,0,3,-6,-98,-1,2,0,128,86,62
33182,0,0,1,69,838,47,35,25,222,93,-39,199,0,0,0,0,3,-6,-97,-1,2,0,130,86,62
33283,0,0,1,69,838,47,35,25,222,93,-39,199,0,0,0,0,4,-6,-98,-1,2,0,130,86,62
33384,0,0,1,70,841,25,36,25,214,90,-46,191,0,0,0,0,4,-5,-98,-1,2,0,130,86,62
33485,0,0,1,73,839,29,35,25,222,93,-43,199,0,0,0,0,3,-6,-98,0,2,0,131,86,62
33586,0,0,1,73,839,30,36,25,219,91,-42,195,0,0,0,0,3,-6,-97,-1,1,0,131,86,62
33687,0,0,1,73,839,30,36,25,219,91,-42,195,0,0,0,0,4,-5,-98,-1,1,0,132,86,62
33788,0,0,1,72,841,30,36,25,214,90,-45,191,0,0,0,0,4,-5,-98,0,1,0,134,85,62
33889,0,0,1,73,839,30,36,25,214,89,-45,191,0,0,0,0,3,-5,-97,0,2,0,133,85,62
33990,0,0,1,73,834,25,36,25,219,90,-43,196,0,0,0,0,3,-6,-97,0,1,0,135,85,62
34091,0,0,1,73,834,25,36,25,219,90,-43,196,0,0,0,0,3,-7,-97,0,1,0,136,85,62
34192,0,0,1,74,836,35,36,25,217,90,-41,195,0,0,0,0,3,-5,-97,0,1,0,135,85,62
34292,0,0,1,73,839,35,36,25,216,90,-44,193,0,0,0,0,4,-4,-97,0,1,0,136,85,62
34393,0,0,1,73,836,29,35,25,221,91,-47,198,0,0,0,0,4,-5,-97,0,1,0,138,85,62
34494,0,0,1,73,839,35,36,25,219,91,-41,196,0,0,0,0,3,-6,-98,0,1,0,138,85,62
34595,0,0,1,74,836,30,37,25,212,88,-41,190,0,0,0,0,3,-6,-98,0,1,0,138,85,62
34696,0,0,1,74,836,29,36,25,215,89,-42,193,0,0,0,0,3,-6,-98,0,1,0,138,85,62
34797,0,0,1,74,836,29,36,25,215,89,-42,193,0,0,0,0,2,-6,-98,0,1,0,140,85,61
34898,0,0,1,74,836,29,36,25,215,89,-42,193,0,0,0,0,3,-6,-97,0,1,0,139,85,61
34998,0,0,1,76,836,40,36,25,215,89,-39,193,0,0,0,0,3,-6,-97,0,1,0,139,85,61
35099,0,0,1,74,834,35,36,25,219,90,-37,196,0,0,0,0,2,-6,-97,0,1,0,141,85,61
35200,0,0,1,74,834,35,36,25,219,90,-37,196,0,0,0,0,2,-6,-98,0,1,0,142,85,61
35301,0,0,1,74,834,35,36,25,219,90,-37,196,0,0,0,0,3,-5,-97,0,0,0,141,85,61
35401,0,0,1,74,825,37,38,24,204,82,-38,184,0,0,0,0,3,-5,-97,0,0,0,141,85,61
35502,0,0,1,74,823,38,39,24,201,80,-37,181,0,0,0,0,3,-6,-97,0,0,0,142,85,61
35603,0,0,1,74,821,33,39,24,202,80,-38,182,0,0,0,0,3,-6,-97,0,0,0,142,85,61
35703,0,0,1,75,817,32,38,24,205,81,-39,186,0,0,0,0,3,-6,-97,0,0,0,142,84,61
35804,3,0,1,75,814,38,39,23,202,79,-37,183,0,0,0,0,3,-6,-97,0,0,0,142,84,61
35906,3,0,1,71,810,41,35,23,222,86,-40,202,28,-22,-40,0,3,-6,-98,0,0,0,142,84,62
36007,3,0,1,71,810,41,35,23,222,86,-40,202,28,-22,-40,0,3,-6,-98,0,0,0,139,84,62
36109,3,0,1,72,801,41,35,22,222,84,-40,203,29,-25,-40,0,3,-6,-98,0,0,0,139,84,62
36210,3,0,1,70,796,46,35,22,226,84,-40,207,29,-24,-40,0,3,-6,-97,0,1,0,139,84,62
36311,3,0,1,70,793,48,36,22,219,80,-34,201,30,-29,-40,0,2,-6,-96,0,1,0,138,84,62
36412,3,0,1,70,793,48,36,22,219,80,-34,201,30,-29,-40,0,3,-6,-94,0,1,0,138,84,62
36514,3,0,1,69,782,40,35,21,226,80,-37,208,30,-26,-40,0,2,-6,-93,0,1,0,138,84,62
36615,3,0,1,69,782,40,35,21,226,80,-37,208,30,-26,-40,0,2,-6,-91,0,1,0,139,84,62
36716,3,0,1,69,782,40,35,21,226,80,-37,208,30,-26,-40,0,3,-6,-90,0,1,0,137,84,62
36818,3,0,1,69,767,41,36,20,219,74,-40,204,30,-30,-40,0,3,-6,-88,0,1,0,139,84,62
36919,3,0,1,69,767,41,36,20,219,74,-40,204,30,-30,-40,0,2,-6,-86,0,1,0,140,84,62
37020,3,0,1,79,699,19,36,15,219,57,-41,208,25,-31,-40,0,2,-6,-85,0,1,0,141,84,62
37126,3,0,1,79,699,19,36,15,219,57,-41,208,25,-31,-40,0,3,-6,-84,0,1,0,141,84,62
37226,3,0,1,79,624,22,34,10,231,40,-47,225,19,-28,-40,0,3,-5,-82,0,1,0,142,84,62
37327,3,0,1,79,624,22,34,10,231,40,-47,225,19,-28,-40,0,3,-6,-80,0,1,0,142,84,62
37430,3,0,1,79,624,22,34,10,231,40,-47,225,19,-28,-40,0,3,-6,-79,-1,1,0,144,84,62
37531,3,0,1,79,512,33,33,2,237,9,-45,234,10,-28,-40,0,3,-6,-78,-1,1,0,144,84,62
37632,3,0,1,79,474,47,32,-0,240,-1,-42,238,-1,-28,-40,0,3,-6,-77,-1,1,0,144,84,62
37733,3,0,1,72,417,54,34,-4,233,-17,-39,230,-7,-32,-40,0,3,-6,-76,-1,1,0,144,83,62
37834,3,0,1,72,417,54,34,-4,233,-17,-39,230,-7,-32,-40,0,3,-5,-75,-1,1,0,145,83,62
37935,3,0,0,64,409,98,0,-5,245,-21,-30,243,0,0,0,0,4,-5,-75,-1,1,0,144,83,62
38036,3,0,0,64,409,98,0,-5,245,-21,-30,243,0,0,0,0,4,-5,-75,-1,0,0,144,83,62
38137,3,0,1,67,358,117,30,-9,257,-38,-31,253,-18,-15,-40,0,4,-5,-75,-2,0,0,144,83,62
38238,3,0,1,72,354,131,29,-9,265,-40,-28,261,-17,-11,-40,0,4,-5,-74,-2,0,0,143,83,62
38339,3,0,1,70,352,95,32,-9,245,-38,-35,241,-18,-24,-40,0,4,-5,-74,-2,0,0,143,83,62
38442,3,0,1,66,360,165,30,-8,257,-37,-18,254,-16,-15,-40,0,4,-5,-75,-2,0,0,143,83,62
38550,3,0,1,67,361,156,30,-8,261,-37,-21,258,-16,-17,-40,0,4,-5,-75,-2,0,0,141,83,62
38655,3,0,0,67,361,156,0,-8,261,-37,-21,258,0,0,0,0,4,-5,-76,-2,0,0,141,83,62
38757,3,0,0,67,361,156,0,-8,261,-37,-21,258,0,0,0,0,4,-5,-76,-3,0,0,141,83,62
38858,3,0,1,66,401,128,31,-6,253,-24,-23,251,-11,-17,-40,0,3,-5,-77,-3,0,0,140,83,62
38959,3,0,1,64,401,137,30,-6,257,-24,-26,255,-11,-16,-40,0,4,-5,-77,-3,0,0,139,83,62
39060,3,0,1,68,410,101,31,-5,249,-21,-34,247,-10,-21,-40,0,4,-5,-77,-3,0,0,136,83,62
39161,3,0,1,75,427,128,28,-4,274,-17,-30,272,-8,-8,-40,0,4,-5,-77,-3,0,0,138,83,62
39262,3,0,1,78,448,47,32,-2,243,-9,-47,240,-6,-28,-40,0,4,-5,-78,-3,0,0,136,83,62
39363,3,0,1,78,457,50,30,-2,256,-7,-44,254,-6,-17,-40,0,3,-6,-78,-3,0,0,135,83,62
39464,3,0,1,78,483,44,35,0,226,0,-40,223,6,-36,-40,0,3,-6,-78,-4,0,0,134,83,62
39565,3,0,1,79,503,43,34,2,233,6,-42,230,7,-28,-40,0,3,-6,-79,-4,0,0,134,83,62
39665,3,0,1,79,514,33,35,2,224,9,-43,221,8,-34,-40,0,3,-5,-79,-4,0,0,134,82,62
39767,3,0,1,76,527,37,34,3,231,13,-43,228,9,-28,-40,0,3,-5,-79,-4,0,0,134,82,62
39868,3,0,1,76,527,37,34,3,231,13,-43,228,9,-28,-40,0,4,-5,-79,-4,0,0,132,82,62
39969,3,0,0,68,538,38,0,4,224,15,-45,221,0,0,0,0,4,-5,-79,-4,0,0,130,82,62
40070,3,0,0,68,538,38,0,4,224,15,-45,221,0,0,0,0,4,-5,-79,-4,0,0,131,82,62
40172,3,0,0,68,538,38,0,4,224,15,-45,221,0,0,0,0,3,-5,-79,-4,0,0,130,82,62
40273,3,0,1,69,627,101,34,10,230,40,-28,225,18,-24,-40,0,3,-5,-79,-4,0,0,129,82,62
40374,3,0,1,69,627,101,34,10,230,40,-28,225,18,-24,-40,0,3,-5,-79,-4,0,0,129,82,62
40475,3,0,1,75,671,49,39,13,201,46,-38,193,22,-36,-40,0,4,-4,-79,-4,1,0,129,82,62
40576,3,0,1,75,671,49,39,13,201,46,-38,193,22,-36,-40,0,3,-4,-78,-4,1,0,129,82,62
40677,3,0,1,78,691,37,38,15,203,51,-38,194,24,-33,-40,0,4,-5,-77,-4,1,0,130,82,62
40778,3,0,1,79,702,34,39,16,198,52,-41,188,25,-37,-40,0,4,-5,-76,-4,0,0,130,82,62
40879,3,0,1,79,702,34,39,16,198,52,-41,188,25,-37,-40,0,4,-4,-75,-4,1,0,131,82,62
40980,3,0,1,64,736,35,35,18,224,68,-46,210,29,-28,-40,0,4,-4,-73,-5,1,0,131,82,62
41081,3,0,1,69,756,34,35,19,219,71,-45,204,32,-33,-40,0,4,-4,-72,-5,1,0,131,82,62
41182,3,0,1,70,771,31,35,20,220,75,-46,204,33,-32,-40,0,5,-4,-71,-5,1,0,132,82,62
41282,3,0,1,69,770,34,35,20,219,75,-49,203,33,-33,-40,0,5,-4,-69,-5,1,0,132,82,62
41387,3,0,1,70,762,39,35,20,223,74,-49,207,33,-32,-40,0,5,-4,-67,-5,0,0,132,82,62
41488,3,0,1,69,753,34,33,19,231,74,-52,215,33,-29,-40,0,5,-3,-65,-5,0,0,132,82,62
41589,3,0,1,64,747,44,33,19,233,74,-50,219,33,-29,-40,0,5,-3,-65,-5,0,0,132,82,62
41689,3,0,1,61,747,50,33,19,230,73,-48,215,34,-32,-40,0,5,-3,-63,-5,0,0,133,82,62
41791,3,0,1,64,733,118,32,18,244,73,-33,231,33,-27,-40,0,5,-4,-61,-5,1,0,132,81,62
41892,3,0,1,79,721,49,30,17,261,75,-55,248,33,-21,-40,0,5,-4,-59,-5,1,0,133,81,62
41992,3,0,1,80,704,56,31,16,249,66,-50,238,31,-29,-40,0,5,-4,-57,-6,0,0,133,81,62
42093,3,0,1,80,686,75,34,14,230,57,-42,221,31,-37,-40,0,5,-4,-55,-6,1,0,132,81,62
42194,3,0,1,80,660,72,31,13,249,54,-46,241,29,-28,-40,0,5,-4,-53,-6,0,0,133,81,62
42298,3,0,1,79,631,78,32,11,238,43,-42,232,27,-36,-40,0,5,-4,-51,-6,0,0,131,81,62
42399,3,0,1,75,634,80,33,11,236,43,-42,230,29,-36,-40,0,5,-4,-49,-6,0,0,131,81,62
42500,3,0,1,78,616,90,31,10,251,41,-42,247,27,-30,-40,0,5,-4,-47,-7,0,0,131,81,62
42601,3,0,1,72,595,90,31,8,251,35,-42,248,26,-32,-40,0,5,-4,-45,-7,0,0,130,81,62
42702,3,0,1,68,558,93,33,5,235,22,-42,233,23,-39,-40,0,6,-3,-44,-7,0,0,129,81,62
42807,3,0,1,75,552,105,32,5,239,20,-40,237,24,-36,-40,0,6,-3,-42,-7,0,0,130,81,62
42907,3,0,1,78,538,104,32,4,242,17,-41,240,23,-36,-40,0,6,-2,-39,-8,0,0,129,81,62
43008,3,0,1,83,531,111,27,4,283,17,-46,282,23,-18,-40,0,6,-2,-38,-8,0,0,128,81,62
43109,3,0,1,83,528,112,25,3,311,18,-50,310,23,0,-40,0,6,-2,-37,-8,-1,0,127,81,62
43213,3,0,1,83,523,114,26,3,297,15,-47,296,23,-19,-40,0,6,-2,-36,-8,-1,0,127,81,62
43316,3,0,1,83,518,116,25,3,301,13,-42,300,23,-6,-40,0,5,-1,-35,-8,-1,0,127,81,62
43417,3,0,1,83,520,115,25,3,311,15,-33,310,24,-3,-40,0,2,-1,-33,-8,-2,0,126,81,62
43530,3,0,1,83,520,115,25,3,311,15,-33,310,24,-3,-40,0,2,-1,-31,-7,-2,0,126,81,62
43631,3,0,1,83,528,111,23,3,326,19,-30,324,25,0,-40,0,1,-1,-30,-7,-2,0,126,81,62
43732,3,0,1,83,531,112,24,4,321,19,-24,319,26,-3,-40,0,1,-1,-29,-7,-3,0,127,80,62
43834,3,0,1,82,531,81,23,4,331,20,-30,329,26,2,-40,0,0,-1,-27,-6,-3,0,124,80,62
43935,3,0,1,82,531,81,23,4,331,20,-30,329,26,2,-40,0,1,0,-26,-6,-4,0,126,80,62
44036,3,0,1,82,532,77,23,4,331,20,-37,328,26,0,-40,0,1,0,-25,-5,-4,0,126,80,62
44137,3,0,1,81,532,88,23,4,331,20,-33,329,27,0,-40,0,1,0,-23,-5,-4,0,126,80,62
44238,3,0,1,81,532,88,23,4,331,20,-33,329,27,0,-40,0,1,0,-22,-5,-4,0,126,80,62
44341,3,0,1,82,522,87,22,3,342,17,-34,339,26,3,-40,0,1,0,-21,-4,-5,0,125,80,62
44442,3,0,1,83,526,85,22,3,347,19,-36,345,27,6,-40,0,1,0,-20,-4,-5,0,125,80,62
44544,3,0,1,83,526,85,22,3,347,19,-36,345,27,6,-40,0,1,0,-19,-4,-5,0,128,80,62
44645,3,0,1,83,526,85,22,3,347,19,-36,345,27,6,-40,0,1,0,-18,-4,-5,0,128,80,62
44748,3,0,1,81,515,96,21,2,358,15,-33,356,26,10,-40,0,1,0,-17,-3,-5,0,129,80,62
44850,3,0,1,81,515,96,21,2,358,15,-33,356,26,10,-40,0,1,0,-15,-3,-5,0,130,80,62
44951,3,0,1,81,514,96,21,2,370,15,-34,368,26,13,-40,0,1,0,-13,-3,-5,0,131,80,62
45051,3,0,1,82,520,99,20,3,376,18,-33,374,27,16,-40,0,1,0,-12,-2,-5,0,131,80,62
45153,3,0,1,82,517,96,21,3,370,16,-34,368,26,12,-40,0,1,0,-10,-2,-6,0,131,80,62
45254,3,0,1,82,514,103,21,2,364,15,-31,362,26,9,-40,0,1,0,-8,-2,-6,0,132,80,62
45356,3,0,1,82,514,103,21,2,364,15,-31,362,26,9,-40,0,0,0,-6,-2,-6,0,133,80,62
45457,3,0,1,81,505,110,21,2,364,11,-22,363,26,13,-40,0,0,0,-5,-1,-6,0,134,80,62
45558,3,0,1,81,505,110,21,2,364,11,-22,363,26,13,-40,0,0,0,-3,-1,-6,0,135,80,62
45659,3,0,1,74,493,103,21,1,370,5,-25,368,25,14,-40,0,0,0,-2,-1,-6,0,135,80,62
45760,3,0,1,74,493,103,21,1,370,5,-25,368,25,14,-40,0,0,0,0,0,-6,0,136,79,62
45861,3,0,1,63,474,112,20,-0,388,-2,-22,386,13,24,-40,0,0,0,0,0,-6,0,136,79,63
45961,3,0,1,72,467,125,19,-1,394,-6,-17,393,13,27,-40,0,0,0,1,0,-6,0,135,79,63
46063,3,0,1,82,463,123,20,-1,376,-7,-17,375,12,19,-40,0,0,0,2,0,-6,0,136,79,63
46164,3,0,1,83,460,123,20,-1,376,-9,-17,375,12,22,-40,0,0,0,2,0,-6,0,135,79,63
46265,3,0,1,83,459,116,20,-1,382,-9,-14,380,12,25,-40,0,-1,0,3,0,-6,0,134,79,63
46365,3,0,1,82,457,112,20,-2,388,-10,-16,386,12,28,-40,0,-1,0,3,0,-6,0,135,79,63
46466,3,0,1,83,460,122,20,-1,388,-9,-12,387,13,28,-40,0,-1,1,4,0,-6,0,133,79,63
46567,3,0,1,71,471,114,19,-1,413,-4,-16,412,14,40,-40,0,-1,1,4,1,-6,0,133,79,63
46667,3,0,1,71,471,114,19,-1,413,-4,-16,412,14,40,-40,0,-1,1,4,1,-6,0,135,79,63
46768,3,0,1,64,488,105,20,1,376,3,-18,374,25,23,-40,0,-1,1,4,1,-7,0,134,79,63
46869,3,0,1,77,496,109,21,1,364,7,-16,363,26,22,-40,0,-2,1,4,2,-7,0,133,79,62
46970,3,0,1,82,515,113,21,2,364,15,-8,363,28,23,-40,0,-2,1,5,2,-7,0,133,79,62
47071,3,0,1,83,532,110,22,4,347,21,-9,345,30,16,-40,0,-2,1,6,3,-6,0,132,79,62
47172,3,0,1,80,559,119,20,6,376,36,-6,373,33,32,-40,0,-1,1,8,3,-6,0,132,79,62
47273,3,0,1,71,569,119,20,6,376,40,-12,373,33,29,-40,0,-1,1,10,3,-6,0,132,79,62
47374,3,0,1,71,569,119,20,6,376,40,-12,373,33,29,-40,0,0,2,12,3,-6,0,133,79,62
47480,3,0,1,83,622,122,24,10,321,55,-9,316,39,12,-40,0,-1,2,14,3,-6,0,133,79,62
47581,3,0,1,83,619,123,24,10,321,54,-9,316,37,14,-40,0,-1,2,16,3,-6,0,133,79,62
47681,3,0,1,83,634,114,24,11,321,59,-12,315,40,14,-40,0,-1,2,18,3,-6,0,134,79,62
47782,3,0,1,83,636,116,23,11,327,61,-6,320,40,18,-40,0,-2,2,20,4,-6,0,135,78,62
47890,3,0,1,83,634,115,25,11,307,57,-11,300,40,9,-40,0,-1,2,22,4,-6,0,133,78,63
47991,3,0,1,83,634,121,24,11,321,60,-15,315,40,19,-40,0,0,2,25,4,-6,0,134,78,63
48092,3,0,1,83,637,126,25,11,312,59,-8,306,41,12,-40,0,-1,3,28,4,-6,0,134,78,63
48193,3,0,1,83,637,125,24,11,317,60,-8,311,41,17,-40,0,-1,2,30,3,-6,0,134,78,63
48294,3,0,1,82,639,121,25,11,311,60,-4,305,42,14,-40,0,-2,2,32,3,-6,0,133,78,63
48394,3,0,1,83,631,131,26,11,297,54,3,291,41,-2,-40,0,-3,2,35,4,-6,0,134,78,63
48495,3,0,1,82,616,123,26,10,292,48,-3,288,40,-4,-40,0,-2,2,38,4,-6,0,134,78,63
48596,3,0,1,82,616,123,26,10,292,48,1,288,41,-3,-40,0,-3,2,41,4,-5,0,134,78,63
48697,3,0,1,77,599,125,25,8,311,45,-3,307,39,18,-40,0,-2,2,44,4,-5,0,132,78,63
48798,3,0,1,68,590,124,27,8,287,38,-3,284,39,-6,-40,0,-2,1,47,4,-5,0,133,78,63
48900,3,0,1,72,561,120,25,6,301,29,-4,299,35,15,-40,0,-2,1,50,3,-5,0,132,78,63
49001,3,0,1,82,543,118,26,4,292,22,0,290,35,-2,-40,0,-3,0,53,3,-5,0,134,78,63
49102,3,0,1,81,506,124,27,2,283,8,6,282,31,-4,-40,0,-4,0,55,3,-4,0,134,78,63
49203,3,0,1,64,488,125,25,1,311,3,7,310,30,22,-40,0,-4,-1,57,4,-4,0,133,78,63
49304,3,0,1,82,460,121,25,-1,311,-7,6,310,17,17,-40,0,-4,-1,59,4,-4,0,134,78,63
49405,3,0,1,83,435,124,26,-3,292,-16,6,291,16,-1,-40,0,-4,-1,61,4,-4,0,134,78,63
49506,3,0,1,81,409,117,25,-5,306,-26,4,304,13,17,-40,0,-4,0,62,4,-4,0,134,78,63
49608,3,0,1,74,398,121,25,-6,306,-30,11,303,13,14,-40,0,-5,0,62,4,-4,0,136,78,63
49709,3,0,1,71,397,121,25,-6,311,-31,11,308,13,18,-40,0,-5,0,63,5,-3,0,135,77,63
49810,3,0,1,69,367,129,25,-8,311,-42,8,307,10,17,-40,0,-4,0,63,5,-3,0,135,77,63
49912,3,0,1,67,369,120,25,-8,301,-40,11,297,11,12,-40,0,-5,0,63,5,-3,0,136,77,63
50013,3,0,1,66,395,138,26,-6,296,-30,16,294,14,0,-40,0,-5,0,64,5,-3,0,136,77,63
50114,3,0,1,66,395,138,26,-6,296,-30,16,294,14,0,-40,0,-5,0,64,5,-2,0,136,77,63
50215,3,0,1,73,403,121,25,-5,306,-28,11,304,15,14,-40,0,-4,0,64,5,-2,0,137,77,63
50316,3,0,1,81,403,139,27,-5,287,-26,11,285,15,-6,-40,0,-4,0,64,6,-2,0,138,77,63
50416,3,0,1,83,454,135,27,-2,283,-8,4,282,20,-8,-40,0,-3,0,65,6,-2,0,138,77,63
50517,3,0,1,83,454,135,27,-2,283,-8,4,282,20,-8,-40,0,-3,0,65,6,-2,0,138,77,63
50619,3,0,1,75,465,131,27,-1,283,-5,3,282,20,-4,-40,0,-3,0,65,6,-2,0,138,77,63
50720,3,0,1,79,494,137,25,1,301,5,5,300,33,13,-40,0,-3,0,66,6,-2,0,139,77,63
50821,3,0,1,83,515,117,28,2,269,11,0,268,35,-14,-40,0,-3,0,67,5,-2,0,140,77,63
50922,3,0,1,81,532,136,28,4,274,17,5,273,36,-7,-40,0,-3,0,68,5,-3,0,139,77,63
51023,3,0,1,75,562,160,27,6,287,28,12,285,40,-3,-40,0,-4,0,70,5,-3,0,139,77,63
51125,3,0,1,75,562,160,27,6,287,28,12,285,40,-3,-40,0,-5,0,72,5,-3,0,140,77,63
51226,3,0,1,62,590,153,27,8,287,38,20,284,41,-3,-40,0,-5,-1,74,5,-3,0,141,77,63
51328,3,0,1,62,590,153,27,8,287,38,20,284,41,-3,-40,0,-5,-1,76,5,-3,0,140,77,63
51428,3,0,1,78,593,149,27,8,283,38,18,280,41,-5,-40,0,-5,-1,78,5,-3,0,140,77,63
51529,3,0,1,64,586,150,28,7,274,35,18,271,40,-10,-40,0,-5,-2,81,5,-2,0,140,77,63
51630,3,0,1,69,569,148,29,6,262,28,17,260,38,-14,-40,0,-4,-2,83,5,-2,0,140,77,63
51731,3,0,1,76,567,165,28,6,274,29,18,272,39,-7,-40,0,-4,-3,86,5,-2,0,140,76,63
51832,3,0,1,79,561,161,28,6,274,27,21,273,38,-9,-40,0,-5,-2,89,5,-2,0,139,76,63
51933,3,0,1,79,552,142,30,5,254,22,15,253,37,-18,-40,0,-5,-3,91,5,-2,0,139,76,63
52034,3,0,1,79,552,142,30,5,254,22,15,253,37,-18,-40,0,-5,-3,93,5,-2,0,138,76,63
52135,3,0,1,83,512,131,30,2,258,10,12,258,34,-14,-40,0,-5,-3,96,6,-2,0,137,76,63
52236,3,0,1,82,505,131,29,2,267,8,17,266,34,-11,-40,0,-6,-3,98,6,-2,0,136,76,63
52337,3,0,1,82,505,131,29,2,267,8,17,266,34,-11,-40,0,-6,-3,100,6,-2,0,135,76,63
52438,3,0,1,79,485,132,29,0,263,1,17,262,32,-13,-40,0,-6,-3,102,6,-2,0,135,76,63
52540,3,0,1,82,451,122,30,-2,258,-9,10,257,19,-15,-40,0,-5,-3,104,6,-1,0,134,76,63
52641,3,0,1,79,439,101,31,-3,250,-12,4,249,18,-19,-40,0,-5,-3,106,7,-1,0,134,76,63
52742,3,0,1,82,433,88,27,-3,279,-15,0,277,18,-5,-40,0,-5,-2,108,7,-1,0,135,76,63
52843,3,0,1,81,413,81,29,-5,262,-21,3,259,15,-17,-40,0,-6,-2,109,6,-1,0,133,76,63
52944,3,0,1,75,406,85,29,-5,264,-23,0,261,15,-13,-40,0,-5,-4,110,6,-1,0,133,76,63
53045,3,0,1,73,403,75,27,-5,281,-26,-2,278,15,-6,-40,0,-5,-4,110,6,-1,0,133,76,63
53147,3,0,1,64,401,70,26,-6,295,-28,-9,291,15,-2,-40,0,-4,-4,111,6,-1,0,132,76,63
53248,3,0,1,66,394,78,26,-6,299,-31,-7,296,14,9,-40,0,-4,-4,111,6,-1,0,133,76,63
53349,3,0,1,66,394,78,26,-6,299,-31,-7,296,14,9,-40,0,-4,-4,111,6,-1,0,133,76,63
53450,3,0,1,74,403,72,27,-5,281,-26,-8,278,15,-10,-40,0,-4,-4,112,6,-1,0,132,76,63
53551,3,0,1,73,404,89,26,-5,299,-27,1,296,15,14,-40,0,-5,-4,112,6,-1,0,133,76,63
53652,3,0,1,71,421,79,24,-4,319,-22,-2,316,17,17,-40,0,-5,-4,113,6,-1,0,132,76,63
53753,3,0,1,74,430,79,25,-4,304,-18,-1,302,17,9,-40,0,-5,-4,113,6,-1,0,132,75,63
53854,3,0,1,72,436,66,27,-3,290,-15,-5,287,18,-8,-40,0,-5,-4,113,5,-1,0,132,75,63
53955,3,0,1,70,450,77,26,-2,299,-10,-2,297,19,9,-40,0,-5,-4,114,6,-2,0,132,75,63
54057,3,0,1,74,445,76,25,-2,309,-13,-2,307,18,10,-40,0,-5,-4,114,6,-2,0,133,75,63
54158,3,0,1,62,460,85,25,-1,304,-7,0,302,20,8,-40,0,-5,-4,115,6,-2,0,133,75,63
54260,3,0,1,67,471,72,23,-1,340,-3,-4,337,20,24,-40,0,-5,-4,115,6,-2,0,134,75,63
54361,3,0,1,69,488,78,25,1,303,2,-2,301,32,3,-40,0,-5,-3,116,6,-2,0,134,75,63
54463,3,0,0,69,488,78,0,1,303,2,-2,301,32,3,-40,0,-5,-3,116,6,-2,0,134,75,63
54564,3,0,2,61,470,51,39,1,196,2,-6,194,32,-49,-40,0,-5,-3,117,6,-2,0,135,75,63
54665,3,0,1,71,525,90,27,3,285,15,1,283,35,-14,-40,0,-5,-4,118,6,-2,0,137,75,63
54765,3,0,1,71,525,90,27,3,285,15,1,283,35,-14,-40,0,-5,-4,120,6,-3,0,137,75,63
54866,3,0,0,64,537,71,0,4,314,21,-4,311,0,0,0,0,-5,-4,122,6,-3,0,137,75,63
54967,3,0,1,70,541,72,25,4,304,22,-4,301,10,6,-40,0,-5,-4,123,7,-4,0,138,75,63
55068,3,0,1,70,541,72,25,4,304,22,-4,301,10,6,-40,0,-5,-4,125,7,-4,0,137,75,63
55169,3,0,1,66,512,78,24,2,324,12,-2,322,7,8,-40,0,-5,-4,126,6,-5,0,138,75,63
55270,3,0,1,66,512,78,24,2,324,12,-2,322,7,8,-40,0,-5,-4,126,6,-5,0,138,75,63
55377,3,0,1,61,502,69,23,2,329,8,-5,327,6,15,-40,0,-5,-5,126,5,-5,0,136,75,63
55477,3,0,1,61,502,69,23,2,329,8,-5,327,6,15,-40,0,-5,-4,126,5,-6,0,136,75,63
55578,3,0,0,61,502,69,0,2,329,8,-5,327,0,0,0,0,-5,-5,126,5,-6,0,135,75,63
55679,3,0,0,61,502,69,0,2,329,8,-5,327,0,0,0,0,-5,-5,127,4,-5,0,134,74,63
55780,3,0,0,61,502,69,0,2,329,8,-5,327,0,0,0,0,-5,-4,127,4,-5,0,134,74,63
55881,3,0,0,61,502,69,0,2,329,8,-5,327,0,0,0,0,-5,-4,127,4,-5,0,134,74,63
55982,3,0,0,61,502,69,0,2,329,8,-5,327,0,0,0,0,-5,-4,128,4,-5,0,133,74,64
56082,3,0,0,61,502,69,0,2,329,8,-5,327,0,0,0,0,-5,-4,128,4,-5,0,133,74,64
56183,3,0,0,61,502,69,0,2,329,8,-5,327,0,0,0,0,-5,-3,128,4,-5,0,132,74,64
56284,3,0,0,61,502,69,0,2,329,8,-5,327,0,0,0,0,-5,-3,128,4,-6,0,132,74,64
56385,3,0,0,61,502,69,0,2,329,8,-5,327,0,0,0,0,-5,-3,128,4,-6,0,130,74,64
56486,3,0,0,61,502,69,0,2,329,8,-5,327,0,0,0,0,-5,-3,128,4,-6,0,130,74,64
56587,3,0,0,61,502,69,0,2,329,8,-5,327,0,0,0,0,-5,-3,127,4,-6,0,130,74,64
56688,3,0,0,61,502,69,0,2,329,8,-5,327,0,0,0,0,-5,-3,127,4,-6,0,130,74,64
56789,3,0,0,61,502,69,0,2,329,8,-5,327,0,0,0,0,-6,-3,128,4,-6,0,129,74,64
56890,3,0,0,61,502,69,0,2,329,8,-5,327,0,0,0,0,-6,-2,128,3,-6,0,128,74,64
56991,3,0,1,69,623,36,30,10,254,43,-8,247,15,-19,-40,0,-6,-2,128,3,-7,0,127,74,64
57091,3,0,1,67,640,40,31,11,246,47,-7,239,18,-22,-40,0,-6,-2,128,3,-7,0,126,74,64
57192,3,0,1,69,649,35,27,12,288,58,-10,279,19,-2,-40,0,-6,-2,128,2,-7,0,126,74,64
57293,3,0,0,69,649,35,0,12,288,58,-10,279,0,0,0,0,-5,-4,128,1,-7,0,126,74,64
57395,3,0,0,69,649,35,0,12,288,58,-10,279,0,0,0,0,-4,-5,129,1,-7,0,125,74,64
57496,3,0,0,69,649,35,0,12,288,58,-10,279,0,0,0,0,-4,-5,130,1,-7,0,125,74,64
57596,3,0,0,69,649,35,0,12,288,58,-10,279,0,0,0,0,-4,-4,130,1,-8,0,126,74,64
57697,3,0,0,69,649,35,0,12,288,58,-10,279,0,0,0,0,-4,-4,130,1,-8,0,127,74,64
57798,3,0,0,69,649,35,0,12,288,58,-10,279,0,0,0,0,-5,-4,130,1,-8,0,127,73,64
57900,3,0,0,69,649,35,0,12,288,58,-10,279,0,0,0,0,-5,-4,130,1,-8,0,129,73,64
58001,3,0,0,69,649,35,0,12,288,58,-10,279,0,0,0,0,-5,-4,130,0,-8,0,130,73,64
58103,3,0,0,69,649,35,0,12,288,58,-10,279,0,0,0,0,-5,-4,130,0,-8,0,132,73,64
58204,3,0,0,69,649,35,0,12,288,58,-10,279,0,0,0,0,-5,-4,130,0,-8,0,133,73,64
58304,3,0,0,69,649,35,0,12,288,58,-10,279,0,0,0,0,-5,-4,130,0,-8,0,134,73,64
58405,3,0,0,69,649,35,0,12,288,58,-10,279,0,0,0,0,-5,-5,130,0,-8,0,135,73,64
58506,3,0,0,69,649,35,0,12,288,58,-10,279,0,0,0,0,-5,-5,130,0,-8,0,135,73,64
58607,3,0,0,69,649,35,0,12,288,58,-10,279,0,0,0,0,-5,-4,130,0,-7,0,134,73,64
58708,3,0,0,69,649,35,0,12,288,58,-10,279,0,0,0,0,-5,-4,130,0,-7,0,134,73,64
58809,3,0,0,69,649,35,0,12,288,58,-10,279,0,0,0,0,-5,-4,130,0,-7,0,135,73,64
58910,3,0,0,69,649,35,0,12,288,58,-10,279,0,0,0,0,-5,-4,130,0,-7,0,133,73,64
59012,3,0,0,69,649,35,0,12,288,58,-10,279,0,0,0,0,-5,-4,130,0,-7,0,134,73,64
59113,3,0,0,69,649,35,0,12,288,58,-10,279,0,0,0,0,-5,-4,130,0,-7,0,133,73,64
59215,3,0,0,69,649,35,0,12,288,58,-10,279,0,0,0,0,-5,-4,130,0,-8,0,133,73,64
59315,3,0,0,69,649,35,0,12,288,58,-10,279,0,0,0,0,-5,-5,130,0,-8,0,132,73,64
59416,3,0,0,69,649,35,0,12,288,58,-10,279,0,0,0,0,-6,-5,130,0,-8,0,132,73,64
59517,3,0,0,69,649,35,0,12,288,58,-10,279,0,0,0,0,-6,-5,130,0,-7,0,131,73,64
59618,3,0,0,69,649,35,0,12,288,58,-10,279,0,0,0,0,-7,-6,130,0,-6,0,131,73,64
59719,3,0,0,69,649,35,0,12,288,58,-10,279,0,0,0,0,-7,-6,130,0,-6,0,132,72,64
59820,3,0,0,69,649,35,0,12,288,58,-10,279,0,0,0,0,-7,-7,130,0,-5,0,131,72,64
59921,3,0,0,69,649,35,0,12,288,58,-10,279,0,0,0,0,-7,-8,130,0,-5,0,132,72,64
60022,3,0,0,69,649,35,0,12,288,58,-10,279,0,0,0,0,-7,-8,130,0,-5,0,133,72,64
60123,3,0,0,69,649,35,0,12,288,58,-10,279,0,0,0,0,-8,-8,130,0,-4,0,134,72,64
60224,3,0,0,69,649,35,0,12,288,58,-10,279,0,0,0,0,-8,-8,130,0,-3,0,135,72,64
60325,3,0,0,69,649,35,0,12,288,58,-10,279,0,0,0,0,-8,-9,130,0,-3,0,137,72,64
60426,3,0,0,69,649,35,0,12,288,58,-10,279,0,0,0,0,-8,-9,130,0,-3,0,137,72,64
60527,3,0,0,69,649,35,0,12,288,58,-10,279,0,0,0,0,-8,-9,130,0,-2,0,138,72,64
60629,3,0,0,69,649,35,0,12,288,58,-10,279,0,0,0,0,-7,-8,130,0,-1,0,138,72,64
60730,3,0,0,69,649,35,0,12,288,58,-10,279,0,0,0,0,-6,-7,130,0,-1,0,138,72,64
60839,3,0,0,69,649,35,0,12,288,58,-10,279,0,0,0,0,-6,-7,130,0,-1,0,139,72,64
60941,3,0,0,69,649,35,0,12,288,58,-10,279,0,0,0,0,-7,-7,130,0,-1,0,140,72,63
61042,3,0,0,69,649,35,0,12,288,58,-10,279,0,0,0,0,-7,-7,130,0,-1,0,140,72,63
61143,3,0,0,69,649,35,0,12,288,58,-10,279,0,0,0,0,-8,-9,130,0,-1,0,141,72,63
61244,3,0,0,69,649,35,0,12,288,58,-10,279,0,0,0,0,-8,-9,130,0,-1,0,141,72,63
61345,3,0,0,69,649,35,0,12,288,58,-10,279,0,0,0,0,-7,-9,130,0,-1,0,141,72,63
61445,3,0,0,69,649,35,0,12,288,58,-10,279,0,0,0,0,-7,-9,130,0,-1,0,141,72,63
61549,3,0,0,69,649,35,0,12,288,58,-10,279,0,0,0,0,-7,-10,130,0,-1,0,141,72,63
61651,3,0,0,69,649,35,0,12,288,58,-10,279,0,0,0,0,-8,-10,130,0,-1,0,140,71,63
61752,3,0,0,69,649,35,0,12,288,58,-10,279,0,0,0,0,-8,-10,130,0,0,0,139,71,63
61853,3,0,0,69,649,35,0,12,288,58,-10,279,0,0,0,0,-8,-10,130,0,0,0,139,71,63
61955,3,0,0,69,649,35,0,12,288,58,-10,279,0,0,0,0,-8,-10,130,0,0,0,139,71,64
62056,3,0,0,69,649,35,0,12,288,58,-10,279,0,0,0,0,-8,-10,130,0,0,0,139,71,64
62157,3,0,0,69,649,35,0,12,288,58,-10,279,0,0,0,0,-7,-10,130,0,0,0,138,71,64
62258,3,0,0,69,649,35,0,12,288,58,-10,279,0,0,0,0,-6,-9,130,0,0,0,137,71,64
62360,3,0,0,69,649,35,0,12,288,58,-10,279,0,0,0,0,-6,-10,130,0,0,0,138,71,64
62467,3,0,0,69,649,35,0,12,288,58,-10,279,0,0,0,0,-6,-8,130,0,0,0,136,71,64
62572,3,0,0,69,649,35,0,12,288,58,-10,279,0,0,0,0,-5,-8,130,0,0,0,135,71,64
62673,3,0,0,69,649,35,0,12,288,58,-10,279,0,0,0,0,-5,-9,130,0,0,0,137,71,64
62774,3,0,0,69,649,35,0,12,288,58,-10,279,0,0,0,0,-5,-8,130,0,0,0,136,71,64
62876,3,0,0,69,649,35,0,12,288,58,-10,279,0,0,0,0,-6,-8,130,0,0,0,137,71,64
62977,3,0,0,69,649,35,0,12,288,58,-10,279,0,0,0,0,-5,-8,130,0,0,0,138,71,64
63078,3,0,0,69,649,35,0,12,288,58,-10,279,0,0,0,0,-5,-8,130,0,0,0,138,71,64
63180,3,0,0,69,649,35,0,12,288,58,-10,279,0,0,0,0,-8,-7,130,1,0,0,138,71,64
63281,3,0,0,69,649,35,0,12,288,58,-10,279,0,0,0,0,-7,-7,130,1,0,0,136,71,64
63382,3,0,0,69,649,35,0,12,288,58,-10,279,0,0,0,0,-8,-6,130,1,0,0,136,71,64
63484,3,0,0,69,649,35,0,12,288,58,-10,279,0,0,0,0,-9,-5,130,1,0,0,135,71,64
63585,3,0,0,69,649,35,0,12,288,58,-10,279,0,0,0,0,-10,-5,130,1,0,0,135,71,64
63686,3,0,0,69,649,35,0,12,288,58,-10,279,0,0,0,0,-10,-4,130,1,0,0,135,70,64
63788,3,0,0,69,649,35,0,12,288,58,-10,279,0,0,0,0,-10,-3,130,1,0,0,135,70,64
63889,3,0,0,69,649,35,0,12,288,58,-10,279,0,0,0,0,-10,-3,130,1,0,0,135,70,64
63990,3,0,0,69,649,35,0,12,288,58,-10,279,0,0,0,0,-11,-3,130,1,0,0,136,70,64
64091,3,0,0,69,649,35,0,12,288,58,-10,279,0,0,0,0,-11,-3,130,1,0,0,135,70,64
64192,3,0,0,69,649,35,0,12,288,58,-10,279,0,0,0,0,-11,-3,130,0,0,0,136,70,64
64293,3,0,0,69,649,35,0,12,288,58,-10,279,0,0,0,0,-10,-5,130,0,0,0,135,70,64
64394,3,0,0,69,649,35,0,12,288,58,-10,279,0,0,0,0,-10,-6,130,0,0,0,136,70,64
64495,3,0,0,69,649,35,0,12,288,58,-10,279,0,0,0,0,-9,-6,130,0,0,0,135,70,64
64596,3,0,0,69,649,35,0,12,288,58,-10,279,0,0,0,0,-8,-4,130,0,1,0,134,70,64
64697,3,0,0,69,649,35,0,12,288,58,-10,279,0,0,0,0,-8,-2,130,0,1,0,136,70,64
64799,3,0,0,69,649,35,0,12,288,58,-10,279,0,0,0,0,-8,-2,130,0,0,0,136,70,64
64900,3,0,0,69,649,35,0,12,288,58,-10,279,0,0,0,0,-8,-2,130,0,0,0,136,70,64
65001,3,0,0,69,649,35,0,12,288,58,-10,279,0,0,0,0,-9,-3,130,0,0,0,139,70,64
65102,3,0,0,69,649,35,0,12,288,58,-10,279,0,0,0,0,-10,-4,130,0,0,0,139,70,64
65206,3,0,0,69,649,35,0,12,288,58,-10,279,0,0,0,0,-10,-4,130,0,0,0,139,70,64
65308,3,0,0,69,649,35,0,12,288,58,-10,279,0,0,0,0,-9,-5,130,0,0,0,137,70,64
65408,3,0,0,69,649,35,0,12,288,58,-10,279,0,0,0,0,-8,-6,130,-1,0,0,137,70,64
65509,3,0,0,69,649,35,0,12,288,58,-10,279,0,0,0,0,-7,-7,130,-1,0,0,136,70,64
65610,3,0,0,69,649,35,0,12,288,58,-10,279,0,0,0,0,-7,-7,130,-1,0,0,135,70,64
65711,3,0,0,69,649,35,0,12,288,58,-10,279,0,0,0,0,-6,-7,130,-1,0,0,136,69,64
65812,3,0,1,64,229,33,27,-18,291,-86,-5,274,-22,-6,-40,0,-7,-7,130,0,0,0,134,69,64
65913,3,0,1,64,229,33,27,-18,291,-86,-5,274,-22,-6,-40,0,-7,-7,130,0,0,0,134,69,64
66013,3,0,1,62,181,36,26,-21,306,-108,-5,282,-29,12,-40,0,-7,-7,130,0,0,0,135,69,63
66115,3,0,0,62,181,36,0,-21,306,-108,-5,282,0,0,0,0,-7,-7,129,0,0,0,137,69,63
66222,3,0,0,70,107,42,0,-26,241,-104,-2,214,0,0,0,0,-7,-10,128,0,0,0,136,69,63
66324,3,0,0,70,107,42,0,-26,241,-104,-2,214,0,0,0,0,-7,-11,127,0,0,0,137,69,63
66425,3,0,0,70,107,42,0,-26,241,-104,-2,214,0,0,0,0,-7,-9,127,1,1,0,137,69,63
66525,3,0,0,70,107,42,0,-26,241,-104,-2,214,0,0,0,0,-7,-6,126,1,1,0,136,69,63
66626,3,0,0,70,107,42,0,-26,241,-104,-2,214,0,0,0,0,-7,-4,126,1,1,0,136,69,63
66728,3,0,0,70,107,42,0,-26,241,-104,-2,214,0,0,0,0,-7,-4,126,1,1,0,137,69,63
66828,3,0,0,70,107,42,0,-26,241,-104,-2,214,0,0,0,0,-7,-5,126,1,0,0,138,69,63
66929,3,0,0,70,107,42,0,-26,241,-104,-2,214,0,0,0,0,-8,-3,126,2,0,0,138,69,63
67030,3,0,0,70,107,42,0,-26,241,-104,-2,214,0,0,0,0,-8,0,126,1,0,0,139,69,63
67131,3,0,0,70,107,42,0,-26,241,-104,-2,214,0,0,0,0,-9,0,126,1,0,0,142,69,63
67232,3,0,0,70,107,42,0,-26,241,-104,-2,214,0,0,0,0,-10,-2,126,1,0,0,139,69,63
67333,3,0,0,70,107,42,0,-26,241,-104,-2,214,0,0,0,0,-10,-2,126,0,0,0,142,69,63
67434,3,0,0,70,107,42,0,-26,241,-104,-2,214,0,0,0,0,-10,-2,126,0,0,0,141,69,63
67535,3,0,0,70,107,42,0,-26,241,-104,-2,214,0,0,0,0,-8,-3,126,0,0,0,142,69,63
67636,3,0,0,70,107,42,0,-26,241,-104,-2,214,0,0,0,0,-7,-3,126,0,0,0,143,69,63
67737,3,0,0,70,107,42,0,-26,241,-104,-2,214,0,0,0,0,-8,-3,126,0,0,0,142,68,63
67839,3,0,0,70,107,42,0,-26,241,-104,-2,214,0,0,0,0,-8,-4,126,0,0,0,145,68,63
67940,3,0,0,70,107,42,0,-26,241,-104,-2,214,0,0,0,0,-8,-4,126,0,0,0,145,68,63
68042,3,0,0,70,107,42,0,-26,241,-104,-2,214,0,0,0,0,-9,-5,126,0,0,0,148,68,64
68143,3,0,0,70,107,42,0,-26,241,-104,-2,214,0,0,0,0,-10,-5,127,0,0,0,148,68,64
68244,3,0,0,70,107,42,0,-26,241,-104,-2,214,0,0,0,0,-10,-5,127,0,0,0,148,68,64
68345,3,0,0,70,107,42,0,-26,241,-104,-2,214,0,0,0,0,-10,-5,127,0,0,0,147,68,64
68446,3,0,0,70,107,42,0,-26,241,-104,-2,214,0,0,0,0,-10,-7,127,0,0,0,149,68,64
68547,3,0,0,70,107,42,0,-26,241,-104,-2,214,0,0,0,0,-9,-8,127,0,0,0,147,68,64
68648,3,0,0,70,107,42,0,-26,241,-104,-2,214,0,0,0,0,-9,-7,127,0,0,0,148,68,64
68749,3,0,0,70,107,42,0,-26,241,-104,-2,214,0,0,0,0,-8,-6,126,0,0,0,146,68,64
68853,3,0,0,70,107,42,0,-26,241,-104,-2,214,0,0,0,0,-8,-5,126,0,0,0,145,68,64
68955,3,0,0,70,107,42,0,-26,241,-104,-2,214,0,0,0,0,-8,-5,126,0,0,0,145,68,64
69056,3,0,0,70,107,42,0,-26,241,-104,-2,214,0,0,0,0,-9,-6,127,0,0,0,146,68,64
69158,3,0,0,70,107,42,0,-26,241,-104,-2,214,0,0,0,0,-10,-6,127,0,0,0,143,68,64
69259,3,0,0,70,107,42,0,-26,241,-104,-2,214,0,0,0,0,-9,-6,127,0,0,0,143,68,64
69360,3,0,0,70,107,42,0,-26,241,-104,-2,214,0,0,0,0,-9,-6,126,0,0,0,143,68,64
69461,3,0,0,70,107,42,0,-26,241,-104,-2,214,0,0,0,0,-9,-6,127,0,0,0,142,68,64
69562,3,0,0,70,107,42,0,-26,241,-104,-2,214,0,0,0,0,-9,-6,126,0,0,0,141,68,64
69663,3,0,0,70,107,42,0,-26,241,-104,-2,214,0,0,0,0,-9,-6,127,0,0,0,141,68,64
69764,3,0,0,70,107,42,0,-26,241,-104,-2,214,0,0,0,0,-8,-6,126,0,0,0,140,67,64
69865,3,0,0,70,107,42,0,-26,241,-104,-2,214,0,0,0,0,-9,-7,126,0,0,0,141,67,64
69965,3,0,0,70,107,42,0,-26,241,-104,-2,214,0,0,0,0,-9,-7,127,0,0,0,139,67,64
70067,3,0,0,70,107,42,0,-26,241,-104,-2,214,0,0,0,0,-9,-6,127,0,0,0,139,67,64
70168,3,0,0,70,107,42,0,-26,241,-104,-2,214,0,0,0,0,-8,-6,126,0,0,0,138,67,64
70269,3,0,0,70,107,42,0,-26,241,-104,-2,214,0,0,0,0,-7,-7,127,0,0,0,137,67,64
70369,3,0,0,70,107,42,0,-26,241,-104,-2,214,0,0,0,0,-7,-7,127,0,0,0,137,67,64
70470,3,0,0,70,107,42,0,-26,241,-104,-2,214,0,0,0,0,-7,-6,127,0,0,0,136,67,64
70571,3,0,0,70,107,42,0,-26,241,-104,-2,214,0,0,0,0,-7,-5,127,0,0,0,134,67,64
70672,3,0,0,70,107,42,0,-26,241,-104,-2,214,0,0,0,0,-7,-5,127,0,0,0,137,67,64
70773,3,0,0,70,107,42,0,-26,241,-104,-2,214,0,0,0,0,-7,-6,126,0,0,0,136,67,64
70875,3,0,0,70,107,42,0,-26,241,-104,-2,214,0,0,0,0,-8,-6,126,0,0,0,133,67,64
70977,3,0,0,70,107,42,0,-26,241,-104,-2,214,0,0,0,0,-8,-6,126,0,0,0,135,67,64
71080,3,0,0,70,107,42,0,-26,241,-104,-2,214,0,0,0,0,-9,-6,127,0,0,0,135,67,65
71181,3,0,0,70,107,42,0,-26,241,-104,-2,214,0,0,0,0,-9,-6,127,0,0,0,135,67,65
71282,3,0,0,70,107,42,0,-26,241,-104,-2,214,0,0,0,0,-8,-7,127,0,0,0,134,67,65
71384,3,0,0,70,107,42,0,-26,241,-104,-2,214,0,0,0,0,-6,-8,127,0,0,0,133,67,65
71490,3,0,0,70,107,42,0,-26,241,-104,-2,214,0,0,0,0,-5,-8,127,0,1,0,133,67,65
71592,3,0,0,70,107,42,0,-26,241,-104,-2,214,0,0,0,0,-6,-5,126,1,1,0,131,67,65
71693,3,0,0,70,107,42,0,-26,241,-104,-2,214,0,0,0,0,-6,-5,126,1,1,0,131,67,65
71794,3,0,0,70,107,42,0,-26,241,-104,-2,214,0,0,0,0,-7,-3,126,1,1,0,131,66,65
71895,3,0,0,70,107,42,0,-26,241,-104,-2,214,0,0,0,0,-8,-3,126,1,0,0,131,66,65
71995,3,0,0,70,107,42,0,-26,241,-104,-2,214,0,0,0,0,-8,-4,126,1,0,0,130,66,65
72096,3,0,0,70,107,42,0,-26,241,-104,-2,214,0,0,0,0,-9,-4,126,0,0,0,130,66,64
72197,3,0,0,70,107,42,0,-26,241,-104,-2,214,0,0,0,0,-8,-4,126,0,0,0,132,66,64
72299,3,0,0,70,107,42,0,-26,241,-104,-2,214,0,0,0,0,-9,-5,126,0,0,0,132,66,64
72400,3,0,0,70,107,42,0,-26,241,-104,-2,214,0,0,0,0,-9,-4,126,0,0,0,132,66,64
72501,3,0,0,70,107,42,0,-26,241,-104,-2,214,0,0,0,0,-9,-4,126,0,0,0,132,66,64
72602,3,0,0,70,107,42,0,-26,241,-104,-2,214,0,0,0,0,-8,-5,126,1,0,0,133,66,64
72703,3,0,0,70,107,42,0,-26,241,-104,-2,214,0,0,0,0,-8,-3,126,1,0,0,133,66,64
72804,3,0,0,70,107,42,0,-26,241,-104,-2,214,0,0,0,0,-10,-3,126,1,0,0,134,66,64
72905,3,0,0,70,107,42,0,-26,241,-104,-2,214,0,0,0,0,-10,-1,126,1,0,0,135,66,64
73006,3,0,0,70,107,42,0,-26,241,-104,-2,214,0,0,0,0,-9,-1,126,0,0,0,134,66,64
73107,3,0,0,70,107,42,0,-26,241,-104,-2,214,0,0,0,0,-8,-1,126,0,0,0,133,66,64
73219,3,0,0,70,107,42,0,-26,241,-104,-2,214,0,0,0,0,-8,-2,126,0,0,0,136,66,64
73320,3,0,0,70,107,42,0,-26,241,-104,-2,214,0,0,0,0,-8,-2,126,0,0,0,134,66,64
73422,3,0,0,70,107,42,0,-26,241,-104,-2,214,0,0,0,0,-7,-2,126,0,0,0,135,66,64
73523,3,0,0,70,107,42,0,-26,241,-104,-2,214,0,0,0,0,-7,-3,126,0,0,0,137,66,64
73625,3,0,0,70,107,42,0,-26,241,-104,-2,214,0,0,0,0,-7,-4,126,0,0,0,135,66,64
73726,3,0,0,70,107,42,0,-26,241,-104,-2,214,0,0,0,0,-8,-5,126,0,0,1,135,66,64
73830,3,0,0,70,107,42,0,-26,241,-104,-2,214,0,0,0,0,-9,-5,126,0,0,1,134,65,64
73931,3,0,0,70,107,42,0,-26,241,-104,-2,214,0,0,0,0,-9,-6,126,0,0,2,131,65,64
74032,3,0,0,70,107,42,0,-26,241,-104,-2,214,0,0,0,0,-9,-6,126,0,0,3,127,65,64
74134,3,0,0,70,107,42,0,-26,241,-104,-2,214,0,0,0,0,-8,-5,126,0,0,4,121,65,64
74235,3,0,0,70,107,42,0,-26,241,-104,-2,214,0,0,0,0,-8,-5,126,0,0,5,115,65,64
74336,3,0,0,70,107,42,0,-26,241,-104,-2,214,0,0,0,0,-7,-5,126,0,0,6,109,65,64
74437,3,0,0,70,107,42,0,-26,241,-104,-2,214,0,0,0,0,-6,-5,126,0,0,7,93,65,64
74538,3,0,0,70,107,42,0,-26,241,-104,-2,214,0,0,0,0,-6,-5,126,0,0,7,93,65,64
74639,3,0,0,70,107,42,0,-26,241,-104,-2,214,0,0,0,0,-6,-5,126,0,0,6,81,65,64
74740,3,0,0,70,107,42,0,-26,241,-104,-2,214,0,0,0,0,-8,-6,126,0,0,6,74,65,64
74843,3,0,0,70,107,42,0,-26,241,-104,-2,214,0,0,0,0,-8,-6,126,0,0,5,68,65,64
74950,3,0,0,70,107,42,0,-26,241,-104,-2,214,0,0,0,0,-9,-6,127,0,0,5,62,65,64
75060,3,0,0,70,107,42,0,-26,241,-104,-2,214,0,0,0,0,-10,-7,126,0,-1,6,56,65,64
75161,3,0,0,70,107,42,0,-26,241,-104,-2,214,0,0,0,0,-11,-6,127,0,-1,6,49,65,64
75263,3,0,0,70,107,42,0,-26,241,-104,-2,214,0,0,0,0,-10,-7,127,0,-1,5,42,65,64
75365,3,0,0,70,107,42,0,-26,241,-104,-2,214,0,0,0,0,-8,-9,127,-1,0,5,36,65,64
75466,3,0,0,70,107,42,0,-26,241,-104,-2,214,0,0,0,0,-7,-9,127,0,0,5,30,65,64
75567,3,0,0,70,107,42,0,-26,241,-104,-2,214,0,0,0,0,-7,-8,126,0,0,4,24,65,64
75670,3,0,0,70,107,42,0,-26,241,-104,-2,214,0,0,0,0,-7,-6,126,0,0,4,24,64,64
75771,3,0,0,70,107,42,0,-26,241,-104,-2,214,0,0,0,0,-7,-6,126,0,0,4,24,64,64
75872,3,0,0,70,107,42,0,-26,241,-104,-2,214,0,0,0,0,-7,-5,127,0,0,4,24,64,64
75973,3,0,0,70,107,42,0,-26,241,-104,-2,214,0,0,0,0,-7,-6,127,0,0,4,24,64,64
76074,3,0,0,70,107,42,0,-26,241,-104,-2,214,0,0,0,0,-7,-8,127,-1,0,3,22,64,65
76175,3,0,0,70,107,42,0,-26,241,-104,-2,214,0,0,0,0,10,-2,127,0,-1,0,22,64,65
76277,3,0,0,70,107,42,0,-26,241,-104,-2,214,0,0,0,0,3,-3,128,1,-1,1,21,64,65
76378,3,0,0,70,107,42,0,-26,241,-104,-2,214,0,0,0,0,3,-2,130,0,0,0,21,64,65
76479,3,0,0,70,107,42,0,-26,241,-104,-2,214,0,0,0,0,3,-2,130,0,0,0,21,64,65
76579,3,0,0,70,107,42,0,-26,241,-104,-2,214,0,0,0,0,3,-2,130,1,0,0,21,64,65
76680,3,0,0,70,107,42,0,-26,241,-104,-2,214,0,0,0,0,3,-2,130,1,0,0,21,64,65
76781,3,0,0,70,107,42,0,-26,241,-104,-2,214,0,0,0,0,3,-2,130,1,0,0,21,64,65
76882,3,0,0,70,107,42,0,-26,241,-104,-2,214,0,0,0,0,3,-2,130,1,0,0,21,64,65
76983,3,0,0,70,107,42,0,-26,241,-104,-2,214,0,0,0,0,3,-2,130,1,0,0,10,64,65
77084,3,0,0,70,107,42,0,-26,241,-104,-2,214,0,0,0,0,3,-2,130,1,0,0,10,64,64
77185,3,0,0,70,107,42,0,-26,241,-104,-2,214,0,0,0,0,3,-2,130,1,0,1,10,64,64
77286,3,0,0,70,107,42,0,-26,241,-104,-2,214,0,0,0,0,3,-2,130,1,0,1,10,64,64
77387,3,0,0,70,107,42,0,-26,241,-104,-2,214,0,0,0,0,3,-2,130,1,0,1,10,64,64
77488,3,0,0,70,107,42,0,-26,241,-104,-2,214,0,0,0,0,3,-2,130,1,0,1,10,64,64
77589,3,0,0,70,107,42,0,-26,241,-104,-2,214,0,0,0,0,3,-2,130,2,0,1,10,64,64
77691,3,0,0,70,107,42,0,-26,241,-104,-2,214,0,0,0,0,3,-2,130,2,0,1,10,64,64
77792,3,0,0,70,107,42,0,-26,241,-104,-2,214,0,0,0,0,3,-2,130,2,0,1,10,64,64
77893,3,0,0,70,107,42,0,-26,241,-104,-2,214,0,0,0,0,3,-2,130,2,0,1,10,64,64
77994,3,0,0,70,107,42,0,-26,241,-104,-2,214,0,0,0,0,3,-2,130,2,0,0,10,64,64
78099,3,0,0,70,107,42,0,-26,241,-104,-2,214,0,0,0,0,3,-2,130,2,0,0,10,64,64
78200,3,0,0,70,107,42,0,-26,241,-104,-2,214,0,0,0,0,3,-2,130,2,1,0,10,64,64
78301,3,0,0,70,107,42,0,-26,241,-104,-2,214,0,0,0,0,3,-2,130,0,0,0,10,64,64
78402,3,0,0,70,107,42,0,-26,241,-104,-2,214,0,0,0,0,3,-2,130,0,0,0,10,64,64
78503,3,0,0,70,107,42,0,-26,241,-104,-2,214,0,0,0,0,3,-2,130,0,0,0,10,64,64
78604,3,0,0,70,107,42,0,-26,241,-104,-2,214,0,0,0,0,3,-2,130,0,0,0,10,64,64
78705,3,0,0,70,107,42,0,-26,241,-104,-2,214,0,0,0,0,3,-2,130,0,0,0,10,64,64
78806,3,0,0,70,107,42,0,-26,241,-104,-2,214,0,0,0,0,3,-2,130,0,0,0,10,64,64
78907,3,0,0,70,107,42,0,-26,241,-104,-2,214,0,0,0,0,3,-2,130,0,0,0,10,64,64
79009,3,0,0,70,107,42,0,-26,241,-104,-2,214,0,0,0,0,3,-2,130,0,0,0,10,64,64
79110,3,0,0,70,107,42,0,-26,241,-104,-2,214,0,0,0,0,3,-2,130,0,0,0,10,64,64
79220,3,0,0,70,107,42,0,-26,241,-104,-2,214,0,0,0,0,3,-2,130,0,0,0,10,64,64
79321,3,0,0,70,107,42,0,-26,241,-104,-2,214,0,0,0,0,3,-2,130,0,0,0,10,64,64
79422,3,0,0,70,107,42,0,-26,241,-104,-2,214,0,0,0,0,3,-2,130,0,0,0,10,64,64
79523,3,0,0,70,107,42,0,-26,241,-104,-2,214,0,0,0,0,3,-2,130,0,0,0,10,64,64
79626,3,0,0,70,107,42,0,-26,241,-104,-2,214,0,0,0,0,3,-2,130,0,0,0,10,64,64
79727,3,0,0,70,107,42,0,-26,241,-104,-2,214,0,0,0,0,3,-2,130,0,0,0,10,64,64
79828,3,0,0,70,107,42,0,-26,241,-104,-2,214,0,0,0,0,3,-2,131,0,0,0,10,64,64
79932,3,0,0,70,107,42,0,-26,241,-104,-2,214,0,0,0,0,3,-2,131,0,0,0,10,64,64
80033,3,0,0,70,107,42,0,-26,241,-104,-2,214,0,0,0,0,3,-2,131,0,0,0,10,64,64
80135,3,0,0,70,107,42,0,-26,241,-104,-2,214,0,0,0,0,3,-2,131,0,0,0,10,64,64
80236,3,0,0,70,107,42,0,-26,241,-104,-2,214,0,0,0,0,3,-2,131,0,0,0,10,64,64
80337,3,0,0,70,107,42,0,-26,241,-104,-2,214,0,0,0,0,3,-2,131,0,0,0,10,64,64
80438,3,0,0,70,107,42,0,-26,241,-104,-2,214,0,0,0,0,3,-2,131,0,0,0,10,64,64
80540,3,0,0,70,107,42,0,-26,241,-104,-2,214,0,0,0,0,3,-2,131,0,0,0,10,64,64
80642,3,0,0,70,107,42,0,-26,241,-104,-2,214,0,0,0,0,3,-2,131,0,0,0,10,64,64
80744,3,0,0,70,107,42,0,-26,241,-104,-2,214,0,0,0,0,3,-2,131,0,0,0,10,64,64
80845,3,0,0,70,107,42,0,-26,241,-104,-2,214,0,0,0,0,3,-2,131,0,0,0,10,64,64
80946,3,0,0,70,107,42,0,-26,241,-104,-2,214,0,0,0,0,3,-2,131,0,0,0,10,64,64
81047,3,0,0,70,107,42,0,-26,241,-104,-2,214,0,0,0,0,3,-2,131,0,0,0,10,64,64
81148,3,0,0,70,107,42,0,-26,241,-104,-2,214,0,0,0,0,3,-2,131,0,0,0,10,64,65
81249,3,0,0,70,107,42,0,-26,241,-104,-2,214,0,0,0,0,3,-2,131,0,0,0,10,64,65
81350,3,0,0,70,107,42,0,-26,241,-104,-2,214,0,0,0,0,3,-2,131,0,0,0,10,64,65
81454,3,0,0,70,107,42,0,-26,241,-104,-2,214,0,0,0,0,3,-2,131,0,0,0,10,64,65
81555,3,0,0,70,107,42,0,-26,241,-104,-2,214,0,0,0,0,3,-2,131,0,0,0,10,64,65
81657,3,0,0,70,107,42,0,-26,241,-104,-2,214,0,0,0,0,3,-2,131,0,0,0,10,64,65
81758,3,0,0,70,107,42,0,-26,241,-104,-2,214,0,0,0,0,3,-2,131,0,0,0,10,64,65
81859,3,0,0,70,107,42,0,-26,241,-104,-2,214,0,0,0,0,3,-2,131,0,0,0,10,64,65
81960,3,0,0,70,107,42,0,-26,241,-104,-2,214,0,0,0,0,3,-2,131,0,0,0,10,64,65
82061,3,0,0,70,107,42,0,-26,241,-104,-2,214,0,0,0,0,3,-2,131,0,0,0,10,64,65
82162,3,0,0,70,107,42,0,-26,241,-104,-2,214,0,0,0,0,3,-2,131,0,0,0,10,64,65
82263,0,0,0,70,107,42,0,-26,241,-104,-2,214,0,0,0,0,3,-2,131,0,0,0,10,64,65
82365,0,0,0,70,107,42,0,-26,241,-104,-2,214,0,0,0,0,3,-2,131,0,0,0,10,64,65
82466,0,0,0,70,107,42,0,-26,241,-104,-2,214,0,0,0,0,3,-2,131,0,0,0,10,64,65
82566,0,0,0,70,107,42,0,-26,241,-104,-2,214,0,0,0,0,3,-2,131,0,0,0,10,64,65
82668,0,0,0,70,107,42,0,-26,241,-104,-2,214,0,0,0,0,3,-2,131,0,0,0,10,64,65
82770,0,0,0,70,107,42,0,-26,241,-104,-2,214,0,0,0,0,3,-2,131,0,0,0,10,64,65
82871,0,0,0,70,107,42,0,-26,241,-104,-2,214,0,0,0,0,3,-2,131,0,0,0,10,64,65
82972,0,0,0,70,107,42,0,-26,241,-104,-2,214,0,0,0,0,3,-2,131,0,0,0,10,64,65
83073,0,0,0,70,107,42,0,-26,241,-104,-2,214,0,0,0,0,3,-2,131,0,0,0,10,64,65
83174,0,0,0,70,107,42,0,-26,241,-104,-2,214,0,0,0,0,3,-2,131,0,0,0,10,64,65
83275,0,0,0,70,107,42,0,-26,241,-104,-2,214,0,0,0,0,3,-2,131,0,0,0,10,64,65
83376,0,0,0,70,107,42,0,-26,241,-104,-2,214,0,0,0,0,3,-2,131,0,0,0,10,64,65
83477,0,0,0,70,107,42,0,-26,241,-104,-2,214,0,0,0,0,3,-2,131,0,0,0,10,64,65
83578,0,0,0,70,107,42,0,-26,241,-104,-2,214,0,0,0,0,3,-2,131,0,0,0,10,64,65
83679,0,0,0,70,107,42,0,-26,241,-104,-2,214,0,0,0,0,3,-2,131,0,0,0,10,64,65
83780,0,0,0,70,107,42,0,-26,241,-104,-2,214,0,0,0,0,3,-2,131,0,0,0,10,64,65
83886,0,0,0,70,107,42,0,-26,241,-104,-2,214,0,0,0,0,3,-2,131,0,0,0,10,64,65
83987,0,0,0,70,107,42,0,-26,241,-104,-2,214,0,0,0,0,3,-2,131,0,0,0,10,64,65
84088,0,0,0,70,107,42,0,-26,241,-104,-2,214,0,0,0,0,3,-2,131,0,0,0,10,64,65
84190,0,0,0,70,107,42,0,-26,241,-104,-2,214,0,0,0,0,3,-2,131,0,0,0,10,64,64
84292,0,0,0,70,107,42,0,-26,241,-104,-2,214,0,0,0,0,3,-2,131,0,0,0,10,64,64
84393,0,0,0,70,107,42,0,-26,241,-104,-2,214,0,0,0,0,3,-2,131,0,0,0,10,64,64
84494,0,0,0,70,107,42,0,-26,241,-104,-2,214,0,0,0,0,3,-2,131,0,0,0,10,64,64
84594,0,0,0,70,107,42,0,-26,241,-104,-2,214,0,0,0,0,3,-2,131,0,0,0,10,64,64
84695,0,0,0,70,107,42,0,-26,241,-104,-2,214,0,0,0,0,3,-2,131,0,0,0,10,64,64
84796,0,0,0,70,107,42,0,-26,241,-104,-2,214,0,0,0,0,3,-2,131,0,0,0,10,64,64
84897,0,0,0,70,107,42,0,-26,241,-104,-2,214,0,0,0,0,3,-2,131,0,0,0,10,64,64
84998,0,0,0,70,107,42,0,-26,241,-104,-2,214,0,0,0,0,3,-2,131,0,0,0,10,64,64
85099,0,0,0,70,107,42,0,-26,241,-104,-2,214,0,0,0,0,3,-2,131,0,0,0,10,64,65
85199,0,0,0,70,107,42,0,-26,241,-104,-2,214,0,0,0,0,3,-2,131,0,0,0,10,64,65
85303,0,0,0,70,107,42,0,-26,241,-104,-2,214,0,0,0,0,3,-2,131,0,0,0,10,64,65
85404,0,0,0,70,107,42,0,-26,241,-104,-2,214,0,0,0,0,3,-2,131,0,0,0,10,64,65
85506,0,0,0,70,107,42,0,-26,241,-104,-2,214,0,0,0,0,3,-2,131,0,0,0,10,64,65
85620,0,0,0,70,107,42,0,-26,241,-104,-2,214,0,0,0,0,3,-2,131,0,0,0,10,64,65
85721,0,0,0,70,107,42,0,-26,241,-104,-2,214,0,0,0,0,3,-2,131,0,0,0,10,64,65
85822,0,0,0,70,107,42,0,-26,241,-104,-2,214,0,0,0,0,3,-2,131,0,0,0,10,64,65
85923,0,0,0,70,107,42,0,-26,241,-104,-2,214,0,0,0,0,3,-2,131,0,0,0,10,64,65
86026,0,0,0,70,107,42,0,-26,241,-104,-2,214,0,0,0,0,3,-2,131,0,0,0,10,64,65
86126,0,0,0,70,107,42,0,-26,241,-104,-2,214,0,0,0,0,3,-2,131,0,0,0,10,64,65
86227,0,0,0,70,107,42,0,-26,241,-104,-2,214,0,0,0,0,3,-2,131,0,0,0,10,64,65
86332,0,0,0,70,107,42,0,-26,241,-104,-2,214,0,0,0,0,3,-2,131,0,0,0,10,64,65
86434,0,0,0,70,107,42,0,-26,241,-104,-2,214,0,0,0,0,3,-2,131,0,0,0,10,64,65
86535,0,0,0,70,107,42,0,-26,241,-104,-2,214,0,0,0,0,3,-2,131,0,0,0,10,64,65
86635,0,0,0,70,107,42,0,-26,241,-104,-2,214,0,0,0,0,3,-2,131,0,0,0,10,64,65
86736,0,0,0,70,107,42,0,-26,241,-104,-2,214,0,0,0,0,3,-2,131,0,0,0,10,64,65
86837,0,0,0,70,107,42,0,-26,241,-104,-2,214,0,0,0,0,3,-2,131,0,0,0,10,64,65
86941,0,0,0,70,107,42,0,-26,241,-104,-2,214,0,0,0,0,3,-2,131,0,0,0,10,64,65
87042,0,0,0,70,107,42,0,-26,241,-104,-2,214,0,0,0,0,3,-2,131,0,0,0,10,64,65
87143,0,0,0,70,107,42,0,-26,241,-104,-2,214,0,0,0,0,3,-2,131,0,0,0,10,64,65
87243,0,0,0,70,107,42,0,-26,241,-104,-2,214,0,0,0,0,3,-2,131,0,0,0,10,64,65
87344,0,0,0,70,107,42,0,-26,241,-104,-2,214,0,0,0,0,3,-2,131,0,0,0,10,64,65
87445,0,0,0,70,107,42,0,-26,241,-104,-2,214,0,0,0,0,3,-2,131,0,0,0,10,64,65
87546,0,0,0,70,107,42,0,-26,241,-104,-2,214,0,0,0,0,3,-2,131,0,0,0,10,64,65
87647,0,0,0,70,107,42,0,-26,241,-104,-2,214,0,0,0,0,3,-2,131,0,0,0,10,64,65
87748,0,0,0,70,107,42,0,-26,241,-104,-2,214,0,0,0,0,3,-2,131,0,0,0,10,64,65
87848,0,0,0,70,107,42,0,-26,241,-104,-2,214,0,0,0,0,3,-2,131,0,0,0,10,64,65
87949,0,0,0,70,107,42,0,-26,241,-104,-2,214,0,0,0,0,3,-2,131,0,0,0,10,64,65
88050,0,0,0,70,107,42,0,-26,241,-104,-2,214,0,0,0,0,3,-2,131,0,0,0,10,64,65
88151,0,0,0,70,107,42,0,-26,241,-104,-2,214,0,0,0,0,3,-2,131,0,0,0,10,64,66
88251,0,0,0,70,107,42,0,-26,241,-104,-2,214,0,0,0,0,4,-1,131,0,0,0,10,64,66
88352,0,0,0,70,107,42,0,-26,241,-104,-2,214,0,0,0,0,3,-1,131,0,0,0,10,64,66
88453,0,0,0,70,107,42,0,-26,241,-104,-2,214,0,0,0,0,4,-1,131,0,0,0,10,64,66
88554,0,0,0,70,107,42,0,-26,241,-104,-2,214,0,0,0,0,4,-1,131,0,0,0,10,64,66
88655,0,0,0,70,107,42,0,-26,241,-104,-2,214,0,0,0,0,4,-1,131,0,0,0,10,64,66
88755,0,0,0,70,107,42,0,-26,241,-104,-2,214,0,0,0,0,4,-1,131,0,0,0,10,64,66
88856,0,0,0,70,107,42,0,-26,241,-104,-2,214,0,0,0,0,4,-1,131,0,0,0,10,64,66
88956,0,0,0,70,107,42,0,-26,241,-104,-2,214,0,0,0,0,4,-1,131,0,0,0,10,64,66
89057,0,0,0,70,107,42,0,-26,241,-104,-2,214,0,0,0,0,4,-1,131,0,0,0,10,64,66
89158,0,0,0,70,107,42,0,-26,241,-104,-2,214,0,0,0,0,4,-1,131,0,0,0,10,64,65
89258,0,0,0,70,107,42,0,-26,241,-104,-2,214,0,0,0,0,4,-1,131,0,0,0,10,64,65
89359,0,0,0,70,107,42,0,-26,241,-104,-2,214,0,0,0,0,4,-1,131,0,0,0,10,64,65
